store_number,slug,url,location_name,status,address_line1,city,county,state,region,postal_code,country_code,latitude,longitude,time_zone,format,total_building_area_sqft,main_voice_phone_number,state_fips,county_fips,tract_fips,block_fips,cbsa_fips,csa_fips,coord_source,fips_source
lake-havasu-city-1980-mcculloch-blvd,,https://local.albertsons.com/az/lake-havasu-city/1980-mcculloch-blvd.html,Albertsons Lake Havasu City Mccullock,open,1980 Mcculloch Blvd,Lake Havasu City,,Arizona,AZ,86403,US,34.4762,-114.3345,America/Los_Angeles,,,928-854-5300,04,04015,04015953100,040159531001011,29420,,ceo,census
litchfield-park-12970-w-indian-school-rd,,https://local.albertsons.com/az/litchfield-park/12970-w-indian-school-rd.html,Albertsons Indian School and Dysart,open,12970 W Indian School Rd,Litchfield Park,,Arizona,AZ,85340,US,33.4948,-112.3379,America/Phoenix,,,623-535-7991,04,04013,04013061013,040130610132025,38060,429,ceo,census
az-mesa-1951-w-baseline-rd,,https://local.albertsons.com/az/mesa/1951-w-baseline-rd.html,Albertsons Mesa - Baseline and Dobson,open,1951 W Baseline Rd,Mesa,,Arizona,AZ,85202,US,33.3775,-111.8761,America/Phoenix,,,480-456-4373,04,04013,04013422221,040134222213005,38060,429,ceo,census
az-phoenix-18411-n-cave-creek-rd,,https://local.albertsons.com/az/phoenix/18411-n-cave-creek-rd.html,Albertsons Phoenix - Cave Creek and Union Hills,open,18411 N Cave Creek Rd,Phoenix,,Arizona,AZ,85032,US,33.6535,-112.0297,America/Phoenix,,,602-494-7388,04,04013,04013619500,040136195001008,38060,429,ceo,census
az-scottsdale-11475-e-via-linda,,https://local.albertsons.com/az/scottsdale/11475-e-via-linda.html,Albertsons Scottsdale,open,11475 E Via Linda,Scottsdale,,Arizona,AZ,85259,US,33.589,-111.834,America/Phoenix,,,480-767-0819,04,04013,04013216837,040132168373008,38060,429,ceo,census
az-peoria-8240-w-deer-valley-rd,,https://local.albertsons.com/az/peoria/8240-w-deer-valley-rd.html,Albertsons Peoria - 83rd Avenue and Deer Valley,open,8240 W Deer Valley Rd,Peoria,,Arizona,AZ,85382,US,33.6831,-112.2364,America/Phoenix,,,623-572-5744,04,04013,04013613900,040136139001034,38060,429,ceo,census
az-chandler-2935-e-riggs-rd,,https://local.albertsons.com/az/chandler/2935-e-riggs-rd.html,Albertsons Chandler - Riggs and Gilbert,open,2935 E Riggs Rd,Chandler,,Arizona,AZ,85249,US,33.2178,-111.7899,America/Phoenix,,,480-802-1970,04,04013,04013813900,040138139001000,38060,429,ceo,fcc
az-peoria-8950-w-bell-rd,,https://local.albertsons.com/az/peoria/8950-w-bell-rd.html,Albertsons Peoria - Bell and 91st,open,8950 W Bell Rd,Peoria,,Arizona,AZ,85382,US,33.6397,-112.2517,America/Phoenix,,,623-876-8103,04,04013,04013617600,040136176001012,38060,429,ceo,census
az-phoenix-21001-n-tatum-blvd-suite-76,,https://local.albertsons.com/az/phoenix/21001-n-tatum-blvd-suite-76.html,Albertsons Phoenix - Tatum Blvd and Deer Valley,open,21001 N Tatum Blvd Suite 76,Phoenix,,Arizona,AZ,85050,US,33.6779,-111.9745,America/Phoenix,,,480-342-8231,04,04013,04013615202,040136152022007,38060,429,ceo,census
az-mesa-2727-n-power-rd,,https://local.albertsons.com/az/mesa/2727-n-power-rd.html,Albertsons Mesa - Power and McDowell,open,2727 N Power Rd,Mesa,,Arizona,AZ,85215,US,33.4651,-111.6821,America/Phoenix,,,480-396-9282,04,04013,04013420109,040134201092003,38060,429,ceo,census
az-chandler-3145-s-alma-school-rd,,https://local.albertsons.com/az/chandler/3145-s-alma-school-rd.html,Albertsons Chandler - Queen Creek and Alma School,open,3145 S Alma School Rd,Chandler,,Arizona,AZ,85248,US,33.2607,-111.8572,America/Phoenix,,,480-899-7102,04,04013,04013812700,040138127002005,38060,429,ceo,census
az-scottsdale-2785-n-scottsdale-rd,,https://local.albertsons.com/az/scottsdale/2785-n-scottsdale-rd.html,Albertsons Scottsdale - Thomas and Scottsdale,open,2785 N Scottsdale Rd,Scottsdale,,Arizona,AZ,85257,US,33.479,-111.9242,America/Phoenix,,,480-947-6977,04,04013,04013217900,040132179002001,38060,429,ceo,census
glendale-5040-w-cactus-rd,,https://local.albertsons.com/az/glendale/5040-w-cactus-rd.html,Albertsons Glendale - 51st Ave and Cactus,open,5040 W Cactus Rd,Glendale,,Arizona,AZ,85304,US,33.5978,-112.1671,America/Phoenix,,,602-843-1871,04,04013,04013104219,040131042192020,38060,429,ceo,census
gilbert-861-e-warner-rd,,https://local.albertsons.com/az/gilbert/861-e-warner-rd.html,Albertsons Gilbert - Lindsay and Warner,open,861 E Warner Rd,Gilbert,,Arizona,AZ,85296,US,33.334,-111.7717,America/Phoenix,,,480-558-0105,04,04013,04013814500,040138145002000,38060,429,ceo,census
surprise-14551-w-grand-ave,,https://local.albertsons.com/az/surprise/14551-w-grand-ave.html,Albertsons Surprise - Grand and Reems,open,14551 W Grand Ave,Surprise,,Arizona,AZ,85374,US,33.6562,-112.3761,America/Phoenix,,,623-546-8038,04,04013,04013040529,040130405293012,38060,429,ceo,census
az-mesa-325-s-power-rd,,https://local.albertsons.com/az/mesa/325-s-power-rd.html,Albertsons Mesa - Broadway and Power,open,325 S Power Rd,Mesa,,Arizona,AZ,85206,US,33.4095,-111.6824,America/Phoenix,,,480-924-9001,04,04013,04013422626,040134226261013,38060,429,ceo,census
az-phoenix-3130-w-carefree-hwy,,https://local.albertsons.com/az/phoenix/3130-w-carefree-hwy.html,Albertsons Phoenix - Carefree Hwy and I - 17,open,3130 W Carefree Hwy,Phoenix,,Arizona,AZ,85086,US,33.7997,-112.1272,America/Phoenix,,,623-582-4985,04,04013,04013610600,040136106002017,38060,429,ceo,census
az-chandler-4060-w-ray-rd,,https://local.albertsons.com/az/chandler/4060-w-ray-rd.html,Albertsons Chandler - McClintock and Ray,open,4060 W Ray Rd,Chandler,,Arizona,AZ,85226,US,33.3217,-111.9129,America/Phoenix,,,480-491-1026,04,04013,04013810600,040138106001014,38060,429,ceo,census
az-scottsdale-6965-n-hayden-rd,,https://local.albertsons.com/az/scottsdale/6965-n-hayden-rd.html,Albertsons Scottsdale - Hayden and Indian Bend,open,6965 N Hayden Rd,Scottsdale,,Arizona,AZ,85250,US,33.5377,-111.9065,America/Phoenix,,,480-991-9707,04,04013,04013216902,040132169021002,38060,429,ceo,census
az-mesa-441-n-val-vista-dr,,https://local.albertsons.com/az/mesa/441-n-val-vista-dr.html,Albertsons Mesa - Val Vista and University,open,441 N Val Vista Dr,Mesa,,Arizona,AZ,85213,US,33.4239,-111.7523,America/Phoenix,,,480-830-5132,04,04013,04013420706,040134207063015,38060,429,ceo,census
az-tucson-1350-n-silverbell-rd,,https://local.albertsons.com/az/tucson/1350-n-silverbell-rd.html,Albertsons Tucson - Silverbell,open,1350 N Silverbell Rd,Tucson,,Arizona,AZ,85745,US,32.2387,-111.0041,America/Phoenix,,,520-623-7449,04,04019,04019001200,040190012002018,46060,536,ceo,census
az-phoenix-8035-n-19th-ave,,https://local.albertsons.com/az/phoenix/8035-n-19th-ave.html,Albertsons Phoenix - 19th Avenue and Northern,open,8035 N 19th Ave,Phoenix,,Arizona,AZ,85021,US,33.5544,-112.0986,America/Phoenix,,,602-678-0895,04,04013,04013105400,040131054003002,38060,429,ceo,census
az-yuma-2378-w-24th-st,,https://local.albertsons.com/az/yuma/2378-w-24th-st.html,Albertsons Yuma - 24th Street and Avenue B,open,2378 W 24th St,Yuma,,Arizona,AZ,85364,US,32.685,-114.6485,America/Phoenix,,,928-343-2330,04,04027,04027000901,040270009012023,49740,,ceo,census
texarkana-3710-state-line-ave,,https://local.albertsons.com/ar/texarkana/3710-state-line-ave.html,Albertsons Texarkana - State Line & 39th,open,3710 State Line Ave,Texarkana,,Arkansas,AR,71854,US,33.4594,-94.0419,America/Chicago,,,870-774-3146,05,05091,05091020100,050910201001016,45500,,ceo,census
az-tucson-2854-n-campbell-ave,,https://local.albertsons.com/az/tucson/2854-n-campbell-ave.html,Albertsons Tucson - Campbell and Glenn,open,2854 N Campbell Ave,Tucson,,Arizona,AZ,85719,US,32.2589,-110.9426,America/Phoenix,,,520-321-1212,04,04019,04019002702,040190027022020,46060,536,ceo,census
az-mesa-9243-e-baseline-rd,,https://local.albertsons.com/az/mesa/9243-e-baseline-rd.html,Albertsons Mesa - Baseline and Ellsworth,open,9243 E Baseline Rd,Mesa,,Arizona,AZ,85209,US,33.3778,-111.6337,America/Phoenix,,,480-986-3060,04,04013,04013422642,040134226421006,38060,429,ceo,census
az-yuma-252-w-32nd-st,,https://local.albertsons.com/az/yuma/252-w-32nd-st.html,Albertsons Yuma - 32nd,open,252 W 32nd St,Yuma,,Arizona,AZ,85364,US,32.6713,-114.621,America/Phoenix,,,928-726-9500,04,04027,04027001003,040270010031041,49740,,ceo,census
alhambra-2400-w-commonwealth-ave,,https://local.albertsons.com/ca/alhambra/2400-w-commonwealth-ave.html,Albertsons Commonwealth & Fremont,open,2400 W Commonwealth Ave,Alhambra,,California,CA,91803,US,34.0866,-118.1498,America/Los_Angeles,,,626-293-7100,06,06037,06037480802,060374808021002,31080,348,ceo,census
anaheim-810-s-state-college-blvd,,https://local.albertsons.com/ca/anaheim/810-s-state-college-blvd.html,Albertsons State College & South,open,810 S State College Blvd,Anaheim,,California,CA,92806,US,33.8312,-117.8886,America/Los_Angeles,,,714-533-4790,06,06059,06059086305,060590863051004,31080,348,ceo,census
az-tucson-5085-n-la-canada-dr,,https://local.albertsons.com/az/tucson/5085-n-la-canada-dr.html,Albertsons Tucson - River and La Canada,open,5085 N La Canada Dr,Tucson,,Arizona,AZ,85704,US,32.2989,-110.9966,America/Phoenix,,,520-696-0325,04,04019,04019004616,040190046161009,46060,536,ceo,census
alpine-2955-alpine-blvd,,https://local.albertsons.com/ca/alpine/2955-alpine-blvd.html,Albertsons Alpine Blvd & S Grade Rd,open,2955 Alpine Blvd,Alpine,,California,CA,91901,US,32.8331,-116.7503,America/Los_Angeles,,,619-445-0231,06,06073,06073021204,060730212042012,41740,,ceo,census
apple-valley-20261-hwy-18,,https://local.albertsons.com/ca/apple-valley/20261-hwy-18.html,Albertsons Hwy 18 & Thunderbird,open,20261 Hwy 18,Apple Valley,,California,CA,92307,US,34.5252,-117.2203,America/Los_Angeles,,,760-242-3660,06,06071,06071009723,060710097233003,40140,348,ceo,fcc
arcadia-298-e-live-oak-ave,,https://local.albertsons.com/ca/arcadia/298-e-live-oak-ave.html,Albertsons Tyler & Live Oak,open,298 E Live Oak Ave,Arcadia,,California,CA,91006,US,34.1076,-118.023,America/Los_Angeles,,,626-446-1416,06,06037,06037431502,060374315024002,31080,348,ceo,census
banning-300-s-highland-springs-ave-#7,,https://local.albertsons.com/ca/banning/300-s-highland-springs-ave-7.html,Albertsons Banning,open,300 S Highland Springs Ave #7,Banning,,California,CA,92220,US,33.9249,-116.9449,America/Los_Angeles,,,951-769-1779,06,06065,06065043812,060650438123004,40140,348,ceo,census
brea-2500-e-imperial-hwy,,https://local.albertsons.com/ca/brea/2500-e-imperial-hwy.html,Albertsons Kraemer & Imperial Hwy,open,2500 E Imperial Hwy,Brea,,California,CA,92821,US,33.9099,-117.8652,America/Los_Angeles,,,714-671-1180,06,06059,06059011707,060590117074000,31080,348,ceo,census
az-tucson-6600-e-grant-rd,,https://local.albertsons.com/az/tucson/6600-e-grant-rd.html,Albertsons Tucson - Grant and Tanque Verde,open,6600 E Grant Rd,Tucson,,Arizona,AZ,85715,US,32.2479,-110.852,America/Phoenix,,,520-885-6109,04,04019,04019003003,040190030034000,46060,536,ceo,census
ca-bakersfield-13045-rosedale-hwy,,https://local.albertsons.com/ca/bakersfield/13045-rosedale-hwy.html,Albertsons Hwy 58 & Allen,open,13045 Rosedale Hwy,Bakersfield,,California,CA,93314,US,35.3822,-119.1464,America/Los_Angeles,,,661-587-0153,06,06029,06029003819,060290038191000,12540,,ceo,census
blythe-840-e-hobson-way,,https://local.albertsons.com/ca/blythe/840-e-hobson-way.html,Albertsons Blythe,open,840 E Hobson Way,Blythe,,California,CA,92225,US,33.6092,-114.5873,America/Los_Angeles,,,760-922-4099,06,06065,06065046200,060650462002000,40140,348,ceo,census
buellton-222-e-hwy-246,,https://local.albertsons.com/ca/buellton/222-e-hwy-246.html,Albertsons Buellton,open,222 E Hwy 246,Buellton,,California,CA,93427,US,34.6095,-120.1885,America/Los_Angeles,,,805-693-1069,06,06083,06083001912,060830019123024,42200,,ceo,census
ca-bakersfield-1520-brundage-ln,,https://local.albertsons.com/ca/bakersfield/1520-brundage-ln.html,Albertsons Chester & Brundage,open,1520 Brundage Ln,Bakersfield,,California,CA,93304,US,35.3554,-119.0196,America/Los_Angeles,,,661-328-0818,06,06029,06029001902,060290019023022,12540,,ceo,census
az-tucson-7300-n-la-cholla-blvd,,https://local.albertsons.com/az/tucson/7300-n-la-cholla-blvd.html,Albertsons Tucson - Lacholla and Ina,open,7300 N La Cholla Blvd,Tucson,,Arizona,AZ,85741,US,32.3394,-111.0113,America/Phoenix,,,520-575-0993,04,04019,04019004614,040190046142014,46060,536,ceo,census
carpinteria-1018-casitas-pass-rd,,https://local.albertsons.com/ca/carpinteria/1018-casitas-pass-rd.html,Albertsons Casitas Pass & Carpinteria,open,1018 Casitas Pass Rd,Carpinteria,,California,CA,93013,US,34.3948,-119.5122,America/Los_Angeles,,,805-684-4815,06,06083,06083001604,060830016044001,42200,,ceo,census
buena-park-8880-valley-view-st,,https://local.albertsons.com/ca/buena-park/8880-valley-view-st.html,Albertsons Lincoln & Valley View,open,8880 Valley View St,Buena Park,,California,CA,90620,US,33.834,-118.0271,America/Los_Angeles,,,714-236-8200,06,06059,06059110201,060591102013002,31080,348,ceo,census
carson-200-e-sepulveda-blvd,,https://local.albertsons.com/ca/carson/200-e-sepulveda-blvd.html,Albertsons Sepulveda & Main,open,200 E Sepulveda Blvd,Carson,,California,CA,90745,US,33.8064,-118.2727,America/Los_Angeles,,,310-513-1900,06,06037,06037543703,060375437031001,31080,348,ceo,census
chino-12013-central-ave,,https://local.albertsons.com/ca/chino/12013-central-ave.html,Albertsons Central & Philadelphia,open,12013 Central Ave,Chino,,California,CA,91710,US,34.035,-117.6879,America/Los_Angeles,,,909-464-1594,06,06071,06071000404,060710004042000,40140,348,ceo,census
calabasas-26521-agoura-rd,,https://local.albertsons.com/ca/calabasas/26521-agoura-rd.html,Albertsons Agoura Rd & Las Virgenes,open,26521 Agoura Rd,Calabasas,,California,CA,91302,US,34.145,-118.6998,America/Los_Angeles,,,818-880-9080,06,06037,06037800337,060378003372000,31080,348,ceo,census
ca-bakersfield-2691-mt-vernon-ave,,https://local.albertsons.com/ca/bakersfield/2691-mt-vernon-ave.html,Albertsons Columbus & Mt Vernon,open,2691 Mt Vernon Ave,Bakersfield,,California,CA,93306,US,35.3939,-118.9672,America/Los_Angeles,,,661-872-3511,06,06029,06029000903,060290009032006,12540,,ceo,census
az-tucson-9595-e-broadway,,https://local.albertsons.com/az/tucson/9595-e-broadway.html,Albertsons Tucson - Broadway and Harrison,open,9595 E Broadway,Tucson,,Arizona,AZ,85748,US,32.2215,-110.7879,America/Phoenix,,,520-751-7699,04,04019,04019004042,040190040423008,46060,536,ceo,census
chula-vista-720-3rd-ave,,https://local.albertsons.com/ca/chula-vista/720-3rd-ave.html,Albertsons 3rd & J Street,open,720 3rd Ave,Chula Vista,,California,CA,91910,US,32.6265,-117.0758,America/Los_Angeles,,,619-498-5160,06,06073,06073013000,060730130002000,41740,,ceo,census
ca-bakersfield-3500-panama-ln,,https://local.albertsons.com/ca/bakersfield/3500-panama-ln.html,Albertsons Wilba & Panama,open,3500 Panama Ln,Bakersfield,,California,CA,93313,US,35.2966,-119.0414,America/Los_Angeles,,,661-827-0394,06,06029,06029003132,060290031322014,12540,,ceo,census
ca-chino-hills-15970-los-serranos-country-club-dr,,https://local.albertsons.com/ca/chino-hills/15970-los-serranos-country-club-dr.html,Albertsons Los Serranos & Soquel Canyon,open,15970 Los Serranos Country Club Dr,Chino Hills,,California,CA,91709,US,33.9617,-117.6953,America/Los_Angeles,,,909-606-8184,06,06071,06071000120,060710001203005,40140,348,ceo,census
dana-point-33601-del-obispo-st,,https://local.albertsons.com/ca/dana-point/33601-del-obispo-st.html,Albertsons Del Obispo & Stonehill,open,33601 Del Obispo St,Dana Point,,California,CA,92629,US,33.4751,-117.6862,America/Los_Angeles,,,949-496-7900,06,06059,06059042311,060590423112005,31080,348,ceo,census
diamond-bar-1235-s-diamond-bar-blvd,,https://local.albertsons.com/ca/diamond-bar/1235-s-diamond-bar-blvd.html,Albertsons Diamond Bar & Grand,open,1235 S Diamond Bar Blvd,Diamond Bar,,California,CA,91765,US,34.0003,-117.8129,America/Los_Angeles,,,909-861-6207,06,06037,06037403323,060374033233002,31080,348,ceo,census
downey-7676-firestone-blvd,,https://local.albertsons.com/ca/downey/7676-firestone-blvd.html,Albertsons Firestone and Rives,open,7676 Firestone Blvd,Downey,,California,CA,90241,US,33.9456,-118.1444,America/Los_Angeles,,,562-869-9670,06,06037,06037551402,060375514021000,31080,348,ceo,census
ca-bakersfield-6045-coffee-rd,,https://local.albertsons.com/ca/bakersfield/6045-coffee-rd.html,Albertsons Coffee & Olive,open,6045 Coffee Rd,Bakersfield,,California,CA,93308,US,35.4139,-119.094,America/Los_Angeles,,,661-587-2870,06,06029,06029003806,060290038062008,12540,,ceo,census
ca-chino-hills-3255-grand-ave,,https://local.albertsons.com/ca/chino-hills/3255-grand-ave.html,Albertsons Chino Hills,open,3255 Grand Ave,Chino Hills,,California,CA,91709,US,34.0011,-117.7344,America/Los_Angeles,,,909-590-3660,06,06071,06071000105,060710001052018,40140,348,ceo,census
ca-corona-260-w-foothill-pkwy,,https://local.albertsons.com/ca/corona/260-w-foothill-pkwy.html,Albertsons Foothill Pkwy & Main,open,260 W Foothill Pkwy,Corona,,California,CA,92882,US,33.8435,-117.5744,America/Los_Angeles,,,951-340-1425,06,06065,06065041808,060650418082022,40140,348,ceo,census
fallbrook-1133-s-mission-rd,,https://local.albertsons.com/ca/fallbrook/1133-s-mission-rd.html,Albertsons Mission & Ammunition,open,1133 S Mission Rd,Fallbrook,,California,CA,92028,US,33.3717,-117.2559,America/Los_Angeles,,,760-723-8177,06,06073,06073018905,060730189051004,41740,,ceo,census
ca-bakersfield-7900-white-ln,,https://local.albertsons.com/ca/bakersfield/7900-white-ln.html,Albertsons White and Gosford,open,7900 White Ln,Bakersfield,,California,CA,93309,US,35.3194,-119.0901,America/Los_Angeles,,,661-836-9691,06,06029,06029002819,060290028191019,12540,,ceo,census
ca-el-cajon-1608-broadway-st,,https://local.albertsons.com/ca/el-cajon/1608-broadway-st.html,Albertsons El Cajon,open,1608 Broadway St,El Cajon,,California,CA,92021,US,32.8089,-116.9203,America/Los_Angeles,,,619-579-3127,06,06073,06073016401,060730164012000,41740,,ceo,census
ca-corona-7070-archibald-ave,,https://local.albertsons.com/ca/corona/7070-archibald-ave.html,Albertsons Schleisman & Archibald,open,7070 Archibald Ave,Corona,,California,CA,92880,US,33.9595,-117.5916,America/Los_Angeles,,,951-279-0333,06,06065,06065040611,060650406113000,40140,348,ceo,census
gardena-1735-w-artesia-blvd,,https://local.albertsons.com/ca/gardena/1735-w-artesia-blvd.html,Albertsons Artesia & Western,open,1735 W Artesia Blvd,Gardena,,California,CA,90248,US,33.8742,-118.3083,America/Los_Angeles,,,310-380-4620,06,06037,06037603302,060376033022009,31080,348,ceo,census
ca-escondido-1509-e-valley-pkwy,,https://local.albertsons.com/ca/escondido/1509-e-valley-pkwy.html,Albertsons East Valley Parkway & Rose,open,1509 E Valley Pkwy,Escondido,,California,CA,92027,US,33.1317,-117.0598,America/Los_Angeles,,,760-735-5131,06,06073,06073020211,060730202112019,41740,,ceo,census
ca-fountain-valley-16061-brookhurst-st,,https://local.albertsons.com/ca/fountain-valley/16061-brookhurst-st.html,Albertsons Brookhurst & Edinger,open,16061 Brookhurst St,Fountain Valley,,California,CA,92708,US,33.7291,-117.9562,America/Los_Angeles,,,714-531-0417,06,06059,06059099225,060590992251002,31080,348,ceo,census
glendora-133-w-route-66,,https://local.albertsons.com/ca/glendora/133-w-route-66.html,Albertsons Alosta & Glendora,open,133 W Route 66,Glendora,,California,CA,91740,US,34.1301,-117.865,America/Los_Angeles,,,626-963-5358,06,06037,06037401102,060374011021018,31080,348,ceo,census
ca-bakersfield-8200-e-stockdale-hwy,,https://local.albertsons.com/ca/bakersfield/8200-e-stockdale-hwy.html,Albertsons Stockdale & Coffee,open,8200 E Stockdale Hwy,Bakersfield,,California,CA,93311,US,35.3547,-119.0934,America/Los_Angeles,,,661-833-6071,06,06029,06029002806,060290028062017,12540,,ceo,census
ca-fullerton-1930-n-placentia-ave,,https://local.albertsons.com/ca/fullerton/1930-n-placentia-ave.html,Albertsons N Placentia & Yorba Linda,open,1930 N Placentia Ave,Fullerton,,California,CA,92831,US,33.8911,-117.8734,America/Los_Angeles,,,714-792-2880,06,06059,06059011711,060590117113001,31080,348,ceo,fcc
ca-el-cajon-2899-jamacha-rd,,https://local.albertsons.com/ca/el-cajon/2899-jamacha-rd.html,Albertsons Jamacha Rd & Campo Rd,open,2899 Jamacha Rd,El Cajon,,California,CA,92019,US,32.7394,-116.9379,America/Los_Angeles,,,619-660-9717,06,06073,06073021305,060730213052013,41740,,ceo,fcc
ca-fountain-valley-18579-brookhurst,,https://local.albertsons.com/ca/fountain-valley/18579-brookhurst.html,Albertsons Brookhurst & Ellis,open,18579 Brookhurst,Fountain Valley,,California,CA,92708,US,33.6929,-117.9561,America/Los_Angeles,,,714-963-7503,06,06059,06059099232,060590992323002,31080,348,ceo,census
ca-escondido-1570-w-valley-pkwy,,https://local.albertsons.com/ca/escondido/1570-w-valley-pkwy.html,Albertsons 9th & Valley,open,1570 W Valley Pkwy,Escondido,,California,CA,92029,US,33.1089,-117.1057,America/Los_Angeles,,,760-738-1669,06,06073,06073020313,060730203132005,41740,,ceo,census
ca-fullerton-2291-w-malvern-ave,,https://local.albertsons.com/ca/fullerton/2291-w-malvern-ave.html,Albertsons Gilbert & Malvern,open,2291 W Malvern Ave,Fullerton,,California,CA,92833,US,33.8785,-117.966,America/Los_Angeles,,,714-992-6099,06,06059,06059001704,060590017044006,31080,348,ceo,census
ca-goleta-5801-calle-real,,https://local.albertsons.com/ca/goleta/5801-calle-real.html,Albertsons Calle Real & Fairview,open,5801 Calle Real,Goleta,,California,CA,93117,US,34.4406,-119.8268,America/Los_Angeles,,,805-964-2318,06,06083,06083002914,060830029142012,42200,,ceo,census
ca-irvine-14201-jeffrey-rd,,https://local.albertsons.com/ca/irvine/14201-jeffrey-rd.html,Albertsons Jeffrey & Trabuco,open,14201 Jeffrey Rd,Irvine,,California,CA,92620,US,33.6952,-117.7655,America/Los_Angeles,,,949-733-0698,06,06059,06059052433,060590524333009,31080,348,ceo,census
ca-huntington-beach-16600-bolsa-chica-st,,https://local.albertsons.com/ca/huntington-beach/16600-bolsa-chica-st.html,Albertsons Bolsa Chica & Heil,open,16600 Bolsa Chica St,Huntington Beach,,California,CA,92649,US,33.7214,-118.0408,America/Los_Angeles,,,714-846-9431,06,06059,06059099408,060590994082008,31080,348,ceo,fcc
highland-7201-boulder-ave,,https://local.albertsons.com/ca/highland/7201-boulder-ave.html,Albertsons Boulder & Baseline,open,7201 Boulder Ave,Highland,,California,CA,92346,US,34.1238,-117.1936,America/Los_Angeles,,,909-425-9100,06,06071,06071007905,060710079051000,40140,348,ceo,census
la-habra-1800-w-whittier-blvd,,https://local.albertsons.com/ca/la-habra/1800-w-whittier-blvd.html,Albertsons Whittier & Beach,open,1800 W Whittier Blvd,La Habra,,California,CA,90631,US,33.9384,-117.9664,America/Los_Angeles,,,562-697-6442,06,06059,06059001103,060590011031000,31080,348,ceo,census
ca-irvine-4541-campus-dr,,https://local.albertsons.com/ca/irvine/4541-campus-dr.html,Albertsons Irvine,open,4541 Campus Dr,Irvine,,California,CA,92612,US,33.6502,-117.8312,America/Los_Angeles,,,949-854-8282,06,06059,06059062627,060590626272000,31080,348,ceo,census
ca-goleta-7127-hollister-ave-27,,https://local.albertsons.com/ca/goleta/7127-hollister-ave-27.html,Albertsons Hollister & Pacific Oaks,open,7127 Hollister Ave #27,Goleta,,California,CA,93117,US,34.4282,-119.8766,America/Los_Angeles,,,805-968-3558,06,06083,06083002935,060830029352005,42200,,ceo,census
la-mirada-15200-rosecrans-ave,,https://local.albertsons.com/ca/la-mirada/15200-rosecrans-ave.html,Albertsons Rosecrans & La Mirada Blvd,open,15200 Rosecrans Ave,La Mirada,,California,CA,90638,US,33.8971,-118.0076,America/Los_Angeles,,,714-521-2310,06,06037,06037503802,060375038023013,31080,348,ceo,census
la-mesa-8920-fletcher-pkwy,,https://local.albertsons.com/ca/la-mesa/8920-fletcher-pkwy.html,Albertsons Fletcher Parkway,open,8920 Fletcher Pkwy,La Mesa,,California,CA,91942,US,32.7863,-117.0054,America/Los_Angeles,,,619-667-4343,06,06073,06073015001,060730150011004,41740,,ceo,fcc
ca-huntington-beach-19640-beach-blvd,,https://local.albertsons.com/ca/huntington-beach/19640-beach-blvd.html,Albertsons Beach & Adams,open,19640 Beach Blvd,Huntington Beach,,California,CA,92648,US,33.676,-117.9872,America/Los_Angeles,,,714-964-7979,06,06059,06059099245,060590992451003,31080,348,ceo,census
ca-laguna-niguel-29941-alicia-pkwy,,https://local.albertsons.com/ca/laguna-niguel/29941-alicia-pkwy.html,Albertsons Alicia & Niguel,open,29941 Alicia Pkwy,Laguna Niguel,,California,CA,92677,US,33.5281,-117.7175,America/Los_Angeles,,,949-495-1891,06,06059,06059042326,060590423261002,31080,348,ceo,census
ca-irvine-6601-quail-hill-pkwy,,https://local.albertsons.com/ca/irvine/6601-quail-hill-pkwy.html,Albertsons Shady Oak Canyon & I - 405,open,6601 Quail Hill Pkwy,Irvine,,California,CA,92603,US,33.6557,-117.7784,America/Los_Angeles,,,949-509-6109,06,06059,06059062654,060590626541000,31080,348,ceo,census
ca-huntington-beach-7201-yorktown-ave,,https://local.albertsons.com/ca/huntington-beach/7201-yorktown-ave.html,Albertsons Yorktown,open,7201 Yorktown Ave,Huntington Beach,,California,CA,92648,US,33.6808,-118.0028,America/Los_Angeles,,,714-536-6449,06,06059,06059099309,060590993094007,31080,348,ceo,census
ca-laguna-niguel-30241-golden-lantern,,https://local.albertsons.com/ca/laguna-niguel/30241-golden-lantern.html,Albertsons Golden Lantern & Marina Hills,open,30241 Golden Lantern,Laguna Niguel,,California,CA,92677,US,33.524,-117.6874,America/Los_Angeles,,,949-363-0456,06,06059,06059042331,060590423313000,31080,348,ceo,census
ladera-ranch-27702-crown-valley-pkwy-suite-b,,https://local.albertsons.com/ca/ladera-ranch/27702-crown-valley-pkwy-suite-b.html,Albertsons Crown Valley & Antonio,open,27702 Crown Valley Pkwy Suite B,Ladera Ranch,,California,CA,92694,US,33.5625,-117.6462,America/Los_Angeles,,,949-364-2040,06,06059,06059032057,060590320573001,31080,348,ceo,fcc
lake-elsinore-30901-riverside-dr,,https://local.albertsons.com/ca/lake-elsinore/30901-riverside-dr.html,Albertsons North Lake Elsinore,open,30901 Riverside Dr,Lake Elsinore,,California,CA,92530,US,33.686,-117.367,America/Los_Angeles,,,951-245-4461,06,06065,06065043006,060650430063025,40140,348,ceo,census
lakeside-9560-winter-gardens-blvd,,https://local.albertsons.com/ca/lakeside/9560-winter-gardens-blvd.html,Albertsons Winter Gardens & Winter Crest,open,9560 Winter Gardens Blvd,Lakeside,,California,CA,92040,US,32.8515,-116.9326,America/Los_Angeles,,,619-561-5521,06,06073,06073016705,060730167053000,41740,,ceo,census
lake-forest-24251-muirlands-blvd,,https://local.albertsons.com/ca/lake-forest/24251-muirlands-blvd.html,Albertsons Muirlands & Ridge Route,open,24251 Muirlands Blvd,Lake Forest,,California,CA,92630,US,33.6303,-117.7063,America/Los_Angeles,,,949-581-1642,06,06059,06059052410,060590524104002,31080,348,ceo,census
lakewood-5015-del-amo-blvd,,https://local.albertsons.com/ca/lakewood/5015-del-amo-blvd.html,Albertsons Del Amo & Clark,open,5015 Del Amo Blvd,Lakewood,,California,CA,90712,US,33.8478,-118.1344,America/Los_Angeles,,,562-634-0405,06,06037,06037570800,060375708005028,31080,348,ceo,census
lemon-grove-7090-broadway,,https://local.albertsons.com/ca/lemon-grove/7090-broadway.html,Albertsons Broadway & Massachusetts,open,7090 Broadway,Lemon Grove,,California,CA,91945,US,32.7436,-117.0454,America/Los_Angeles,,,619-463-4418,06,06073,06073014400,060730144002009,41740,,ceo,census
long-beach-101-e-willow-st,,https://local.albertsons.com/ca/long-beach/101-e-willow-st.html,Albertsons East Willow,open,101 E Willow St,Long Beach,,California,CA,90806,US,33.8056,-118.1923,America/Los_Angeles,,,562-988-8785,06,06037,06037572202,060375722024004,31080,348,ceo,census
lancaster-43543-20th-st-w,,https://local.albertsons.com/ca/lancaster/43543-20th-st-w.html,Albertsons 20th Street West & Ave K,open,43543 20th St W,Lancaster,,California,CA,93534,US,34.6738,-118.1677,America/Los_Angeles,,,661-940-4747,06,06037,06037901011,060379010111004,31080,348,ceo,census
lompoc-1500-n-h-st,,https://local.albertsons.com/ca/lompoc/1500-n-h-st.html,Albertsons Lompoc,open,1500 N H St,Lompoc,,California,CA,93436,US,34.6623,-120.456,America/Los_Angeles,,,805-736-3948,06,06083,06083002802,060830028022003,42200,,ceo,census
mission-viejo-23072-alicia-pkwy,,https://local.albertsons.com/ca/mission-viejo/23072-alicia-pkwy.html,Albertsons Alicia & Olympiad,open,23072 Alicia Pkwy,Mission Viejo,,California,CA,92692,US,33.6275,-117.6361,America/Los_Angeles,,,949-583-7337,06,06059,06059032037,060590320373000,31080,348,ceo,census
ca-los-angeles-2035-hillhurst-ave,,https://local.albertsons.com/ca/los-angeles/2035-hillhurst-ave.html,Albertsons Hillhurst & Ambrose,open,2035 Hillhurst Ave,Los Angeles,,California,CA,90027,US,34.1087,-118.2877,America/Los_Angeles,,,323-660-0687,06,06037,06037189102,060371891022005,31080,348,ceo,census
montebello-2469-via-campo-st,,https://local.albertsons.com/ca/montebello/2469-via-campo-st.html,Albertsons Montebello,open,2469 Via Campo St,Montebello,,California,CA,90640,US,34.0311,-118.1224,America/Los_Angeles,,,323-888-2250,06,06037,06037530005,060375300052011,31080,348,ceo,census
morro-bay-730-quintana-rd,,https://local.albertsons.com/ca/morro-bay/730-quintana-rd.html,Albertsons Morro Bay,open,730 Quintana Rd,Morro Bay,,California,CA,93442,US,35.3676,-120.8444,America/Los_Angeles,,,805-772-0670,06,06079,06079010603,060790106031030,42020,,ceo,fcc
newbury-park-541-s-reino-rd,,https://local.albertsons.com/ca/newbury-park/541-s-reino-rd.html,Albertsons Newbury Park,open,541 S Reino Rd,Newbury Park,,California,CA,91320,US,34.1695,-118.9568,America/Los_Angeles,,,805-499-7795,06,06111,06111005801,061110058013000,37100,348,ceo,census
ca-los-angeles-3901-crenshaw-blvd,,https://local.albertsons.com/ca/los-angeles/3901-crenshaw-blvd.html,Albertsons Crenshaw & Martin Luther King,open,3901 Crenshaw Blvd,Los Angeles,,California,CA,90008,US,34.0143,-118.3355,America/Los_Angeles,,,323-295-1919,06,06037,06037236101,060372361011019,31080,348,ceo,census
orcutt-1120-e-clark-ave,,https://local.albertsons.com/ca/orcutt/1120-e-clark-ave.html,Albertsons Orcutt,open,1120 E Clark Ave,Orcutt,,California,CA,93455,US,34.8636,-120.4173,America/Los_Angeles,,,805-934-4472,06,06083,06083002005,060830020053019,42200,,ceo,census
ca-murrieta-28047-scott-rd,,https://local.albertsons.com/ca/murrieta/28047-scott-rd.html,Albertsons I - 215 & Scott Road,open,28047 Scott Rd,Murrieta,,California,CA,92563,US,33.6393,-117.1698,America/Los_Angeles,,,951-246-1586,06,06065,06065050702,060650507022009,40140,348,ceo,census
northridge-9022-balboa-blvd,,https://local.albertsons.com/ca/northridge/9022-balboa-blvd.html,Albertsons Nordhoff & Balboa,open,9022 Balboa Blvd,Northridge,,California,CA,91325,US,34.2344,-118.5014,America/Los_Angeles,,,818-894-6415,06,06037,06037117302,060371173024002,31080,348,ceo,census
ca-oceanside-3450-marron-rd,,https://local.albertsons.com/ca/oceanside/3450-marron-rd.html,Albertsons Marron & College,open,3450 Marron Rd,Oceanside,,California,CA,92056,US,33.1793,-117.2972,America/Los_Angeles,,,760-729-3468,06,06073,06073019803,060730198031017,41740,,ceo,census
palm-springs-1751-n-sunrise-way-#1,,https://local.albertsons.com/ca/palm-springs/1751-n-sunrise-way-1.html,Albertsons Sunrise & Vista Chino,open,1751 N Sunrise Way #1,Palm Springs,,California,CA,92262,US,33.8471,-116.5297,America/Los_Angeles,,,760-864-1141,06,06065,06065941300,060659413004008,40140,348,ceo,census
ca-orange-4550-e-chapman-ave,,https://local.albertsons.com/ca/orange/4550-e-chapman-ave.html,Albertsons Chapman & Hewes,open,4550 E Chapman Ave,Orange,,California,CA,92869,US,33.787,-117.8042,America/Los_Angeles,,,714-771-3139,06,06059,06059021914,060590219141012,31080,348,ceo,census
ca-murrieta-39140-winchester-rd,,https://local.albertsons.com/ca/murrieta/39140-winchester-rd.html,Albertsons Hwy 79 & Murrieta,open,39140 Winchester Rd,Murrieta,,California,CA,92563,US,33.5511,-117.1386,America/Los_Angeles,,,951-600-4461,06,06065,06065043298,060650432982002,40140,348,ceo,census
palmdale-38727-tierra-subida-ave,,https://local.albertsons.com/ca/palmdale/38727-tierra-subida-ave.html,Albertsons Tierra Subida & Lake Elizabeth,open,38727 Tierra Subida Ave,Palmdale,,California,CA,93551,US,34.5861,-118.149,America/Los_Angeles,,,661-274-9557,06,06037,06037910401,060379104012006,31080,348,ceo,census
ca-palm-desert-42095-washington-st,,https://local.albertsons.com/ca/palm-desert/42095-washington-st.html,Albertsons Washington & 42nd Streets,open,42095 Washington St,Palm Desert,,California,CA,92211,US,33.7428,-116.3055,America/Los_Angeles,,,760-360-6322,06,06065,06065044911,060650449112000,40140,348,ceo,census
paso-robles-189-niblick-rd,,https://local.albertsons.com/ca/paso-robles/189-niblick-rd.html,Albertsons Paso Robles,open,189 Niblick Rd,Paso Robles,,California,CA,93446,US,35.6167,-120.6808,America/Los_Angeles,,,805-237-1626,06,06079,06079010205,060790102051023,42020,,ceo,fcc
ca-murrieta-41000-california-oaks-rd,,https://local.albertsons.com/ca/murrieta/41000-california-oaks-rd.html,Albertsons Murrieta,open,41000 California Oaks Rd,Murrieta,,California,CA,92562,US,33.567,-117.204,America/Los_Angeles,,,951-600-1027,06,06065,06065043206,060650432061009,40140,348,ceo,census
ca-orange-8440-e-chapman-ave,,https://local.albertsons.com/ca/orange/8440-e-chapman-ave.html,Albertsons Chapman & Jamboree,open,8440 E Chapman Ave,Orange,,California,CA,92869,US,33.7918,-117.7635,America/Los_Angeles,,,714-771-6996,06,06059,06059075605,060590756054001,31080,348,ceo,census
ramona-1459-main-st,,https://local.albertsons.com/ca/ramona/1459-main-st.html,Albertsons Main & 14th St,open,1459 Main St,Ramona,,California,CA,92065,US,33.0394,-116.8771,America/Los_Angeles,,,760-789-0023,06,06073,06073020806,060730208061013,41740,,ceo,census
ca-oceanside-3925-mission-ave,,https://local.albertsons.com/ca/oceanside/3925-mission-ave.html,Albertsons Mission & Douglas,open,3925 Mission Ave,Oceanside,,California,CA,92058,US,33.2276,-117.3239,America/Los_Angeles,,,760-433-8107,06,06073,06073018512,060730185121000,41740,,ceo,census
ca-palm-desert-74590-hwy-111,,https://local.albertsons.com/ca/palm-desert/74590-hwy-111.html,Albertsons Highway 111 & Deep Canyon Rd,open,74590 Hwy 111,Palm Desert,,California,CA,92260,US,33.7229,-116.3638,America/Los_Angeles,,,760-346-2566,06,06065,06065045127,060650451271004,40140,348,ceo,census
rancho-mirage-40101-monterey-ave,,https://local.albertsons.com/ca/rancho-mirage/40101-monterey-ave.html,Albertsons Monterey & Country Club,open,40101 Monterey Ave,Rancho Mirage,,California,CA,92270,US,33.7563,-116.3929,America/Los_Angeles,,,760-674-4769,06,06065,06065044918,060650449182000,40140,348,ceo,census
ca-rancho-cucamonga-11358-kenyon-way,,https://local.albertsons.com/ca/rancho-cucamonga/11358-kenyon-way.html,Albertsons Milliken & Highland,open,11358 Kenyon Way,Rancho Cucamonga,,California,CA,91701,US,34.1353,-117.5572,America/Los_Angeles,,,909-941-7166,06,06071,06071002031,060710020312001,40140,348,ceo,census
ca-oceanside-4150-oceanside-blvd,,https://local.albertsons.com/ca/oceanside/4150-oceanside-blvd.html,Albertsons Oceanside & College,open,4150 Oceanside Blvd,Oceanside,,California,CA,92056,US,33.2073,-117.2888,America/Los_Angeles,,,760-940-8282,06,06073,06073018522,060730185221022,41740,,ceo,census
ca-orange-940-n-tustin-ave,,https://local.albertsons.com/ca/orange/940-n-tustin-ave.html,Albertsons Tustin & Collins,open,940 N Tustin Ave,Orange,,California,CA,92867,US,33.8032,-117.8377,America/Los_Angeles,,,714-633-2570,06,06059,06059076206,060590762061004,31080,348,ceo,census
redlands-450-e-cypress-ave,,https://local.albertsons.com/ca/redlands/450-e-cypress-ave.html,Albertsons Cypress & Redlands Blvd,open,450 E Cypress Ave,Redlands,,California,CA,92373,US,34.0485,-117.1714,America/Los_Angeles,,,909-792-1114,06,06071,06071008202,060710082021000,40140,348,ceo,census
ca-rancho-cucamonga-8850-foothill-blvd,,https://local.albertsons.com/ca/rancho-cucamonga/8850-foothill-blvd.html,Albertsons Foothill,open,8850 Foothill Blvd,Rancho Cucamonga,,California,CA,91730,US,34.1063,-117.6116,America/Los_Angeles,,,909-484-7237,06,06071,06071000812,060710008123017,40140,348,ceo,census
reseda-19307-saticoy-st,,https://local.albertsons.com/ca/reseda/19307-saticoy-st.html,Albertsons Tampa & Saticoy,open,19307 Saticoy St,Reseda,,California,CA,91335,US,34.2097,-118.5541,America/Los_Angeles,,,818-772-0010,06,06037,06037131600,060371316003010,31080,348,ceo,census
ca-ridgecrest-1301-n-norma-st,,https://local.albertsons.com/ca/ridgecrest/1301-n-norma-st.html,Albertsons Ridgecrest,open,1301 N Norma St,Ridgecrest,,California,CA,93555,US,35.6447,-117.6797,America/Los_Angeles,,,760-446-2544,06,06029,06029005405,060290054052036,12540,,ceo,fcc
rosamond-2547-rosamond,,https://local.albertsons.com/ca/rosamond/2547-rosamond.html,Albertsons Rosamond,open,2547 Rosamond,Rosamond,,California,CA,93560,US,34.8656,-118.1767,America/Los_Angeles,,,661-256-0756,06,06029,06029005805,060290058052022,12540,,ceo,census
san-dimas-220-e-bonita-ave,,https://local.albertsons.com/ca/san-dimas/220-e-bonita-ave.html,Albertsons San Dimas,open,220 E Bonita Ave,San Dimas,,California,CA,91773,US,34.1059,-117.8034,America/Los_Angeles,,,909-599-8836,06,06037,06037400304,060374003042005,31080,348,ceo,census
ca-ridgecrest-927-s-china-lake-blvd,,https://local.albertsons.com/ca/ridgecrest/927-s-china-lake-blvd.html,Albertsons China Lake & Bowman,open,927 S China Lake Blvd,Ridgecrest,,California,CA,93555,US,35.6057,-117.6747,America/Los_Angeles,,,760-384-4015,06,06029,06029005408,060290054082003,12540,,ceo,census
ca-riverside-2975-van-buren-blvd,,https://local.albertsons.com/ca/riverside/2975-van-buren-blvd.html,Albertsons Van Buren & Lincoln,open,2975 Van Buren Blvd,Riverside,,California,CA,92503,US,33.91,-117.4364,America/Los_Angeles,,,951-689-2252,06,06065,06065031703,060650317032009,40140,348,ceo,census
san-pedro-28090-s-western-ave,,https://local.albertsons.com/ca/san-pedro/28090-s-western-ave.html,Albertsons San Padro - South Western,open,28090 S Western Ave,San Pedro,,California,CA,90732,US,33.7648,-118.3097,America/Los_Angeles,,,310-831-1323,06,06037,06037295103,060372951032002,31080,348,ceo,census
ca-san-diego-12475-rancho-bernardo-rd,,https://local.albertsons.com/ca/san-diego/12475-rancho-bernardo-rd.html,Albertsons Rancho,open,12475 Rancho Bernardo Rd,San Diego,,California,CA,92128,US,33.0176,-117.0613,America/Los_Angeles,,,858-385-9223,06,06073,06073017014,060730170141000,41740,,ceo,census
ca-riverside-8938-trautwein-rd,,https://local.albertsons.com/ca/riverside/8938-trautwein-rd.html,Albertsons Van Buren & Trautwein,open,8938 Trautwein Rd,Riverside,,California,CA,92508,US,33.8901,-117.3232,America/Los_Angeles,,,951-656-6603,06,06065,06065042018,060650420181002,40140,348,ceo,census
ca-san-marcos-151-woodland-pkwy,,https://local.albertsons.com/ca/san-marcos/151-woodland-pkwy.html,Albertsons Woodland & Mission,open,151 Woodland Pkwy,San Marcos,,California,CA,92069,US,33.1402,-117.1384,America/Los_Angeles,,,760-736-8880,06,06073,06073020025,060730200252008,41740,,ceo,census
san-clemente-804-avenida-pico,,https://local.albertsons.com/ca/san-clemente/804-avenida-pico.html,Albertsons Avenida Pico & Presidio,open,804 Avenida Pico,San Clemente,,California,CA,92673,US,33.4428,-117.614,America/Los_Angeles,,,949-492-1755,06,06059,06059042109,060590421094011,31080,348,ceo,census
ca-san-diego-655-14th-st,,https://local.albertsons.com/ca/san-diego/655-14th-st.html,Albertsons 14th & Market,open,655 14th St,San Diego,,California,CA,92101,US,32.7121,-117.1513,America/Los_Angeles,,,619-237-1247,06,06073,06073005201,060730052012003,41740,,ceo,census
ca-san-marcos-1571-san-elijo-rd-s,,https://local.albertsons.com/ca/san-marcos/1571-san-elijo-rd-s.html,Albertsons San Elijo & Elfin Forest,open,1571 San Elijo Rd S,San Marcos,,California,CA,92078,US,33.0969,-117.1997,America/Los_Angeles,,,760-798-1058,06,06073,06073017113,060730171132003,41740,,ceo,census
santa-maria-2320-s-broadway,,https://local.albertsons.com/ca/santa-maria/2320-s-broadway.html,Albertsons Broadway & McCoy,open,2320 S Broadway,Santa Maria,,California,CA,93454,US,34.9184,-120.4345,America/Los_Angeles,,,805-346-2077,06,06083,06083002014,060830020142002,42200,,ceo,census
ca-san-diego-8650-lake-murray-blvd,,https://local.albertsons.com/ca/san-diego/8650-lake-murray-blvd.html,Albertsons Lake Murray & Navajo,open,8650 Lake Murray Blvd,San Diego,,California,CA,92119,US,32.8016,-117.0132,America/Los_Angeles,,,619-697-8896,06,06073,06073009802,060730098025000,41740,,ceo,census
ca-spring-valley-543-sweetwater-rd,,https://local.albertsons.com/ca/spring-valley/543-sweetwater-rd.html,Albertsons Sweetwater Rd & Hwy 54,open,543 Sweetwater Rd,Spring Valley,,California,CA,91977,US,32.7082,-117.0087,America/Los_Angeles,,,619-461-5700,06,06073,06073013908,060730139082011,41740,,ceo,census
santa-ana-2000-e-17th-st,,https://local.albertsons.com/ca/santa-ana/2000-e-17th-st.html,Albertsons 17th & Tustin,open,2000 E 17th St,Santa Ana,,California,CA,92705,US,33.7586,-117.8383,America/Los_Angeles,,,714-541-9100,06,06059,06059075403,060590754031000,31080,348,ceo,census
ca-san-marcos-1929-w-san-marcos-blvd,,https://local.albertsons.com/ca/san-marcos/1929-w-san-marcos-blvd.html,Albertsons Rancho Santa Fe & San Marcos B,open,1929 W San Marcos Blvd,San Marcos,,California,CA,92078,US,33.1318,-117.211,America/Los_Angeles,,,760-598-7272,06,06073,06073020019,060730200193000,41740,,ceo,census
taft-1044-w-kern-st,,https://local.albertsons.com/ca/taft/1044-w-kern-st.html,Albertsons Hwy 33 & 10th Street,open,1044 W Kern St,Taft,,California,CA,93268,US,35.1465,-119.4663,America/Los_Angeles,,,661-765-4944,06,06029,06029003500,060290035005003,12540,,ceo,census
simi-valley-1268-madera-rd,,https://local.albertsons.com/ca/simi-valley/1268-madera-rd.html,Albertsons Madera & Royal,open,1268 Madera Rd,Simi Valley,,California,CA,93065,US,34.2617,-118.7946,America/Los_Angeles,,,805-520-9306,06,06111,06111007513,061110075131001,37100,348,ceo,census
ca-spring-valley-9831-campo-rd,,https://local.albertsons.com/ca/spring-valley/9831-campo-rd.html,Albertsons Campo & Bonita,open,9831 Campo Rd,Spring Valley,,California,CA,91977,US,32.7471,-116.984,America/Los_Angeles,,,619-462-6290,06,06073,06073013503,060730135032008,41740,,ceo,census
saugus-27631-w-bouquet-canyon-rd,,https://local.albertsons.com/ca/saugus/27631-w-bouquet-canyon-rd.html,Albertsons Bouquet Cyn & Haskell Cyn,open,27631 W Bouquet Canyon Rd,Saugus,,California,CA,91350,US,34.444,-118.512,America/Los_Angeles,,,661-296-9655,06,06037,06037920044,060379200442004,31080,348,ceo,census
ca-temecula-30530-rancho-california-rd,,https://local.albertsons.com/ca/temecula/30530-rancho-california-rd.html,Albertsons Rancho Calif Rd & Margarita,open,30530 Rancho California Rd,Temecula,,California,CA,92591,US,33.5099,-117.127,America/Los_Angeles,,,951-694-0244,06,06065,06065043266,060650432661002,40140,348,ceo,census
tehachapi-775-s-tucker-rd,,https://local.albertsons.com/ca/tehachapi/775-s-tucker-rd.html,Albertsons Tehachapi,open,775 S Tucker Rd,Tehachapi,,California,CA,93561,US,35.1257,-118.4696,America/Los_Angeles,,,661-823-7090,06,06029,06029006003,060290060033024,12540,,ceo,census
ca-temecula-31960-temecula-pkwy,,https://local.albertsons.com/ca/temecula/31960-temecula-pkwy.html,Albertsons Hwy 79 & Margarita Rd,open,31960 Temecula Pkwy,Temecula,,California,CA,92592,US,33.4819,-117.1005,America/Los_Angeles,,,951-303-1133,06,06065,06065043265,060650432654013,40140,348,ceo,census
tustin-13270-newport-ave,,https://local.albertsons.com/ca/tustin/13270-newport-ave.html,Albertsons 1st & Newport,open,13270 Newport Ave,Tustin,,California,CA,92780,US,33.7452,-117.8129,America/Los_Angeles,,,714-544-8525,06,06059,06059075506,060590755063000,31080,348,ceo,census
tujunga-6240-foothill-blvd,,https://local.albertsons.com/ca/tujunga/6240-foothill-blvd.html,Albertsons Foothill & Lowell,open,6240 Foothill Blvd,Tujunga,,California,CA,91042,US,34.2409,-118.268,America/Los_Angeles,,,818-248-2745,06,06037,06037101300,060371013002003,31080,348,ceo,census
upland-1910-n-campus-ave,,https://local.albertsons.com/ca/upland/1910-n-campus-ave.html,Albertsons Upland,open,1910 N Campus Ave,Upland,,California,CA,91784,US,34.1312,-117.6376,America/Los_Angeles,,,909-946-4447,06,06071,06071000819,060710008192002,40140,348,ceo,census
valencia-23850-copperhill-dr,,https://local.albertsons.com/ca/valencia/23850-copperhill-dr.html,Albertsons Copperhill & Rancho Ave Tesoro,open,23850 Copperhill Dr,Valencia,,California,CA,91354,US,34.4623,-118.5567,America/Los_Angeles,,,661-775-0163,06,06037,06037920121,060379201213000,31080,348,ceo,census
wildomar-23893-clinton-keith-rd,,https://local.albertsons.com/ca/wildomar/23893-clinton-keith-rd.html,Albertsons I - 15 & Clinton Keith,open,23893 Clinton Keith Rd,Wildomar,,California,CA,92595,US,33.5958,-117.2414,America/Los_Angeles,,,951-600-4607,06,06065,06065043227,060650432274002,40140,348,ceo,census
westminster-6755-westminster-blvd,,https://local.albertsons.com/ca/westminster/6755-westminster-blvd.html,Albertsons Westminster & Golden West,open,6755 Westminster Blvd,Westminster,,California,CA,92683,US,33.7613,-118.0093,America/Los_Angeles,,,714-898-3668,06,06059,06059099903,060590999032007,31080,348,ceo,census
durango-311-w-college-dr,,https://local.albertsons.com/co/durango/311-w-college-dr.html,Albertsons Durango,open,311 W College Dr,Durango,,Colorado,CO,81301,US,37.2717,-107.8852,America/Denver,,,970-382-2224,08,08067,08067971100,080679711003054,20420,,ceo,census
ca-vista-1301-e-vista-way,,https://local.albertsons.com/ca/vista/1301-e-vista-way.html,Albertsons Vista & Foothill Bobier,open,1301 E Vista Way,Vista,,California,CA,92084,US,33.2192,-117.226,America/Los_Angeles,,,760-806-2785,06,06073,06073019210,060730192103001,41740,,ceo,census
pueblo-1601-hwy-50-w,,https://local.albertsons.com/co/pueblo/1601-hwy-50-w.html,Albertsons Pueblo - Highway 50 and Outlook,open,1601 Hwy 50 W,Pueblo,,Colorado,CO,81008,US,38.3109,-104.628,America/Denver,,,719-543-5671,08,08101,08101002919,081010029193027,39380,444,ceo,census
ammon-1901-s-25th-e,,https://local.albertsons.com/id/ammon/1901-s-25th-e.html,Albertsons Hitt & 17th,open,1901 S 25th E,Ammon,,Idaho,ID,83406,US,43.4802,-111.9824,America/Boise,,,208-524-8100,16,16019,16019970502,160199705021004,26820,292,ceo,census
ca-vista-1601-s-melrose-dr,,https://local.albertsons.com/ca/vista/1601-s-melrose-dr.html,Albertsons Melrose & Live Oak,open,1601 S Melrose Dr,Vista,,California,CA,92081,US,33.1668,-117.2481,America/Los_Angeles,,,760-598-0142,06,06073,06073019810,060730198101019,41740,,ceo,census
eagle-250-s-eagle-rd,,https://local.albertsons.com/id/eagle/250-s-eagle-rd.html,Albertsons Eagle,open,250 S Eagle Rd,Eagle,,Idaho,ID,83616,US,43.6923,-116.3522,America/Boise,,,208-939-9850,16,16001,16001010234,160010102342016,14260,147,ceo,census
id-boise-10500-w-overland-rd,,https://local.albertsons.com/id/boise/10500-w-overland-rd.html,Albertsons Overland & Five Mile,open,10500 W Overland Rd,Boise,,Idaho,ID,83709,US,43.5917,-116.3133,America/Boise,,,208-377-0932,16,16001,16001002231,160010022312005,14260,147,ceo,census
homedale-20-e-wyoming-ave,,https://local.albertsons.com/id/homedale/20-e-wyoming-ave.html,Albertsons Homedale,open,20 E Wyoming Ave,Homedale,,Idaho,ID,83628,US,43.6161,-116.933,America/Boise,,,208-337-4679,16,16073,16073950101,160739501012030,14260,147,ceo,census
lewiston-1024-21st-st,,https://local.albertsons.com/id/lewiston/1024-21st-st.html,Albertsons Lewiston,open,1024 21st St,Lewiston,,Idaho,ID,83501,US,46.4099,-117.0036,America/Los_Angeles,,,208-743-1561,16,16069,16069960600,160699606004025,30300,,ceo,census
hailey-911-n-main-st,,https://local.albertsons.com/id/hailey/911-n-main-st.html,Albertsons Hailey,open,911 N Main St,Hailey,,Idaho,ID,83333,US,43.5274,-114.3219,America/Boise,,,208-788-6709,16,16013,16013960201,160139602011033,25200,,ceo,fcc
id-caldwell-2500-blaine-st,,https://local.albertsons.com/id/caldwell/2500-blaine-st.html,Albertsons East Caldwell,open,2500 Blaine St,Caldwell,,Idaho,ID,83605,US,43.6525,-116.6713,America/Boise,,,208-454-1271,16,16027,16027021500,160270215001038,14260,147,ceo,census
id-idaho-falls-1705-w-broadway-st,,https://local.albertsons.com/id/idaho-falls/1705-w-broadway-st.html,Albertsons Skyline,open,1705 W Broadway St,Idaho Falls,,Idaho,ID,83402,US,43.4959,-112.0653,America/Boise,,,208-522-3392,16,16019,16019971302,160199713021000,26820,292,ceo,census
mccall-132-e-lake-st,,https://local.albertsons.com/id/mccall/132-e-lake-st.html,Albertsons McCall,open,132 E Lake St,Mccall,,Idaho,ID,83638,US,44.9098,-116.1021,America/Boise,,,208-634-8166,16,16085,16085970301,160859703011002,,,ceo,census
emmett-640-hwy-16,,https://local.albertsons.com/id/emmett/640-hwy-16.html,Albertsons Emmett,open,640 Hwy 16,Emmett,,Idaho,ID,83617,US,43.8623,-116.4911,America/Boise,,,208-365-4420,16,16045,16045960302,160459603021017,14260,147,ceo,census
kuna-700-e-avalon-st,,https://local.albertsons.com/id/kuna/700-e-avalon-st.html,Albertsons Kuna,open,700 E Avalon St,Kuna,,Idaho,ID,83634,US,43.4897,-116.4053,America/Boise,,,208-922-9834,16,16001,16001010406,160010104061028,14260,147,ceo,census
id-boise-10565-w-lake-hazel-rd,,https://local.albertsons.com/id/boise/10565-w-lake-hazel-rd.html,Albertsons Lake Hazel,open,10565 W Lake Hazel Rd,Boise,,Idaho,ID,83709,US,43.545,-116.3136,America/Boise,,,208-319-0880,16,16001,16001010410,160010104101010,14260,147,ceo,census
id-idaho-falls-590-e-17th-st,,https://local.albertsons.com/id/idaho-falls/590-e-17th-st.html,Albertsons 17th Street,open,590 E 17th St,Idaho Falls,,Idaho,ID,83404,US,43.4811,-112.0217,America/Boise,,,208-523-0950,16,16019,16019970900,160199709003011,26820,292,ceo,census
id-caldwell-415-cleveland-blvd,,https://local.albertsons.com/id/caldwell/415-cleveland-blvd.html,Albertsons Caldwell,open,415 Cleveland Blvd,Caldwell,,Idaho,ID,83605,US,43.6671,-116.6931,America/Boise,,,208-459-3411,16,16027,16027021500,160270215003014,14260,147,ceo,census
id-boise-10700-w-ustick-rd,,https://local.albertsons.com/id/boise/10700-w-ustick-rd.html,Albertsons Five Mile & Ustick,open,10700 W Ustick Rd,Boise,,Idaho,ID,83713,US,43.6345,-116.3159,America/Boise,,,208-322-7744,16,16001,16001002416,160010024161009,14260,147,ceo,census
id-meridian-20-e-fairview-ave,,https://local.albertsons.com/id/meridian/20-e-fairview-ave.html,Albertsons Meridian,open,20 E Fairview Ave,Meridian,,Idaho,ID,83642,US,43.6206,-116.3927,America/Boise,,,208-888-4792,16,16001,16001010367,160010103674012,14260,147,ceo,census
id-nampa-2400-12th-ave-rd,,https://local.albertsons.com/id/nampa/2400-12th-ave-rd.html,Albertsons Greenhurst & 12th,open,2400 12th Ave Rd,Nampa,,Idaho,ID,83686,US,43.5457,-116.5715,America/Boise,,,208-465-6597,16,16027,16027020904,160270209041003,14260,147,ceo,census
id-boise-1219-s-broadway-ave,,https://local.albertsons.com/id/boise/1219-s-broadway-ave.html,Albertsons Broadway,open,1219 S Broadway Ave,Boise,,Idaho,ID,83706,US,43.5975,-116.1946,America/Boise,,,208-336-5278,16,16001,16001000902,160010009021000,14260,147,ceo,census
mountain-home-528-n-main-st,,https://local.albertsons.com/id/mountain-home/528-n-main-st.html,Albertsons Meridian,open,528 N Main St,Mountain Home,,Idaho,ID,83647,US,43.1346,-115.6968,America/Boise,,,208-587-5460,16,16039,16039960300,160399603002034,34300,147,ceo,census
payette-405-s-main-st,,https://local.albertsons.com/id/payette/405-s-main-st.html,Albertsons Payette,open,405 S Main St,Payette,,Idaho,ID,83661,US,44.0702,-116.9341,America/Boise,,,208-642-9075,16,16075,16075960200,160759602002017,36620,147,ceo,census
rexburg-490-n-2nd-e,,https://local.albertsons.com/id/rexburg/490-n-2nd-e.html,Albertsons Rexburg,open,490 N 2nd E,Rexburg,,Idaho,ID,83440,US,43.8364,-111.7755,America/Boise,,,208-356-0555,16,16065,16065950103,160659501031012,39940,292,ceo,census
twin-falls-1221-addison-ave-e,,https://local.albertsons.com/id/twin-falls/1221-addison-ave-e.html,Albertsons Twin Falls,open,1221 Addison Ave E,Twin Falls,,Idaho,ID,83301,US,42.5639,-114.4585,America/Boise,,,208-733-3573,16,16083,16083000200,160830002002009,46300,,ceo,census
id-nampa-715-12th-ave-s,,https://local.albertsons.com/id/nampa/715-12th-ave-s.html,Albertsons Nampa,open,715 12th Ave S,Nampa,,Idaho,ID,83651,US,43.5741,-116.5669,America/Boise,,,208-466-2481,16,16027,16027020300,160270203002024,14260,147,ceo,census
star-210-n-highbrook-way,,https://local.albertsons.com/id/star/210-n-highbrook-way.html,Albertsons Highbrook Way,open,210 N Highbrook Way,Star,,Idaho,ID,83669,US,43.6954,-116.5034,America/Boise,,,208-272-9440,16,16001,16001010226,160010102261005,14260,147,ceo,fcc
id-meridian-3301-w-cherry-ln,,https://local.albertsons.com/id/meridian/3301-w-cherry-ln.html,Albertsons Cherry & Ten Mile,open,3301 W Cherry Ln,Meridian,,Idaho,ID,83642,US,43.618,-116.4343,America/Boise,,,208-884-5471,16,16001,16001010345,160010103452000,14260,147,ceo,census
pocatello-330-e-benton-st,,https://local.albertsons.com/id/pocatello/330-e-benton-st.html,Albertsons 4th & Benton,open,330 E Benton St,Pocatello,,Idaho,ID,83201,US,42.8624,-112.4431,America/Boise,,,208-233-0455,16,16005,16005000800,160050008001042,38540,,ceo,census
id-boise-1520-n-cole-rd,,https://local.albertsons.com/id/boise/1520-n-cole-rd.html,Albertsons Cole Road,open,1520 N Cole Rd,Boise,,Idaho,ID,83704,US,43.6182,-116.2732,America/Boise,,,208-375-2542,16,16001,16001001204,160010012041004,14260,147,ceo,census
alexandria-2265-s-macarthur-dr,,https://local.albertsons.com/la/alexandria/2265-s-macarthur-dr.html,Albertsons Alexandria,open,2265 S MacArthur Dr,Alexandria,,Louisiana,LA,71301,US,31.2742,-92.4633,America/Chicago,,,318-487-9395,22,22079,22079012600,220790126001009,10780,,ceo,census
id-meridian-3499-e-fairview-ave,,https://local.albertsons.com/id/meridian/3499-e-fairview-ave.html,Albertsons Eagle and Fairview,open,3499 E Fairview Ave,Meridian,,Idaho,ID,83642,US,43.6181,-116.3516,America/Boise,,,208-605-3752,16,16001,16001010370,160010103702005,14260,147,ceo,census
id-boise-1650-w-state-st,,https://local.albertsons.com/id/boise/1650-w-state-st.html,Albertsons 16th & State,open,1650 W State St,Boise,,Idaho,ID,83702,US,43.625,-116.2092,America/Boise,,,208-342-5651,16,16001,16001000102,160010001021008,14260,147,ceo,census
hammond-1801-w-thomas-st,,https://local.albertsons.com/la/hammond/1801-w-thomas-st.html,Albertsons Hammond,open,1801 W Thomas St,Hammond,,Louisiana,LA,70401,US,30.4992,-90.48,America/Chicago,,,985-542-9720,22,22105,22105954300,221059543003003,25220,132,ceo,census
id-boise-1653-s-vista-ave,,https://local.albertsons.com/id/boise/1653-s-vista-ave.html,Albertsons Vista & Overland,open,1653 S Vista Ave,Boise,,Idaho,ID,83705,US,43.5893,-116.2153,America/Boise,,,208-331-1953,16,16001,16001001702,160010017023000,14260,147,ceo,census
la-baton-rouge-15128-airline-hwy,,https://local.albertsons.com/la/baton-rouge/15128-airline-hwy.html,Albertsons Baton Rouge - Airline and Highland,open,15128 Airline Hwy,Baton Rouge,,Louisiana,LA,70817,US,30.3575,-91.0086,America/Chicago,,,225-751-2808,22,22033,22033004022,220330040223008,12940,132,ceo,census
id-meridian-4657-s-eagle-rd,,https://local.albertsons.com/id/meridian/4657-s-eagle-rd.html,Albertsons S Eagle Rd & Amity,open,4657 S Eagle Rd,Meridian,,Idaho,ID,83642,US,43.5631,-116.3546,America/Boise,,,208-272-9727,16,16001,16001010341,160010103413022,14260,147,ceo,census
shreveport-105-e-southfield-rd,,https://local.albertsons.com/la/shreveport/105-e-southfield-rd.html,Albertsons Shreveport - Southfield & Kings Highway,open,105 E Southfield Rd,Shreveport,,Louisiana,LA,71105,US,32.4553,-93.7095,America/Chicago,,,318-869-1646,22,22017,22017023000,220170230002008,43340,508,ceo,census
broussard-1210-albertson-pkwy,,https://local.albertsons.com/la/broussard/1210-albertson-pkwy.html,Albertsons Broussard,open,1210 Albertson Pkwy,Broussard,,Louisiana,LA,70518,US,30.1398,-91.9487,America/Chicago,,,337-839-1717,22,22055,22055001425,220550014253044,29180,318,ceo,census
anaconda-1300-e-park-ave,,https://local.albertsons.com/mt/anaconda/1300-e-park-ave.html,Albertsons Anaconda,open,1300 E Park Ave,Anaconda,,Montana,MT,59711,US,46.1268,-112.9353,America/Denver,,,406-563-5238,30,30023,30023000300,300230003001019,,,ceo,census
la-lake-charles-2750-country-club-rd,,https://local.albertsons.com/la/lake-charles/2750-country-club-rd.html,Albertsons Lake Charles - Country Club and Ihles,open,2750 Country Club Rd,Lake Charles,,Louisiana,LA,70605,US,30.1703,-93.2653,America/Chicago,,,337-480-0424,22,22019,22019001908,220190019082000,29340,324,ceo,census
id-boise-3614-w-state-st,,https://local.albertsons.com/id/boise/3614-w-state-st.html,Albertsons 36th & State,open,3614 W State St,Boise,,Idaho,ID,83703,US,43.6403,-116.2329,America/Boise,,,208-426-9614,16,16001,16001000501,160010005013022,14260,147,ceo,census
la-baton-rouge-15232-george-o-neal-rd,,https://local.albertsons.com/la/baton-rouge/15232-george-o-neal-rd.html,Albertsons Baton Rouge - Coursey and Jones Creek,open,15232 George O'Neal Rd,Baton Rouge,,Louisiana,LA,70817,US,30.4064,-91.015,America/Chicago,,,225-753-0700,22,22033,22033004507,220330045073002,12940,132,ceo,census
la-lafayette-2678-johnston-st,,https://local.albertsons.com/la/lafayette/2678-johnston-st.html,Albertsons Lafayette - Johnston,open,2678 Johnston St,Lafayette,,Louisiana,LA,70503,US,30.2088,-92.0383,America/Chicago,,,337-233-2940,22,22055,22055000500,220550005003021,29180,318,ceo,census
belgrade-6999-jackrabbit-ln,,https://local.albertsons.com/mt/belgrade/6999-jackrabbit-ln.html,Albertsons Belgrade,open,6999 Jackrabbit Ln,Belgrade,,Montana,MT,59714,US,45.7717,-111.187,America/Denver,,,406-388-0901,30,30031,30031000101,300310001014038,14580,,ceo,census
la-lake-charles-4060-ryan-st-s,,https://local.albertsons.com/la/lake-charles/4060-ryan-st-s.html,Albertsons Lake Charles,open,4060 Ryan St S,Lake Charles,,Louisiana,LA,70605,US,30.1848,-93.2215,America/Chicago,,,337-478-8995,22,22019,22019001000,220190010001010,29340,324,ceo,census
id-boise-4700-n-eagle-rd,,https://local.albertsons.com/id/boise/4700-n-eagle-rd.html,Albertsons Eagle & McMillan,open,4700 N Eagle Rd,Boise,,Idaho,ID,83713,US,43.6475,-116.3524,America/Boise,,,208-939-5145,16,16001,16001010359,160010103592008,14260,147,ceo,census
la-lafayette-2863-ambassador-caffery,,https://local.albertsons.com/la/lafayette/2863-ambassador-caffery.html,Albertsons Lafayette - Ambassador Caffery and Congress,open,2863 Ambassador Caffery,Lafayette,,Louisiana,LA,70506,US,30.1984,-92.0741,America/Chicago,,,337-406-8887,22,22055,22055000606,220550006063014,29180,318,ceo,census
la-baton-rouge-4857-government-st,,https://local.albertsons.com/la/baton-rouge/4857-government-st.html,Albertsons Baton Rouge - Government and Foster,open,4857 Government St,Baton Rouge,,Louisiana,LA,70806,US,30.4452,-91.1406,America/Chicago,,,225-216-7226,22,22033,22033001700,220330017002030,12940,132,ceo,census
id-boise-5100-w-overland-rd,,https://local.albertsons.com/id/boise/5100-w-overland-rd.html,Albertsons Overland & Orchard,open,5100 W Overland Rd,Boise,,Idaho,ID,83705,US,43.5916,-116.2454,America/Boise,,,208-336-1372,16,16001,16001001402,160010014022010,14260,147,ceo,census
la-lafayette-4400-ambassador-caffery,,https://local.albertsons.com/la/lafayette/4400-ambassador-caffery.html,Albertsons Lafayette - Ambassador Caffery,open,4400 Ambassador Caffery,Lafayette,,Louisiana,LA,70508,US,30.1568,-92.0512,America/Chicago,,,337-984-4587,22,22055,22055001403,220550014038003,29180,318,ceo,census
la-baton-rouge-7515-perkins-rd,,https://local.albertsons.com/la/baton-rouge/7515-perkins-rd.html,Albertsons Baton Rouge - Perkins and Essen,open,7515 Perkins Rd,Baton Rouge,,Louisiana,LA,70808,US,30.3966,-91.11,America/Chicago,,,225-769-6100,22,22033,22033002602,220330026022009,12940,132,ceo,census
mt-billings-1212-grand-ave,,https://local.albertsons.com/mt/billings/1212-grand-ave.html,Albertsons 13th & Grand,open,1212 Grand Ave,Billings,,Montana,MT,59102,US,45.7835,-108.5466,America/Denver,,,406-245-4118,30,30111,30111001100,301110011002003,13740,,ceo,census
cut-bank-501-w-main-st,,https://local.albertsons.com/mt/cut-bank/501-w-main-st.html,Albertsons Cut Bank,open,501 W Main St,Cut Bank,,Montana,MT,59427,US,48.6406,-112.3385,America/Denver,,,406-873-5035,30,30035,30035976000,300359760004001,,,ceo,census
id-boise-6560-s-federal-way,,https://local.albertsons.com/id/boise/6560-s-federal-way.html,Albertsons Columbia Village,open,6560 S Federal Way,Boise,,Idaho,ID,83716,US,43.5429,-116.1537,America/Boise,,,208-429-1084,16,16001,16001010503,160010105031011,14260,147,ceo,census
bozeman-200-s-23rd-ave,,https://local.albertsons.com/mt/bozeman/200-s-23rd-ave.html,Albertsons West Bozeman,open,200 S 23rd Ave,Bozeman,,Montana,MT,59718,US,45.6769,-111.0652,America/Denver,,,406-586-4785,30,30031,30031000900,300310009003004,14580,,ceo,census
la-baton-rouge-9650-airline-hwy,,https://local.albertsons.com/la/baton-rouge/9650-airline-hwy.html,Albertsons Baton Rouge - Airline and Old Hammond,open,9650 Airline Hwy,Baton Rouge,,Louisiana,LA,70815,US,30.4321,-91.0829,America/Chicago,,,225-926-9304,22,22033,22033002000,220330020001030,12940,132,ceo,census
mt-billings-2334-central-ave,,https://local.albertsons.com/mt/billings/2334-central-ave.html,Albertsons 24th Central,open,2334 Central Ave,Billings,,Montana,MT,59102,US,45.7685,-108.5754,America/Denver,,,406-656-8160,30,30111,30111001702,301110017024006,13740,,ceo,census
glasgow-54151-us-hwy-2-e,,https://local.albertsons.com/mt/glasgow/54151-us-hwy-2-e.html,Albertsons Glasgow,open,54151 US Hwy 2 E,Glasgow,,Montana,MT,59230,US,48.1996,-106.6394,America/Denver,,,406-228-4701,30,30105,30105100500,301051005002002,,,ceo,census
id-boise-7100-w-state-st,,https://local.albertsons.com/id/boise/7100-w-state-st.html,Albertsons Gary Lane,open,7100 W State St,Boise,,Idaho,ID,83714,US,43.6685,-116.2775,America/Boise,,,208-342-2756,16,16001,16001000305,160010003051000,14260,147,ceo,census
glendive-307-n-harmon-st,,https://local.albertsons.com/mt/glendive/307-n-harmon-st.html,Albertsons Glendive,open,307 N Harmon St,Glendive,,Montana,MT,59330,US,47.1086,-104.7279,America/Denver,,,406-365-3324,30,30021,30021000200,300210002001049,,,ceo,census
id-boise-909-e-parkcenter-blvd,,https://local.albertsons.com/id/boise/909-e-parkcenter-blvd.html,Albertsons Parkcenter & Apple,open,909 E Parkcenter Blvd,Boise,,Idaho,ID,83706,US,43.5811,-116.1721,America/Boise,,,208-345-3180,16,16001,16001000805,160010008051005,14260,147,ceo,census
mt-billings-3137-grand-ave,,https://local.albertsons.com/mt/billings/3137-grand-ave.html,Albertsons Grand & Rehberg,open,3137 Grand Ave,Billings,,Montana,MT,59102,US,45.7854,-108.5929,America/Denver,,,406-652-8370,30,30111,30111001806,301110018061005,13740,,ceo,census
la-baton-rouge-9960-bluebonnet-blvd,,https://local.albertsons.com/la/baton-rouge/9960-bluebonnet-blvd.html,Albertsons Baton Rouge - Bluebonnet and Burbank,open,9960 Bluebonnet Blvd,Baton Rouge,,Louisiana,LA,70810,US,30.3556,-91.111,America/Chicago,,,225-768-7775,22,22033,22033004028,220330040282002,12940,132,ceo,census
mt-great-falls-1414-3rd-st-nw,,https://local.albertsons.com/mt/great-falls/1414-3rd-st-nw.html,Albertsons 3rd NW,open,1414 3rd St NW,Great Falls,,Montana,MT,59404,US,47.5201,-111.3112,America/Denver,,,406-761-6800,30,30013,30013001800,300130018001005,24500,,ceo,census
harlem-117-main-st-s,,https://local.albertsons.com/mt/harlem/117-main-st-s.html,Albertsons Harlem,open,117 Main St S,Harlem,,Montana,MT,59526,US,48.5316,-108.7848,America/Denver,,,406-353-2225,30,30005,30005000100,300050001001362,,,ceo,census
hamilton-1313-n-1st-st,,https://local.albertsons.com/mt/hamilton/1313-n-1st-st.html,Albertsons Hamilton,open,1313 N 1st St,Hamilton,,Montana,MT,59840,US,46.263,-114.1588,America/Denver,,,406-363-4555,30,30081,30081000502,300810005023000,,,ceo,census
mt-great-falls-2250-10th-ave-s,,https://local.albertsons.com/mt/great-falls/2250-10th-ave-s.html,Albertsons 10th Avenue,open,2250 10th Ave S,Great Falls,,Montana,MT,59405,US,47.4931,-111.2694,America/Denver,,,406-727-3700,30,30013,30013002100,300130021004008,24500,,ceo,census
helena-3151-n-montana-ave,,https://local.albertsons.com/mt/helena/3151-n-montana-ave.html,Albertsons Montana & Custer,open,3151 N Montana Ave,Helena,,Montana,MT,59602,US,46.6187,-112.0187,America/Denver,,,406-443-8557,30,30049,30049000400,300490004002027,25740,,ceo,census
mt-billings-511-central-ave,,https://local.albertsons.com/mt/billings/511-central-ave.html,Albertsons 6th & Central,open,511 Central Ave,Billings,,Montana,MT,59102,US,45.7706,-108.5289,America/Denver,,,406-245-0115,30,30111,30111001000,301110010002008,13740,,ceo,census
mt-billings-5317-grand-ave,,https://local.albertsons.com/mt/billings/5317-grand-ave.html,Albertsons Grand & 52nd,open,5317 Grand Ave,Billings,,Montana,MT,59106,US,45.7846,-108.6513,America/Denver,,,406-371-2755,30,30111,30111001801,301110018012073,13740,,ceo,fcc
laurel-205-s-1st-ave,,https://local.albertsons.com/mt/laurel/205-s-1st-ave.html,Albertsons 1st Ave and Railroad St,open,205 S 1st Ave,Laurel,,Montana,MT,59044,US,45.6666,-108.7703,America/Denver,,,406-812-3185,30,30111,30111001902,301110019022060,13740,,ceo,census
kalispell-900-w-idaho-st,,https://local.albertsons.com/mt/kalispell/900-w-idaho-st.html,Albertsons Kalispell,open,900 W Idaho St,Kalispell,,Montana,MT,59901,US,48.1996,-114.3294,America/Denver,,,406-257-7127,30,30029,30029001101,300290011012001,28060,,ceo,census
lewistown-117-w-janeaux-st,,https://local.albertsons.com/mt/lewistown/117-w-janeaux-st.html,Albertsons Lewistown,open,117 W Janeaux St,Lewistown,,Montana,MT,59457,US,47.0654,-109.4228,America/Denver,,,406-538-5454,30,30027,30027030201,300270302011065,,,ceo,census
malta-30-s-3rd-st-e,,https://local.albertsons.com/mt/malta/30-s-3rd-st-e.html,Albertsons Malta,open,30 S 3rd St E,Malta,,Montana,MT,59538,US,48.3571,-107.8735,America/Denver,,,406-654-2041,30,30071,30071060200,300710602002004,,,ceo,census
livingston-2120-w-park-st,,https://local.albertsons.com/mt/livingston/2120-w-park-st.html,Albertsons Livingston,open,2120 W Park St,Livingston,,Montana,MT,59047,US,45.6423,-110.5757,America/Denver,,,406-222-1177,30,30067,30067000400,300670004003042,,,ceo,fcc
miles-city-519-s-haynes-ave,,https://local.albertsons.com/mt/miles-city/519-s-haynes-ave.html,Albertsons Miles City,open,519 S Haynes Ave,Miles City,,Montana,MT,59301,US,46.4032,-105.8244,America/Denver,,,406-232-2580,30,30017,30017961600,300179616001010,,,ceo,census
shelby-130-5th-ave-n,,https://local.albertsons.com/mt/shelby/130-5th-ave-n.html,Albertsons Tooele,open,130 5th Ave N,Shelby,,Montana,MT,59474,US,48.5073,-111.86,America/Denver,,,406-434-5581,30,30101,30101000200,301010002004060,,,ceo,census
wolf-point-415-blaine-st,,https://local.albertsons.com/mt/wolf-point/415-blaine-st.html,Albertsons Wolf Point,open,415 Blaine St,Wolf Point,,Montana,MT,59201,US,48.0924,-105.6435,America/Denver,,,406-653-1700,30,30085,30085940001,300859400013006,,,ceo,census
mt-billings-611-n-27th-st,,https://local.albertsons.com/mt/billings/611-n-27th-st.html,Albertsons 27th Street,open,611 N 27th St,Billings,,Montana,MT,59101,US,45.7878,-108.5087,America/Denver,,,406-248-7474,30,30111,30111000200,301110002002025,13740,,ceo,census
mt-missoula-1003-e-broadway-st,,https://local.albertsons.com/mt/missoula/1003-e-broadway-st.html,Albertsons East Broadway,open,1003 E Broadway St,Missoula,,Montana,MT,59802,US,46.8678,-113.9821,America/Denver,,,406-549-2351,30,30063,30063000100,300630001004005,33540,,ceo,census
elko-2582-idaho-st,,https://local.albertsons.com/nv/elko/2582-idaho-st.html,Albertsons Elko,open,2582 Idaho St,Elko,,Nevada,NV,89801,US,40.8517,-115.7431,America/Los_Angeles,,,775-738-8016,32,32007,32007951300,320079513002003,21220,,ceo,fcc
mt-billings-670-main-st,,https://local.albertsons.com/mt/billings/670-main-st.html,Albertsons Billings Heights,open,670 Main St,Billings,,Montana,MT,59105,US,45.8105,-108.4734,America/Denver,,,406-245-8792,30,30111,30111000706,301110007061013,13740,,ceo,fcc
boulder-city-1008-nevada-hwy,,https://local.albertsons.com/nv/boulder-city/1008-nevada-hwy.html,Albertsons Boulder City,open,1008 Nevada Hwy,Boulder City,,Nevada,NV,89005,US,35.9761,-114.8453,America/Los_Angeles,,,702-293-7611,32,32003,32003005502,320030055021013,29820,332,ceo,census
mt-missoula-2205-oxford-st,,https://local.albertsons.com/mt/missoula/2205-oxford-st.html,Albertsons Oxford,open,2205 Oxford St,Missoula,,Montana,MT,59801,US,46.8509,-114.0176,America/Denver,,,406-549-5105,30,30063,30063001200,300630012002017,33540,,ceo,census
pahrump-200-s-hwy-160,,https://local.albertsons.com/nv/pahrump/200-s-hwy-160.html,Albertsons Albertsons -  6041,open,200 S Hwy 160,Pahrump,,Nevada,NV,89048,US,36.2169,-115.9951,America/Los_Angeles,,,775-751-0160,32,32023,32023960413,320239604131048,37220,332,ceo,census
north-las-vegas-3010-w-ann-rd,,https://local.albertsons.com/nv/north-las-vegas/3010-w-ann-rd.html,Albertsons North Las Vegas - Ann & Simmons,open,3010 W Ann Rd,North Las Vegas,,Nevada,NV,89031,US,36.2631,-115.181,America/Los_Angeles,,,702-656-3103,32,32003,32003003631,320030036312016,29820,332,ceo,census
farmington-4909-e-main-st,,https://local.albertsons.com/nm/farmington/4909-e-main-st.html,Albertsons Main St,open,4909 E Main St,Farmington,,New Mexico,NM,87402,US,36.7659,-108.1464,America/Denver,,,505-325-1486,35,35045,35045000204,350450002041002,22140,,ceo,census
mt-missoula-2230-n-reserve-st,,https://local.albertsons.com/mt/missoula/2230-n-reserve-st.html,Albertsons North Reserve,open,2230 N Reserve St,Missoula,,Montana,MT,59808,US,46.8851,-114.0372,America/Denver,,,406-728-1116,30,30063,30063000204,300630002042011,33540,,ceo,census
gallup-1702-e-66th-ave,,https://local.albertsons.com/nm/gallup/1702-e-66th-ave.html,Albertsons Gallup - Zecca Plaza,open,1702 E 66th Ave,Gallup,,New Mexico,NM,87301,US,35.5291,-108.717,America/Denver,,,505-722-4457,35,35031,35031945502,350319455021003,23700,,ceo,fcc
williston-20-26th-st-e,,https://local.albertsons.com/nd/williston/20-26th-st-e.html,Albertsons Williston,open,20 26th St E,Williston,,North Dakota,ND,58801,US,48.1676,-103.6225,America/Chicago,,,701-572-1097,38,38105,38105953900,381059539002000,48780,,ceo,census
nv-henderson-190-n-boulder-hwy,,https://local.albertsons.com/nv/henderson/190-n-boulder-hwy.html,Albertsons Henderson - Boulder Hwy,open,190 N Boulder Hwy,Henderson,,Nevada,NV,89015,US,36.0416,-114.9814,America/Los_Angeles,,,702-565-3068,32,32003,32003005422,320030054221014,29820,332,ceo,census
ardmore-1855-12th-ave-nw,,https://local.albertsons.com/ok/ardmore/1855-12th-ave-nw.html,Albertsons Ardmore,open,1855 12th Ave NW,Ardmore,,Oklahoma,OK,73401,US,34.1895,-97.1511,America/Chicago,,,580-826-3651,40,40019,40019892602,400198926021014,11620,,ceo,census
nv-las-vegas-1001-s-rainbow-blvd,,https://local.albertsons.com/nv/las-vegas/1001-s-rainbow-blvd.html,Albertsons Rainbow & Charleston,open,1001 S Rainbow Blvd,Las Vegas,,Nevada,NV,89145,US,36.1602,-115.2452,America/Los_Angeles,,,702-877-3338,32,32003,32003003006,320030030063003,29820,332,ceo,census
mt-missoula-3800-russell-st,,https://local.albertsons.com/mt/missoula/3800-russell-st.html,Albertsons Russell & Higgins,open,3800 Russell St,Missoula,,Montana,MT,59801,US,46.8355,-114.0152,America/Denver,,,406-549-1547,30,30063,30063001200,300630012004021,33540,,ceo,census
silver-city-1956-hwy-180-e,,https://local.albertsons.com/nm/silver-city/1956-hwy-180-e.html,Albertsons Silver City,open,1956 Hwy 180 E,Silver City,,New Mexico,NM,88061,US,32.7864,-108.2514,America/Denver,,,575-388-1909,35,35017,35017964401,350179644011000,43500,,ceo,census
nm-las-cruces-1285-s-el-paseo-rd,,https://local.albertsons.com/nm/las-cruces/1285-s-el-paseo-rd.html,Albertsons Las Cruces - Las Cruces,open,1285 S El Paseo Rd,Las Cruces,,New Mexico,NM,88001,US,32.2981,-106.7704,America/Denver,,,575-523-5538,35,35013,35013000600,350130006003063,29740,238,ceo,fcc
nv-henderson-201-s-stephanie-st,,https://local.albertsons.com/nv/henderson/201-s-stephanie-st.html,Albertsons Stephanie & Horizon,open,201 S Stephanie St,Henderson,,Nevada,NV,89012,US,36.0205,-115.049,America/Los_Angeles,,,702-269-1502,32,32003,32003005356,320030053562000,29820,332,ceo,census
nv-las-vegas-10140-w-flamingo-rd,,https://local.albertsons.com/nv/las-vegas/10140-w-flamingo-rd.html,Albertsons Hualapai & Flamingo,open,10140 W Flamingo Rd,Las Vegas,,Nevada,NV,89147,US,36.1166,-115.3137,America/Los_Angeles,,,702-562-1745,32,32003,32003005875,320030058752016,29820,332,ceo,census
ashland-2301-ashland-st,,https://local.albertsons.com/or/ashland/2301-ashland-st.html,Albertsons Ashland,open,2301 Ashland St,Ashland,,Oregon,OR,97520,US,42.1865,-122.6709,America/Los_Angeles,,,541-482-6320,41,41029,41029001801,410290018011026,32780,366,ceo,census
central-point-1360-plaza-blvd,,https://local.albertsons.com/or/central-point/1360-plaza-blvd.html,Albertsons Central Point,open,1360 Plaza Blvd,Central Point,,Oregon,OR,97502,US,42.3765,-122.9042,America/Los_Angeles,,,541-665-3761,41,41029,41029001001,410290010012001,32780,366,ceo,census
baker-city-1120-campbell-st,,https://local.albertsons.com/or/baker-city/1120-campbell-st.html,Albertsons Campbell,open,1120 Campbell St,Baker City,,Oregon,OR,97814,US,44.7835,-117.819,America/Los_Angeles,,,541-524-0412,41,41001,41001950400,410019504001024,12520,,ceo,census
nm-las-cruces-2501-n-main-st,,https://local.albertsons.com/nm/las-cruces/2501-n-main-st.html,Albertsons Las Cruces - North Las Cruces,open,2501 N Main St,Las Cruces,,New Mexico,NM,88001,US,32.3336,-106.7831,America/Denver,,,575-524-1980,35,35013,35013000300,350130003001000,29740,238,ceo,census
bend-1800-ne-3rd-st,,https://local.albertsons.com/or/bend/1800-ne-3rd-st.html,Albertsons 1800 NE,open,1800 NE 3rd St,Bend,,Oregon,OR,97701,US,44.0681,-121.3015,America/Los_Angeles,,,541-382-3661,41,41017,41017001601,410170016011020,13460,,ceo,census
nv-henderson-2910-bicentennial-pkwy,,https://local.albertsons.com/nv/henderson/2910-bicentennial-pkwy.html,Albertsons Anthem & Bicentennial,open,2910 Bicentennial Pkwy,Henderson,,Nevada,NV,89044,US,35.9424,-115.1175,America/Los_Angeles,,,702-567-1023,32,32003,32003005717,320030057172088,29820,332,ceo,census
nv-las-vegas-10250-w-charleston-blvd,,https://local.albertsons.com/nv/las-vegas/10250-w-charleston-blvd.html,Albertsons Charleston & Town Center,open,10250 W Charleston Blvd,Las Vegas,,Nevada,NV,89135,US,36.1609,-115.3196,America/Los_Angeles,,,702-838-4322,32,32003,32003003227,320030032272010,29820,332,ceo,census
hillsboro-7500-sw-baseline-rd,,https://local.albertsons.com/or/hillsboro/7500-sw-baseline-rd.html,Albertsons 219th & Baseline,open,7500 SW Baseline Rd,Hillsboro,,Oregon,OR,97123,US,45.5146,-122.904,America/Los_Angeles,,,503-591-7557,41,41067,41067032407,410670324071004,38900,440,ceo,census
nm-las-cruces-2551-e-lohman-ave,,https://local.albertsons.com/nm/las-cruces/2551-e-lohman-ave.html,Albertsons Las Cruces - Telshor and Lohman,open,2551 E Lohman Ave,Las Cruces,,New Mexico,NM,88011,US,32.3174,-106.7434,America/Denver,,,575-521-9837,35,35013,35013001206,350130012062029,29740,238,ceo,fcc
grants-pass-1690-allen-creek-rd,,https://local.albertsons.com/or/grants-pass/1690-allen-creek-rd.html,Albertsons Allen Creek,open,1690 Allen Creek Rd,Grants Pass,,Oregon,OR,97527,US,42.4193,-123.3528,America/Los_Angeles,,,541-471-2148,41,41033,41033361101,410333611011011,24420,366,ceo,census
or-eugene-1675-w-18th-ave,,https://local.albertsons.com/or/eugene/1675-w-18th-ave.html,Albertsons Eugene,open,1675 W 18th Ave,Eugene,,Oregon,OR,97402,US,44.0413,-123.1168,America/Los_Angeles,,,541-485-7027,41,41039,41039004501,410390045013009,21660,,ceo,census
mcminnville-615-sw-keck-dr,,https://local.albertsons.com/or/mcminnville/615-sw-keck-dr.html,Albertsons Baker & Keck,open,615 SW Keck Dr,Mcminnville,,Oregon,OR,97128,US,45.1964,-123.2051,America/Los_Angeles,,,503-474-1087,41,41071,41071030802,410710308022014,38900,440,ceo,census
nv-henderson-575-college-dr,,https://local.albertsons.com/nv/henderson/575-college-dr.html,Albertsons College & Horizon,open,575 College Dr,Henderson,,Nevada,NV,89015,US,36.0137,-114.965,America/Los_Angeles,,,702-568-0115,32,32003,32003005335,320030053354007,29820,332,ceo,census
nv-las-vegas-11720-w-charleston-blvd,,https://local.albertsons.com/nv/las-vegas/11720-w-charleston-blvd.html,Albertsons Desert Foothills & Charleston Blvd,open,11720 W Charleston Blvd,Las Vegas,,Nevada,NV,89135,US,36.1607,-115.3506,America/Los_Angeles,,,702-363-1153,32,32003,32003005822,320030058221006,29820,332,ceo,census
or-eugene-3075-hilyard-st,,https://local.albertsons.com/or/eugene/3075-hilyard-st.html,Albertsons Hilyard,open,3075 Hilyard St,Eugene,,Oregon,OR,97405,US,44.0233,-123.081,America/Los_Angeles,,,541-687-1742,41,41039,41039005000,410390050002004,21660,,ceo,census
lake-oswego-16199-boones-ferry-rd,,https://local.albertsons.com/or/lake-oswego/16199-boones-ferry-rd.html,Albertsons Boones,open,16199 Boones Ferry Rd,Lake Oswego,,Oregon,OR,97035,US,45.4095,-122.7229,America/Los_Angeles,,,503-635-3429,41,41005,41005020302,410050203021023,38900,440,ceo,census
ontario-1410-westpark-plaza,,https://local.albertsons.com/or/ontario/1410-westpark-plaza.html,Albertsons West Ontario,open,1410 Westpark Plaza,Ontario,,Oregon,OR,97914,US,44.0233,-116.9838,America/Boise,,,541-889-9123,41,41045,41045970300,410459703004000,36620,147,ceo,census
nv-las-vegas-1300-e-flamingo-rd,,https://local.albertsons.com/nv/las-vegas/1300-e-flamingo-rd.html,Albertsons Flamingo & Maryland,open,1300 E Flamingo Rd,Las Vegas,,Nevada,NV,89119,US,36.1158,-115.136,America/Los_Angeles,,,702-733-2947,32,32003,32003002501,320030025012002,29820,332,ceo,census
or-eugene-311-coburg-rd,,https://local.albertsons.com/or/eugene/311-coburg-rd.html,Albertsons Coburg & Oakmont,open,311 Coburg Rd,Eugene,,Oregon,OR,97401,US,44.0647,-123.0739,America/Los_Angeles,,,541-342-7635,41,41039,41039003103,410390031031000,21660,,ceo,census
or-medford-113-ross-ln,,https://local.albertsons.com/or/medford/113-ross-ln.html,Albertsons Jacksonville & Ross,open,113 Ross Ln,Medford,,Oregon,OR,97501,US,42.3252,-122.9007,America/Los_Angeles,,,541-858-5937,41,41029,41029000202,410290002021005,32780,366,ceo,census
or-springfield-2000-marcola-rd,,https://local.albertsons.com/or/springfield/2000-marcola-rd.html,Albertsons Springfield,open,2000 Marcola Rd,Springfield,,Oregon,OR,97477,US,44.0654,-122.9951,America/Los_Angeles,,,541-746-8850,41,41039,41039002001,410390020011024,21660,,ceo,census
oregon-city-19007-s-beavercreek-rd,,https://local.albertsons.com/or/oregon-city/19007-s-beavercreek-rd.html,Albertsons Oregon City,open,19007 S Beavercreek Rd,Oregon City,,Oregon,OR,97045,US,45.3301,-122.5735,America/Los_Angeles,,,503-657-3248,41,41005,41005022603,410050226032000,38900,440,ceo,census
or-eugene-4740-royal-ave,,https://local.albertsons.com/or/eugene/4740-royal-ave.html,Albertsons Royal & Danebo,open,4740 Royal Ave,Eugene,,Oregon,OR,97402,US,44.0687,-123.1794,America/Los_Angeles,,,541-688-6497,41,41039,41039002504,410390025042002,21660,,ceo,census
nv-las-vegas-1650-n-buffalo-dr,,https://local.albertsons.com/nv/las-vegas/1650-n-buffalo-dr.html,Albertsons Vegas & Buffalo,open,1650 N Buffalo Dr,Las Vegas,,Nevada,NV,89128,US,36.1897,-115.2587,America/Los_Angeles,,,702-562-6079,32,32003,32003003421,320030034211003,29820,332,ceo,census
or-portland-451-ne-181st-st,,https://local.albertsons.com/or/portland/451-ne-181st-st.html,Albertsons 181st & Glisan,open,451 NE 181st St,Portland,,Oregon,OR,97230,US,45.5256,-122.479,America/Los_Angeles,,,503-666-3801,41,41051,41051009606,410510096061000,38900,440,ceo,census
tx-arlington-301-sw-plaza-shopping-center,,https://local.albertsons.com/tx/arlington/301-sw-plaza-shopping-center.html,Albertsons Arlington - Southwest Plaza,open,301 SW Plaza Shopping Center,Arlington,,Texas,TX,76016,US,32.6768,-97.1999,America/Chicago,,,817-478-4291,48,48439,48439121611,484391216111013,19100,206,ceo,census
or-medford-910-n-phoenix-rd,,https://local.albertsons.com/or/medford/910-n-phoenix-rd.html,Albertsons Barnett & Phoenix,open,910 N Phoenix Rd,Medford,,Oregon,OR,97504,US,42.3168,-122.8151,America/Los_Angeles,,,541-770-7050,41,41029,41029000605,410290006052000,32780,366,ceo,census
or-springfield-5755-s-main-st,,https://local.albertsons.com/or/springfield/5755-s-main-st.html,Albertsons East Springfield,open,5755 S Main St,Springfield,,Oregon,OR,97478,US,44.0442,-122.9276,America/Los_Angeles,,,541-746-1653,41,41039,41039001801,410390018011021,21660,,ceo,census
or-eugene-55-division-ave,,https://local.albertsons.com/or/eugene/55-division-ave.html,Albertsons Division & River Road,open,55 Division Ave,Eugene,,Oregon,OR,97404,US,44.1005,-123.1284,America/Los_Angeles,,,541-689-3960,41,41039,41039002301,410390023012029,21660,,ceo,census
or-portland-5850-ne-prescott,,https://local.albertsons.com/or/portland/5850-ne-prescott.html,Albertsons Cully,open,5850 NE Prescott,Portland,,Oregon,OR,97218,US,45.5544,-122.6027,America/Los_Angeles,,,503-284-5083,41,41051,41051007500,410510075002000,38900,440,ceo,census
tx-arlington-5950-s-cooper-st,,https://local.albertsons.com/tx/arlington/5950-s-cooper-st.html,Albertsons Arlington - Cooper & Sublett,open,5950 S Cooper St,Arlington,,Texas,TX,76017,US,32.6495,-97.1371,America/Chicago,,,817-557-0185,48,48439,48439111533,484391115331027,19100,206,ceo,census
nv-las-vegas-1760-e-charleston-blvd,,https://local.albertsons.com/nv/las-vegas/1760-e-charleston-blvd.html,Albertsons Charleston & Burnham,open,1760 E Charleston Blvd,Las Vegas,,Nevada,NV,89104,US,36.1572,-115.1256,America/Los_Angeles,,,702-366-1550,32,32003,32003001401,320030014012000,29820,332,ceo,census
azle-480-northwest-pkwy,,https://local.albertsons.com/tx/azle/480-northwest-pkwy.html,Albertsons Azle,open,480 Northwest Pkwy,Azle,,Texas,TX,76020,US,32.902,-97.5445,America/Chicago,,,817-270-1116,48,48439,48439114204,484391142041007,19100,206,ceo,census
tx-arlington-6220-us-hwy-287,,https://local.albertsons.com/tx/arlington/6220-us-hwy-287.html,Albertsons Arlington - Sublett & Hwy 287,open,6220 US Hwy 287,Arlington,,Texas,TX,76001,US,32.6441,-97.1863,America/Chicago,,,817-478-8901,48,48439,48439111408,484391114081003,19100,206,ceo,fcc
nv-las-vegas-1940-village-center-circle,,https://local.albertsons.com/nv/las-vegas/1940-village-center-circle.html,Albertsons Las Vegas - Village Center Cir,open,1940 Village Center Circle,Las Vegas,,Nevada,NV,89134,US,36.1937,-115.3059,America/Los_Angeles,,,702-341-0308,32,32003,32003003252,320030032521006,29820,332,ceo,census
burleson-833-ne-alsbury-blvd,,https://local.albertsons.com/tx/burleson/833-ne-alsbury-blvd.html,Albertsons Burleson,open,833 NE Alsbury Blvd,Burleson,,Texas,TX,76028,US,32.565,-97.3222,America/Chicago,,,817-447-9106,48,48439,48439111030,484391110302013,19100,206,ceo,census
carrollton-2150-n-josey-ln,,https://local.albertsons.com/tx/carrollton/2150-n-josey-ln.html,Albertsons Carrollton - Josey Lane,open,2150 N Josey Ln,Carrollton,,Texas,TX,75006,US,32.9746,-96.8885,America/Chicago,,,972-446-8226,48,48113,48113013720,481130137201017,19100,206,ceo,census
bedford-1300-airport-freeway,,https://local.albertsons.com/tx/bedford/1300-airport-freeway.html,Albertsons Bedford - Airport Freeway,open,1300 Airport Freeway,Bedford,,Texas,TX,76022,US,32.8371,-97.1503,America/Chicago,,,817-354-0622,48,48439,48439113618,484391136185001,19100,206,ceo,census
corinth-4351-fm-2181,,https://local.albertsons.com/tx/corinth/4351-fm-2181.html,Albertsons Corinth,open,4351 FM 2181,Corinth,,Texas,TX,76210,US,33.1316,-97.0434,America/Chicago,,,940-321-4540,48,48121,48121021421,481210214211003,19100,206,ceo,census
cedar-hill-427-e-fm-1382,,https://local.albertsons.com/tx/cedar-hill/427-e-fm-1382.html,Albertsons Cedar Hill,open,427 E FM 1382,Cedar Hill,,Texas,TX,75104,US,32.593,-96.9352,America/Chicago,,,972-291-9863,48,48113,48113016629,481130166292005,19100,206,ceo,census
nv-las-vegas-2550-s-fort-apache-rd,,https://local.albertsons.com/nv/las-vegas/2550-s-fort-apache-rd.html,Albertsons Fort Apache & Sahara,open,2550 S Fort Apache Rd,Las Vegas,,Nevada,NV,89117,US,36.1433,-115.2963,America/Los_Angeles,,,702-242-1138,32,32003,32003005808,320030058081000,29820,332,ceo,census
cleburne-210-w-katherine-p-raines,,https://local.albertsons.com/tx/cleburne/210-w-katherine-p-raines.html,Albertsons Cleburne,open,210 W Katherine P Raines,Cleburne,,Texas,TX,76033,US,32.3848,-97.3945,America/Chicago,,,817-641-2002,48,48251,48251130800,482511308001000,19100,206,ceo,fcc
dallas-320-casa-linda-plaza,,https://local.albertsons.com/tx/dallas/320-casa-linda-plaza.html,Albertsons Dallas - Buckner & Garland,open,320 Casa Linda Plaza,Dallas,,Texas,TX,75218,US,32.834,-96.6997,America/Chicago,,,214-319-7919,48,48113,48113008200,481130082003025,19100,206,ceo,fcc
denton-2321-w-university-dr,,https://local.albertsons.com/tx/denton/2321-w-university-dr.html,Albertsons Denton - University & Bonnie Brae,open,2321 W University Dr,Denton,,Texas,TX,76201,US,33.2284,-97.1629,America/Chicago,,,940-383-2391,48,48121,48121020403,481210204033005,19100,206,ceo,census
denison-200-w-crawford-st,,https://local.albertsons.com/tx/denison/200-w-crawford-st.html,Albertsons Denison Crawford Street,open,200 W Crawford St,Denison,,Texas,TX,75020,US,33.7521,-96.5378,America/Chicago,,,903-463-6076,48,48181,48181000502,481810005021049,43300,206,ceo,census
euless-1155-n-main-st,,https://local.albertsons.com/tx/euless/1155-n-main-st.html,Albertsons Euless - Harwood & Main,open,1155 N Main St,Euless,,Texas,TX,76039,US,32.8534,-97.0835,America/Chicago,,,817-354-9195,48,48439,48439113516,484391135163010,19100,206,ceo,census
nv-las-vegas-2835-s-nellis-blvd,,https://local.albertsons.com/nv/las-vegas/2835-s-nellis-blvd.html,Albertsons Vegas Valley & Nellis,open,2835 S Nellis Blvd,Las Vegas,,Nevada,NV,89121,US,36.1385,-115.0672,America/Los_Angeles,,,702-457-1491,32,32003,32003001615,320030016151005,29820,332,ceo,census
garland-5710-broadway-blvd,,https://local.albertsons.com/tx/garland/5710-broadway-blvd.html,Albertsons Garland Broadway Blvd,open,5710 Broadway Blvd,Garland,,Texas,TX,75043,US,32.8461,-96.5939,America/Chicago,,,972-240-7339,48,48113,48113018138,481130181382002,19100,206,ceo,census
grand-prairie-215-n-carrier-pkwy,,https://local.albertsons.com/tx/grand-prairie/215-n-carrier-pkwy.html,Albertsons Grand Prairie - Carrier & Main,open,215 N Carrier Pkwy,Grand Prairie,,Texas,TX,75050,US,32.7438,-97.0182,America/Chicago,,,972-642-6555,48,48113,48113015404,481130154042016,19100,206,ceo,census
tx-fort-worth-3525-sycamore-school-rd,,https://local.albertsons.com/tx/fort-worth/3525-sycamore-school-rd.html,Albertsons Fort Worth - Sycamore School & McCart,open,3525 Sycamore School Rd,Fort Worth,,Texas,TX,76133,US,32.6335,-97.3715,America/Chicago,,,817-346-6497,48,48439,48439105511,484391055111000,19100,206,ceo,census
nv-las-vegas-2885-e-desert-inn-rd,,https://local.albertsons.com/nv/las-vegas/2885-e-desert-inn-rd.html,Albertsons Desert Inn & Pecos,open,2885 E Desert Inn Rd,Las Vegas,,Nevada,NV,89121,US,36.1282,-115.1111,America/Los_Angeles,,,702-792-7156,32,32003,32003001707,320030017071002,29820,332,ceo,census
tx-el-paso-10765-kenworthy,,https://local.albertsons.com/tx/el-paso/10765-kenworthy.html,Albertsons El Paso - Kenworth and Patriot,open,10765 Kenworthy,El Paso,,Texas,TX,79924,US,31.9204,-106.4383,America/Denver,,,915-821-2006,48,48141,48141000106,481410001063020,21340,238,ceo,census
horizon-city-13671-eastlake-blvd,,https://local.albertsons.com/tx/horizon-city/13671-eastlake-blvd.html,Albertsons Horizon City,open,13671 Eastlake Blvd,Horizon City,,Texas,TX,79928,US,31.7005,-106.2137,America/Denver,,,915-337-3188,48,48141,48141010370,481410103701028,21340,238,ceo,census
tx-fort-worth-3563-alton-rd,,https://local.albertsons.com/tx/fort-worth/3563-alton-rd.html,Albertsons Fort Worth - Alton Road & S Hill Ave,open,3563 Alton Rd,Fort Worth,,Texas,TX,76109,US,32.6978,-97.3695,America/Chicago,,,817-548-1415,48,48439,48439104202,484391042021019,19100,206,ceo,census
irving-2200-w-shady-grove-rd,,https://local.albertsons.com/tx/irving/2200-w-shady-grove-rd.html,Albertsons Shady Grove and S Story,open,2200 W Shady Grove Rd,Irving,,Texas,TX,75060,US,32.7999,-96.9748,America/Chicago,,,972-374-5110,48,48113,48113015207,481130152072007,19100,206,ceo,census
lake-worth-6308-lake-worth-blvd,,https://local.albertsons.com/tx/lake-worth/6308-lake-worth-blvd.html,Albertsons Lake Worth,open,6308 Lake Worth Blvd,Lake Worth,,Texas,TX,76135,US,32.812,-97.4224,America/Chicago,,,817-237-8124,48,48439,48439110401,484391104014016,19100,206,ceo,fcc
longview-3603-mccann-rd,,https://local.albertsons.com/tx/longview/3603-mccann-rd.html,Albertsons Longview - McCann & Loop 281,open,3603 McCann Rd,Longview,,Texas,TX,75605,US,32.5431,-94.7551,America/Chicago,,,903-663-2082,48,48183,48183000602,481830006021033,30980,,ceo,census
nv-las-vegas-4055-s-durango-dr,,https://local.albertsons.com/nv/las-vegas/4055-s-durango-dr.html,Albertsons Flamingo & Durango,open,4055 S Durango Dr,Las Vegas,,Nevada,NV,89147,US,36.1158,-115.2803,America/Los_Angeles,,,702-869-1474,32,32003,32003005826,320030058263011,29820,332,ceo,census
tx-el-paso-11320-montwood-dr,,https://local.albertsons.com/tx/el-paso/11320-montwood-dr.html,Albertsons El Paso - Montwood and George Dieter,open,11320 Montwood Dr,El Paso,,Texas,TX,79936,US,31.7676,-106.3021,America/Denver,,,915-855-9761,48,48141,48141004314,481410043141005,21340,238,ceo,census
mckinney-3001-s-central-expy,,https://local.albertsons.com/tx/mckinney/3001-s-central-expy.html,Albertsons McKinney - US 75 & El Dorado,open,3001 S Central Expy,Mckinney,,Texas,TX,75070,US,33.1708,-96.6369,America/Chicago,,,972-548-1003,48,48085,48085030801,480850308011007,19100,206,ceo,census
tx-fort-worth-4400-western-center-blvd,,https://local.albertsons.com/tx/fort-worth/4400-western-center-blvd.html,Albertsons Fort Worth - Beach & Western Center,open,4400 Western Center Blvd,Fort Worth,,Texas,TX,76137,US,32.8594,-97.2915,America/Chicago,,,817-232-2180,48,48439,48439105007,484391050074001,19100,206,ceo,census
tx-el-paso-2200-yarbrough-dr,,https://local.albertsons.com/tx/el-paso/2200-yarbrough-dr.html,Albertsons El Paso - Yarbrough and Montwood,open,2200 Yarbrough Dr,El Paso,,Texas,TX,79925,US,31.7728,-106.338,America/Denver,,,915-591-9477,48,48141,48141010307,481410103076012,21340,238,ceo,census
nv-las-vegas-4800-blue-diamond-rd,,https://local.albertsons.com/nv/las-vegas/4800-blue-diamond-rd.html,Albertsons Blue Diamond and Decatur,open,4800 Blue Diamond Rd,Las Vegas,,Nevada,NV,89139,US,36.0354,-115.2067,America/Los_Angeles,,,702-260-0318,32,32003,32003002985,320030029851060,29820,332,ceo,census
richardson-2165-e-buckingham-dr,,https://local.albertsons.com/tx/richardson/2165-e-buckingham-dr.html,Albertsons Richardson - Richardson,open,2165 E Buckingham Dr,Richardson,,Texas,TX,75081,US,32.9324,-96.6838,America/Chicago,,,972-680-1711,48,48113,48113019024,481130190241019,19100,206,ceo,census
saginaw-1201-n-saginaw-blvd,,https://local.albertsons.com/tx/saginaw/1201-n-saginaw-blvd.html,Albertsons Saginaw - Bus Hwy 287 & Bailey Boswell,open,1201 N Saginaw Blvd,Saginaw,,Texas,TX,76179,US,32.8795,-97.3823,America/Chicago,,,817-232-2777,48,48439,48439114014,484391140143000,19100,206,ceo,census
mesquite-2828-motley-dr,,https://local.albertsons.com/tx/mesquite/2828-motley-dr.html,Albertsons Mesquite - Motley & Town East,open,2828 Motley Dr,Mesquite,,Texas,TX,75150,US,32.8037,-96.6457,America/Chicago,,,972-270-2406,48,48113,48113017820,481130178202019,19100,206,ceo,fcc
texarkana-4415-w-7th-st,,https://local.albertsons.com/tx/texarkana/4415-w-7th-st.html,Albertsons Texarkana - Highway 59 & Highway 67,open,4415 W 7th St,Texarkana,,Texas,TX,75501,US,33.4171,-94.0992,America/Chicago,,,903-831-7226,48,48037,48037011101,480370111011001,45500,,ceo,census
watauga-6249-rufe-snow-dr,,https://local.albertsons.com/tx/watauga/6249-rufe-snow-dr.html,Albertsons Watauga,open,6249 Rufe Snow Dr,Watauga,,Texas,TX,76148,US,32.8588,-97.2399,America/Chicago,,,817-428-0541,48,48439,48439113810,484391138101000,19100,206,ceo,census
tx-fort-worth-6700-w-freeway,,https://local.albertsons.com/tx/fort-worth/6700-w-freeway.html,Albertsons Fort Worth - I-30 & Green Oaks,open,6700 W Freeway,Fort Worth,,Texas,TX,76116,US,32.7369,-97.4331,America/Chicago,,,817-377-8074,48,48439,48439123001,484391230013007,19100,206,ceo,census
sherman-100-e-taylor-st,,https://local.albertsons.com/tx/sherman/100-e-taylor-st.html,Albertsons Sherman - Taylor Street,open,100 E Taylor St,Sherman,,Texas,TX,75092,US,33.6534,-96.6138,America/Chicago,,,903-868-9686,48,48181,48181000903,481810009031059,43300,206,ceo,census
nv-las-vegas-4850-w-craig-rd,,https://local.albertsons.com/nv/las-vegas/4850-w-craig-rd.html,Albertsons Craig & Decatur,open,4850 W Craig Rd,Las Vegas,,Nevada,NV,89130,US,36.2403,-115.2091,America/Los_Angeles,,,702-515-1455,32,32003,32003003410,320030034101014,29820,332,ceo,census
tx-el-paso-3100-mesa-st,,https://local.albertsons.com/tx/el-paso/3100-mesa-st.html,Albertsons El Paso - Mesa and Gregory,open,3100 Mesa St,El Paso,,Texas,TX,79902,US,31.7808,-106.5048,America/Denver,,,915-351-1002,48,48141,48141001502,481410015022015,21340,238,ceo,census
tx-fort-worth-7400-oakmont-blvd,,https://local.albertsons.com/tx/fort-worth/7400-oakmont-blvd.html,Albertsons Fort Worth - Bryant Irvin & Oakmont,open,7400 Oakmont Blvd,Fort Worth,,Texas,TX,76132,US,32.6628,-97.4199,America/Chicago,,,817-423-9556,48,48439,48439105513,484391055131000,19100,206,ceo,census
tx-el-paso-3150-n-zaragoza-rd,,https://local.albertsons.com/tx/el-paso/3150-n-zaragoza-rd.html,Albertsons Zaragoza Rd & Pebble Hills,open,3150 N Zaragoza Rd,El Paso,,Texas,TX,79938,US,31.7843,-106.243,America/Denver,,,915-995-3595,48,48141,48141010367,481410103673025,21340,238,ceo,fcc
nv-las-vegas-5500-boulder-hwy,,https://local.albertsons.com/nv/las-vegas/5500-boulder-hwy.html,Albertsons Boulder Hwy,open,5500 Boulder Hwy,Las Vegas,,Nevada,NV,89122,US,36.1017,-115.0543,America/Los_Angeles,,,702-435-6777,32,32003,32003001718,320030017182002,29820,332,ceo,census
washington-915-redcliffs-dr,,https://local.albertsons.com/ut/washington/915-redcliffs-dr.html,Albertsons Redcliffs,open,915 Redcliffs Dr,Washington,,Utah,UT,84780,US,37.1255,-113.5246,America/Denver,,,435-628-0424,49,49053,49053271101,490532711013036,41100,,ceo,census
weatherford-225-e-spring-st,,https://local.albertsons.com/tx/weatherford/225-e-spring-st.html,Albertsons Weatherford - Spring Street,open,225 E Spring St,Weatherford,,Texas,TX,76086,US,32.7604,-97.7941,America/Chicago,,,817-594-9390,48,48367,48367140201,483671402011020,19100,206,ceo,census
saint-george-745-n-dixie-dr,,https://local.albertsons.com/ut/saint-george/745-n-dixie-dr.html,Albertsons Saint George - Santa Clara,open,745 N Dixie Dr,Saint George,,Utah,UT,84770,US,37.1207,-113.6243,America/Denver,,,435-688-7156,49,49053,49053270601,490532706014000,41100,,ceo,census
port-orchard-1434-olney-ave-se,,https://local.albertsons.com/wa/port-orchard/1434-olney-ave-se.html,Albertsons Port Orchard,open,1434 Olney Ave SE,Port Orchard,,Washington,WA,98366,US,47.5357,-122.6105,America/Los_Angeles,,,360-895-2292,53,53035,53035092500,530350925002006,14740,500,ceo,census
battle-ground-2108-w-main-st,,https://local.albertsons.com/wa/battle-ground/2108-w-main-st.html,Albertsons Battle Ground,open,2108 W Main St,Battle Ground,,Washington,WA,98604,US,45.7817,-122.5602,America/Los_Angeles,,,360-687-4130,53,53011,53011040414,530110404143020,38900,440,ceo,census
tx-fort-worth-850-e-loop-820,,https://local.albertsons.com/tx/fort-worth/850-e-loop-820.html,Albertsons Fort Worth - I-820 & John T White,open,850 E Loop 820,Fort Worth,,Texas,TX,76112,US,32.7673,-97.2148,America/Chicago,,,817-451-0306,48,48439,48439106519,484391065191001,19100,206,ceo,census
tx-el-paso-5200-montana-ave,,https://local.albertsons.com/tx/el-paso/5200-montana-ave.html,Albertsons El Paso - Montana and Chelsea,open,5200 Montana Ave,El Paso,,Texas,TX,79903,US,31.7825,-106.4267,America/Denver,,,915-778-8996,48,48141,48141003300,481410033005007,21340,238,ceo,census
nv-las-vegas-5881-e-charleston-blvd,,https://local.albertsons.com/nv/las-vegas/5881-e-charleston-blvd.html,Albertsons Sloan & Charleston,open,5881 E Charleston Blvd,Las Vegas,,Nevada,NV,89142,US,36.1585,-115.0455,America/Los_Angeles,,,702-457-1400,32,32003,32003004910,320030049101000,29820,332,ceo,census
olympia-3520-pacific-ave-se,,https://local.albertsons.com/wa/olympia/3520-pacific-ave-se.html,Albertsons Redmond,open,3520 Pacific Ave SE,Olympia,,Washington,WA,98501,US,47.0428,-122.8459,America/Los_Angeles,,,360-459-9340,53,53067,53067010700,530670107001001,36500,500,ceo,census
clarkston-400-bridge-st,,https://local.albertsons.com/wa/clarkston/400-bridge-st.html,Albertsons Clarkston,open,400 Bridge St,Clarkston,,Washington,WA,99403,US,46.4212,-117.0432,America/Los_Angeles,,,509-758-5523,53,53003,53003960300,530039603003016,30300,,ceo,census
redmond-3925-236th-ave-ne,,https://local.albertsons.com/wa/redmond/3925-236th-ave-ne.html,Albertsons Steilacoom,open,3925 236th Ave NE,Redmond,,Washington,WA,98053,US,47.6454,-122.0268,America/Los_Angeles,,,425-836-8112,53,53033,53033032328,530330323281000,42660,500,ceo,census
tx-fort-worth-9300-clifford-st,,https://local.albertsons.com/tx/fort-worth/9300-clifford-st.html,Albertsons Fort Worth - I-820 & Clifford,open,9300 Clifford St,Fort Worth,,Texas,TX,76108,US,32.7662,-97.4782,America/Chicago,,,817-246-3366,48,48439,48439114207,484391142072003,19100,206,ceo,census
tx-el-paso-5630-n-desert-blvd,,https://local.albertsons.com/tx/el-paso/5630-n-desert-blvd.html,Albertsons El Paso - I - 10 and Redd,open,5630 N Desert Blvd,El Paso,,Texas,TX,79912,US,31.8645,-106.575,America/Denver,,,915-845-5069,48,48141,48141010225,481410102252028,21340,238,ceo,census
nv-las-vegas-5975-w-tropicana-ave,,https://local.albertsons.com/nv/las-vegas/5975-w-tropicana-ave.html,Albertsons Tropicana & Jones,open,5975 W Tropicana Ave,Las Vegas,,Nevada,NV,89103,US,36.0987,-115.2238,America/Los_Angeles,,,702-889-2000,32,32003,32003002967,320030029672000,29820,332,ceo,census
tx-el-paso-7022-n-mesa-st,,https://local.albertsons.com/tx/el-paso/7022-n-mesa-st.html,Albertsons El Paso - Mesa and Resler,open,7022 N Mesa St,El Paso,,Texas,TX,79912,US,31.8371,-106.5514,America/Denver,,,915-584-9460,48,48141,48141001119,481410011193013,21340,238,ceo,census
nv-las-vegas-6730-n-hualapai-way,,https://local.albertsons.com/nv/las-vegas/6730-n-hualapai-way.html,Albertsons N Hualapai Way,open,6730 N Hualapai Way,Las Vegas,,Nevada,NV,89149,US,36.2842,-115.3142,America/Los_Angeles,,,702-670-4942,32,32003,32003003233,320030032331013,29820,332,ceo,census
renton-4621-ne-sunset-blvd,,https://local.albertsons.com/wa/renton/4621-ne-sunset-blvd.html,Albertsons Sunset Blvd,open,4621 NE Sunset Blvd,Renton,,Washington,WA,98059,US,47.5036,-122.1573,America/Los_Angeles,,,425-271-2564,53,53033,53033025101,530330251011001,42660,500,ceo,census
puyallup-11012-canyon-rd-e,,https://local.albertsons.com/wa/puyallup/11012-canyon-rd-e.html,Albertsons Summit,open,11012 Canyon Rd E,Puyallup,,Washington,WA,98373,US,47.1558,-122.3592,America/Los_Angeles,,,253-537-3770,53,53053,53053071305,530530713052000,42660,500,ceo,census
tacoma-104-military-rd,,https://local.albertsons.com/wa/tacoma/104-military-rd.html,Albertsons 152nd & Pacific,open,104 Military Rd,Tacoma,,Washington,WA,98444,US,47.1174,-122.4328,America/Los_Angeles,,,253-538-1688,53,53053,53053071408,530530714082004,42660,500,ceo,census
seattle-2550-32nd-ave-w,,https://local.albertsons.com/wa/seattle/2550-32nd-ave-w.html,Albertsons Magnolia,open,2550 32nd Ave W,Seattle,,Washington,WA,98199,US,47.6425,-122.3979,America/Los_Angeles,,,206-283-9434,53,53033,53033005700,530330057003014,42660,500,ceo,census
nv-las-vegas-6885-e-lake-mead-blvd,,https://local.albertsons.com/nv/las-vegas/6885-e-lake-mead-blvd.html,Albertsons E Lake Mead,open,6885 E Lake Mead Blvd,Las Vegas,,Nevada,NV,89156,US,36.1946,-115.0239,America/Los_Angeles,,,702-453-0845,32,32003,32003006103,320030061032000,29820,332,ceo,census
