store_number,slug,url,location_name,status,address_line1,city,county,state,region,postal_code,country_code,latitude,longitude,time_zone,format,total_building_area_sqft,main_voice_phone_number,country_uk,itl1_code,itl1_name,lad_code,lad_name,msoa_code,msoa_name,lsoa_code,lsoa_name,coord_source,geo_source,overture_id,confidence
ovt:63ad6cae-08b6-4cd6-b37f-d965234a2b0c,,http://www.booker.co.uk,Booker Lancaster,open,,Morecambe,Lancashire,,North West,LA3 3PA,GB,54.05781107,-2.83152904,Europe/London,Booker,,0152435931,England,E12000002,North West,E07000121,Lancaster,E02005230,Lancaster 010,E01025172,Lancaster 010C,overture,postcodes.io+reverse,63ad6cae-08b6-4cd6-b37f-d965234a2b0c,0.9759
ovt:f31dd04d-b294-40e6-89e9-be1144749238,,https://www.booker.co.uk/?utm_source=Listings&utm_medium=Local&utm_campaign=Yext,Makro Aberdeen,open,Wellington Cir,Aberdeen,,,Scotland,AB12 3QW,GB,57.11001384,-2.09548206,Europe/London,Makro,,01224896896,Scotland,S92000003,Scotland,S12000033,Aberdeen City,S02002534,"Kincorth, Leggart and Nigg South",S01013587,"Kincorth, Leggart and Nigg South - 01",overture,postcodes.io,f31dd04d-b294-40e6-89e9-be1144749238,0.9940
ovt:6b6eafe9-f5d7-4745-97cb-8d03d238af74,,https://www.booker.co.uk,Booker Aberdeen,open,Whitemyres Ave,Aberdeen,,,Scotland,AB16 6YR,GB,57.15307887,-2.15611883,Europe/London,Booker,,01224690866,Scotland,S92000003,Scotland,S12000033,Aberdeen City,S02002550,Mastrick,S01013686,Mastrick - 03,overture,postcodes.io,6b6eafe9-f5d7-4745-97cb-8d03d238af74,0.9961
ovt:c5170797-cfc8-4dd9-9f09-6e07a5b6aee3,,https://www.booker.co.uk,Booker Stirchley,open,1082 Pershore Road,Birmingham,,,West Midlands,B30 2YG,GB,52.4344432,-1.91685199,Europe/London,Booker,,01214727279,England,E12000005,West Midlands,E08000025,Birmingham,E02001926,Birmingham 100,E01009282,Birmingham 100B,overture,postcodes.io,c5170797-cfc8-4dd9-9f09-6e07a5b6aee3,0.9969
ovt:b17c64d6-2b44-4834-b65b-7f276721330a,,http://www.makro.co.uk,Makro Birmingham,open,"Pitcairn Dr, Dudley Rd",Halesowen,,,West Midlands,B62 8AZ,GB,52.45916318,-2.0462316,Europe/London,Makro,,01215042251,England,E12000005,West Midlands,E08000027,Dudley,E02002033,Dudley 034,E01009734,Dudley 034A,overture,postcodes.io,b17c64d6-2b44-4834-b65b-7f276721330a,0.9427
ovt:4e8e3b2f-7919-46fc-9942-cad3d2ffc1d3,,http://www.booker.co.uk,Booker Saltley,open,"2, off Cranby St, Adderley Rd",Birmingham,,,West Midlands,B8 1JU,GB,52.49139079,-1.86092507,Europe/London,Booker,,01214482004,England,E12000005,West Midlands,E08000025,Birmingham,E02001878,Birmingham 052,E01034933,Birmingham 052G,overture,postcodes.io,4e8e3b2f-7919-46fc-9942-cad3d2ffc1d3,0.9959
ovt:568b0caf-a435-4a27-a22e-d20a116e55a7,,https://www.booker.co.uk/?utm_source=Listings&utm_medium=Local&utm_campaign=Yext,Booker Trowbridge,open,"Canal Road Industrial Estate, Kennet Way",Trowbridge,,,South West,BA14 8RN,GB,51.33233473,-2.20237632,Europe/London,Booker,,01225762962,England,E12000009,South West,E06000054,Wiltshire,E02006684,Wiltshire 031,E01032087,Wiltshire 031C,overture,postcodes.io,568b0caf-a435-4a27-a22e-d20a116e55a7,0.9982
ovt:d4258f09-8538-42ee-b4e1-fbb4a376a06c,,https://www.booker.co.uk/?utm_source=Listings&utm_medium=Local&utm_campaign=Yext,Booker Bath,open,Brook Rd,Bath,,,South West,BA2 3RP,GB,51.3812321,-2.38213622,Europe/London,Booker,,01225314974,England,E12000009,South West,E06000022,Bath and North East Somerset,E02002997,Bath and North East Somerset 013,E01035208,Bath and North East Somerset 013F,overture,postcodes.io,d4258f09-8538-42ee-b4e1-fbb4a376a06c,0.9963
ovt:2aeae1b7-bde9-4078-80e6-2849102b4973,,https://www.booker.co.uk/?utm_source=Listings&utm_medium=Local&utm_campaign=Yext,Booker Yeovil,open,Lyde Rd,Yeovil,,,South West,BA21 5DR,GB,50.94889942,-2.60822814,Europe/London,Booker,,01935471221,England,E12000009,South West,E06000066,Somerset,E02006085,South Somerset 011,E01029238,South Somerset 011A,overture,postcodes.io,2aeae1b7-bde9-4078-80e6-2849102b4973,0.9986
ovt:2daf3a0e-79da-419b-8cd8-171123897aef,,http://www.booker.co.uk,Booker Burnley,open,"Gannow Ln, Rosegrove Ln",Burnley,Lancashire,,North West,BB12 6JJ,GB,53.78969415,-2.27574551,Europe/London,Booker,,01282786128,England,E12000002,North West,E07000117,Burnley,E02005181,Burnley 006,E01024902,Burnley 006C,overture,postcodes.io,2daf3a0e-79da-419b-8cd8-171123897aef,0.9961
ovt:ea493858-c419-4ecf-88d6-8b242f4bc62b,,https://www.booker.co.uk/?utm_source=Listings&utm_medium=Local&utm_campaign=Yext,Booker Blackburn,open,Amberley St,Blackburn,,,North West,BB2 2QH,GB,53.73747681,-2.49991568,Europe/London,Booker,,0125451811,England,E12000002,North West,E06000008,Blackburn with Darwen,E02002623,Blackburn with Darwen 009,E01012622,Blackburn with Darwen 009C,overture,postcodes.io,ea493858-c419-4ecf-88d6-8b242f4bc62b,0.9987
ovt:890aeada-8825-41d7-b6e2-27d05e8cdeb9,,https://www.booker.co.uk,Booker Bradford,open,4 Shearbridge Road,Bradford,,,Yorkshire and The Humber,BD7 1NA,GB,53.79197983,-1.77250783,Europe/London,Booker,,01274064042,England,E12000003,Yorkshire and The Humber,E08000032,Bradford,E02002226,Bradford 044,E01010836,Bradford 044C,overture,postcodes.io,890aeada-8825-41d7-b6e2-27d05e8cdeb9,0.9907
ovt:09a9df7c-cf42-45f1-add7-dff2447fea6d,,https://www.booker.co.uk/?utm_source=Listings&utm_medium=Local&utm_campaign=Yext,Makro Poole,open,"Cabot Lane, 64 Creekmoor Lane",Poole,,,South West,BH17 7BT,GB,50.74149891,-1.99592809,Europe/London,Makro,,01202656221,England,E12000009,South West,E06000058,"Bournemouth, Christchurch and Poole",E02003199,"Bournemouth, Christchurch and Poole 021",E01015417,"Bournemouth, Christchurch and Poole 021A",overture,postcodes.io,09a9df7c-cf42-45f1-add7-dff2447fea6d,0.9987
ovt:ae5a8d22-f038-464f-98ff-841120aeaf78,,https://www.booker.co.uk/?utm_source=Listings&utm_medium=Local&utm_campaign=Yext,Booker Bournemouth,open,"Yeomans Industrial Park, Yeomans Way",Bournemouth,,,South West,BH8 0BJ,GB,50.75459601,-1.84028928,Europe/London,Booker,,01202533697,England,E12000009,South West,E06000058,"Bournemouth, Christchurch and Poole",E02003179,"Bournemouth, Christchurch and Poole 012",E01015338,"Bournemouth, Christchurch and Poole 012A",overture,postcodes.io,ae5a8d22-f038-464f-98ff-841120aeaf78,0.9425
ovt:7692e9af-b32e-4364-bff8-3a9cec334548,,https://www.booker.co.uk/?utm_source=Listings&utm_medium=Local&utm_campaign=Yext,Booker Farnworth,open,"Express Trading Estate, Stone Hill Rd",Bolton,,,North West,BL4 9TP,GB,53.53949616,-2.39471889,Europe/London,Booker,,01204701717,England,E12000002,North West,E08000001,Bolton,E02001015,Bolton 032,E01004902,Bolton 032D,overture,postcodes.io,7692e9af-b32e-4364-bff8-3a9cec334548,0.9973
ovt:8c6ab742-fb0b-48e6-b6af-efdb64c18f3c,,https://www.booker.co.uk/branch-locator/bolton/express-trading-estate,Booker Farnworth,open,"Express Trading Estate, Stonehill Road",Bolton,,,North West,BL4 9TP,GB,53.5408318,-2.3943774,Europe/London,Booker,,,England,E12000002,North West,E08000001,Bolton,E02001015,Bolton 032,E01004902,Bolton 032D,overture,postcodes.io,8c6ab742-fb0b-48e6-b6af-efdb64c18f3c,0.4000
ovt:63b2ca20-5366-4e37-8b7a-440da6984f6e,,https://www.booker.co.uk/?utm_source=Listings&utm_medium=Local&utm_campaign=Yext,Booker Worthing,open,"Broadwater Trading Estate, Southdownview Rd",Worthing,West Sussex,,South East,BN14 8NT,GB,50.82774029,-0.35985421,Europe/London,Booker,,01903235451,England,E12000008,South East,E07000229,Worthing,E02006625,Worthing 005,E01031781,Worthing 005D,overture,postcodes.io,63b2ca20-5366-4e37-8b7a-440da6984f6e,0.9990
ovt:acfb34a6-ebcf-4c36-b41a-e8e000955950,,https://www.booker.co.uk,Booker Brighton,open,Moulsecoomb Way,Brighton,,,South East,BN2 4NP,GB,50.85294112,-0.10635704,Europe/London,Booker,,01273624242,England,E12000008,South East,E06000043,Brighton and Hove,E02003499,Brighton and Hove 009,E01016908,Brighton and Hove 009C,overture,postcodes.io,acfb34a6-ebcf-4c36-b41a-e8e000955950,0.9953
ovt:5edca638-71cb-4179-8eb9-7a9e254d758e,,https://www.booker.co.uk/?utm_source=Listings&utm_medium=Local&utm_campaign=Yext,Makro Bristol,open,Lysander Rd,Bristol,,,South West,BS10 7TZ,GB,51.52511063,-2.60844547,Europe/London,Makro,,01179581221,England,E12000009,South West,E06000025,South Gloucestershire,E02003094,South Gloucestershire 005,E01014861,South Gloucestershire 005A,overture,postcodes.io,5edca638-71cb-4179-8eb9-7a9e254d758e,0.9951
ovt:38dafc70-2672-43e6-955e-64851936cf51,,https://www.booker.co.uk/branch-locator/bristol/lysander-road,Makro Bristol,open,"Lysander Road, Westbury On Trym",Bristol,,,South West,BS10 7TZ,GB,51.5241915,-2.6095479,Europe/London,Makro,,,England,E12000009,South West,E06000025,South Gloucestershire,E02003094,South Gloucestershire 005,E01014861,South Gloucestershire 005A,overture,postcodes.io,38dafc70-2672-43e6-955e-64851936cf51,0.4000
ovt:10976282-5536-4091-9832-e7f68dcdecb5,,https://www.booker.co.uk/?utm_source=Listings&utm_medium=Local&utm_campaign=Yext,Booker Avonmouth,open,"Avonmouth Industrial Estate, Avonmouth Way",Bristol,,,South West,BS11 9YB,GB,51.5021336,-2.68803902,Europe/London,Booker,,01179825551,England,E12000009,South West,E06000023,"Bristol, City of",E02003019,Bristol 008,E01014499,Bristol 008F,overture,postcodes.io,10976282-5536-4091-9832-e7f68dcdecb5,0.8977
ovt:cfeb78b2-d7ed-481d-8657-846321833555,,http://www.booker.co.uk,Booker Weston-Super-Mare,open,Searle Cres,Weston-super-Mare,,,South West,BS23 3YX,GB,51.34220621,-2.95827724,Europe/London,Booker,,01934636230,England,E12000009,South West,E06000024,North Somerset,E02003084,North Somerset 020,E01014809,North Somerset 020E,overture,postcodes.io,cfeb78b2-d7ed-481d-8657-846321833555,0.9863
ovt:f4cb7219-82f0-4e54-888f-97d26c95e466,,https://www.booker.co.uk,Booker Bristol,open,Whitefield Rd,Bristol,,,South West,BS5 7TJ,GB,51.46878111,-2.53422456,Europe/London,Booker,,01179679234,England,E12000009,South West,E06000023,"Bristol, City of",E02003032,Bristol 021,E01014626,Bristol 021C,overture,postcodes.io,f4cb7219-82f0-4e54-888f-97d26c95e466,0.9916
ovt:6a1c3242-0ba6-4ea9-86f6-5864165b5001,,https://www.booker.co.uk/?utm_source=Listings&utm_medium=Local&utm_campaign=Yext,Makro Belfast,open,99 Kingsway,Belfast,,,Northern Ireland,BT17 9NU,GB,54.55563118,-5.99799058,Europe/London,Makro,,02890609021,Northern Ireland,N92000002,Northern Ireland,N09000003,Belfast,N99999999,,N21000294,Collin_J,overture,postcodes.io,6a1c3242-0ba6-4ea9-86f6-5864165b5001,0.9986
ovt:25089038-e1f8-42ee-b303-ee6ecd9b95cc,,https://www.booker.co.uk/?utm_source=Listings&utm_medium=Local&utm_campaign=Yext,Booker Workington,open,Clay Flatts Trading Estate,Workington,,,North West,CA14 2TQ,GB,54.64020734,-3.55984303,Europe/London,Booker,,01900602471,England,E12000002,North West,E06000063,Cumberland,E02003973,Allerdale 009,E01019120,Allerdale 009D,overture,postcodes.io,25089038-e1f8-42ee-b303-ee6ecd9b95cc,0.9918
ovt:c249d760-04d3-48cf-a0b3-d2b7fd987575,,https://www.booker.co.uk,Booker Carlisle,open,"Newtown Industrial Estate, Burgh Rd",Carlisle,,,North West,CA2 7NA,GB,54.89862998,-2.9751142,Europe/London,Booker,,01228317911,England,E12000002,North West,E06000063,Cumberland,E02003991,Carlisle 005,E01019195,Carlisle 005B,overture,postcodes.io,c249d760-04d3-48cf-a0b3-d2b7fd987575,0.9795
ovt:2018cd01-fa3b-474d-a057-9951642edf68,,https://www.booker.co.uk,Booker Cambridge,open,7 Coldhams Grove,Cambridge,Cambridgeshire,,East of England,CB1 3HW,GB,52.19576505,0.16734332,Europe/London,Booker,,01223244725,England,E12000006,East of England,E07000008,Cambridge,E02003727,Cambridge 009,E01017999,Cambridge 009C,overture,postcodes.io,2018cd01-fa3b-474d-a057-9951642edf68,0.9995
ovt:bdd3d94e-e356-4b1c-af93-d8000d963234,,https://www.booker.co.uk/?utm_source=Listings&utm_medium=Local&utm_campaign=Yext,Booker Cardiff (Leckwith),open,"Industrial Estate, Hadfield Road Leckwith",Cardiff,,,Wales,CF11 8AQ,GB,51.46931435,-3.20789198,Europe/London,Booker,,02920394747,Wales,W92000004,Wales,W06000015,Cardiff,W02000412,Cardiff 046,W01001759,Cardiff 046A,overture,postcodes.io,bdd3d94e-e356-4b1c-af93-d8000d963234,0.8704
ovt:3e3de9c7-da48-4756-a5a9-2e9eed8a1a79,,https://www.booker.co.uk/?utm_source=Listings&utm_medium=Local&utm_campaign=Yext,Booker Cardiff,open,"excelsior industrial estate, Batchelor Rd",Cardiff,,,Wales,CF14 3AX,GB,51.50063145,-3.20311523,Europe/London,Booker,,02920520120,Wales,W92000004,Wales,W06000015,Cardiff,W02000391,Cardiff 025,W01001756,Cardiff 025B,overture,postcodes.io,3e3de9c7-da48-4756-a5a9-2e9eed8a1a79,0.9787
ovt:97b71899-113a-448d-9c2b-fc716d707447,,https://www.booker.co.uk/?utm_source=Listings&utm_medium=Local&utm_campaign=Yext,Uhw Cardiff,open,"M&S, Unit1, UHW, Main Entrance",Cardiff,,,Wales,CF15 7SR,GB,51.55756884,-3.2703427,Europe/London,Booker,,01443846621,Wales,W92000004,Wales,W06000016,Rhondda Cynon Taf,W02000277,Rhondda Cynon Taf 026,W01001240,Rhondda Cynon Taf 026C,overture,postcodes.io+reverse,97b71899-113a-448d-9c2b-fc716d707447,0.8940
ovt:d2ae5983-e4bf-485c-a314-f998d2285edd,,https://www.booker.co.uk/branch-locator/cardiff/unit-1-heol-y-pwll,Makro Cardiff,open,"Unit 1, Heol Y Pwll, Parc Nantgarw",Cardiff,,,Wales,CF15 7QW,GB,51.5575641,-3.2703421,Europe/London,Makro,,,Wales,W92000004,Wales,W06000016,Rhondda Cynon Taf,W02000277,Rhondda Cynon Taf 026,W01001240,Rhondda Cynon Taf 026C,overture,postcodes.io,d2ae5983-e4bf-485c-a314-f998d2285edd,0.4000
ovt:f55ae08d-27c3-4214-991a-21e6db0d146e,,https://www.booker.co.uk/?utm_source=Listings&utm_medium=Local&utm_campaign=Yext,Booker Merthyr Tydfil,open,"Unit 35, Merthyr Tydfil Industrial Park",Merthyr Tydfil,,,Wales,CF48 4DR,GB,51.72034537,-3.35427354,Europe/London,Booker,,01443690449,Wales,W92000004,Wales,W06000024,Merthyr Tydfil,W02000288,Merthyr Tydfil 006,W01001312,Merthyr Tydfil 006E,overture,postcodes.io,f55ae08d-27c3-4214-991a-21e6db0d146e,0.9813
ovt:14ae3b8a-8866-4c45-a236-b8f635b76f0b,,https://www.booker.co.uk/?utm_source=Listings&utm_medium=Local&utm_campaign=Yext,Booker Chester,open,"Gates, Dunkirk Trading Estate",Lea-by-Backford,,,North West,CH1 6LT,GB,53.24601458,-2.9346692,Europe/London,Booker,,01244851841,England,E12000002,North West,E06000050,Cheshire West and Chester,E02003795,Cheshire West and Chester 025,E01018360,Cheshire West and Chester 025A,overture,postcodes.io,14ae3b8a-8866-4c45-a236-b8f635b76f0b,0.9972
ovt:4050ddaf-85f4-492b-84d4-0566421ab6f9,,http://www.booker.co.uk,Booker Birkenhead,open,"Union St, New Chester Rd",Birkenhead,,,North West,CH42 3TL,GB,53.37874461,-3.01302866,Europe/London,Booker,,01516452193,England,E12000002,North West,E08000015,Wirral,E02001493,Wirral 027,E01007293,Wirral 027C,overture,postcodes.io,4050ddaf-85f4-492b-84d4-0566421ab6f9,0.9710
ovt:055961fa-981e-4153-a8a7-a43cf82b556d,,http://www.booker.co.uk,Booker Chelmsford,open,6 Hanbury Road,Chelmsford,Essex,,East of England,CM1 3AE,GB,51.7256005,0.44706271,Europe/London,Booker,,01245251301,England,E12000006,East of England,E07000070,Chelmsford,E02004493,Chelmsford 009,E01033138,Chelmsford 009F,overture,postcodes.io,055961fa-981e-4153-a8a7-a43cf82b556d,0.9944
ovt:814339ae-7c68-4eac-9db8-998fe29e9736,,https://www.booker.co.uk,Booker North Weald-Epping,open,"North Weald Industrial Estate, Hurricane Way",Epping,Essex,,East of England,CM16 6AA,GB,51.71393867803,0.15653847448275,Europe/London,Booker,,01992524121,England,E12000006,East of England,E07000072,Epping Forest,E02004527,Epping Forest 001,E01021799,Epping Forest 001E,overture,postcodes.io,814339ae-7c68-4eac-9db8-998fe29e9736,0.9991
ovt:b021d399-692d-4036-8972-c3c55fff841e,,https://www.booker.co.uk/?utm_source=Listings&utm_medium=Local&utm_campaign=Yext,Booker Clacton,open,"Oakwood Bus, Unit 1A Stephenson Rd W",Clacton-on-Sea,Essex,,East of England,CO15 4TL,GB,51.81917886,1.16288578,Europe/London,Booker,,01255421123,England,E12000006,East of England,E07000076,Tendring,E02004582,Tendring 010,E01021984,Tendring 010A,overture,postcodes.io,b021d399-692d-4036-8972-c3c55fff841e,0.9941
ovt:f4ae364a-0b86-48f1-9b99-742937d0b913,,https://www.booker.co.uk,Booker Colchester,open,193 Gosbecks Road,Colchester,Essex,,East of England,CO2 9JU,GB,51.86700228,0.86975749,Europe/London,Booker,,01206549054,England,E12000006,East of England,E07000071,Colchester,E02004520,Colchester 015,E01021715,Colchester 015E,overture,postcodes.io+reverse,f4ae364a-0b86-48f1-9b99-742937d0b913,0.9969
ovt:ce00f6fe-d2ef-498e-bc26-5c4b7f548514,,https://www.booker.co.uk/?utm_source=Listings&utm_medium=Local&utm_campaign=Yext,Booker Croydon,open,68 Purley Way,Croydon,,,London,CR0 3JX,GB,51.38228751,-0.1216341,Europe/London,Booker,,02086895597,England,E12000007,London,E09000008,Croydon,E02000209,Croydon 016,E01001006,Croydon 016A,overture,postcodes.io+reverse,ce00f6fe-d2ef-498e-bc26-5c4b7f548514,0.9891
ovt:7dd987e3-1b5f-45b9-854c-052a6c0434ec,,https://www.booker.co.uk,Booker Broadstairs,open,"pysons road industrial estate, Unit 20 Patricia Way",Broadstairs,Kent,,South East,CT10 2LE,GB,51.35563181,1.41456224,Europe/London,Booker,,01843867997,England,E12000008,South East,E07000114,Thanet,E02005142,Thanet 011,E01024691,Thanet 011E,overture,postcodes.io,7dd987e3-1b5f-45b9-854c-052a6c0434ec,0.9976
ovt:263ab417-d933-4f21-9215-1fa2cf4f8097,,https://www.booker.co.uk/?utm_source=Listings&utm_medium=Local&utm_campaign=Yext,Booker Folkestone,open,,Folkestone,Kent,,South East,CT19 5EY,GB,51.09207737,1.1733888,Europe/London,Booker,,01303253936,England,E12000008,South East,E07000112,Folkestone and Hythe,E02005104,Folkestone and Hythe 003,E01024518,Folkestone and Hythe 003E,overture,postcodes.io,263ab417-d933-4f21-9215-1fa2cf4f8097,0.9937
ovt:e3f6dadd-c57e-479c-b73a-116bd08dbcb6,,http://www.booker.co.uk,Booker Canterbury,open,Broad Oak Rd,Canterbury,Kent,,South East,CT2 7PX,GB,51.29053133,1.0898036,Europe/London,Booker,,01227766101,England,E12000008,South East,E07000106,Canterbury,E02005022,Canterbury 013,E01024101,Canterbury 013C,overture,postcodes.io,e3f6dadd-c57e-479c-b73a-116bd08dbcb6,0.9974
ovt:2c757bfc-a226-4c08-bea2-faae758337c4,,http://www.booker.co.uk,Booker Coventry,open,"Hood Street Industrial Estate, Hood St",Coventry,,,West Midlands,CV1 5PX,GB,52.40881771,-1.49806612,Europe/London,Booker,,02476258672,England,E12000005,West Midlands,E08000026,Coventry,E02001981,Coventry 024,E01009641,Coventry 024F,overture,postcodes.io,2c757bfc-a226-4c08-bea2-faae758337c4,0.9857
ovt:5177b80a-e0b7-44b5-9a6d-67b290eb2a0a,,https://www.booker.co.uk/?utm_source=Listings&utm_medium=Local&utm_campaign=Yext,Booker Rugby,open,4 Somers Road,Rugby,Warwickshire,,West Midlands,CV22 7DE,GB,52.37349463,-1.28281907,Europe/London,Booker,,01788576210,England,E12000005,West Midlands,E07000220,Rugby,E02006497,Rugby 006,E01031168,Rugby 006B,overture,postcodes.io,5177b80a-e0b7-44b5-9a6d-67b290eb2a0a,0.9862
ovt:d57553b0-e3b0-40f4-b74d-5a8b1f015ec7,,http://www.booker.co.uk,Booker Warwick,open,Nelson Lane,Warwick,Warwickshire,,West Midlands,CV34 5JB,GB,52.28933695,-1.5736201,Europe/London,Booker,,01926495111,England,E12000005,West Midlands,E07000222,Warwick,E02006530,Warwick 012,E01031319,Warwick 012E,overture,postcodes.io,d57553b0-e3b0-40f4-b74d-5a8b1f015ec7,0.9994
ovt:1c5a79dc-24f1-415f-befb-8477e340b97b,,https://www.booker.co.uk/?utm_source=Listings&utm_medium=Local&utm_campaign=Yext,Booker Northwich,open,Manchester Rd,Northwich,,,North West,CW9 7NA,GB,53.2654166,-2.48524011,Europe/London,Booker,,0160643221,England,E12000002,North West,E06000050,Cheshire West and Chester,E02003879,Cheshire West and Chester 018,E01018715,Cheshire West and Chester 018C,overture,postcodes.io,1c5a79dc-24f1-415f-befb-8477e340b97b,0.9938
ovt:398477ac-d564-4243-b89e-2e96d6593aab,,https://www.booker.co.uk,Booker Crayford,open,Kennet Rd,Dartford,,,London,DA1 4QN,GB,51.46027745,0.19158666,Europe/London,Booker,,01322553434,England,E12000007,London,E09000004,Bexley,E02000083,Bexley 019,E01000374,Bexley 019A,overture,postcodes.io,398477ac-d564-4243-b89e-2e96d6593aab,0.9918
ovt:a8a7ab2f-d73b-4ac5-be37-677275cd844e,,http://www.booker.co.uk,Booker Dundee,open,"Dunsinane Industrial Estate, Dunsinane Ave",Dundee,,,Scotland,DD2 3QF,GB,56.48085455,-3.00493819,Europe/London,Booker,,01382815518,Scotland,S92000003,Scotland,S12000042,Dundee City,S02002872,Fairmuir,S01015504,Fairmuir - 04,overture,postcodes.io,a8a7ab2f-d73b-4ac5-be37-677275cd844e,0.9329
ovt:3fc16500-4c9f-41af-81c0-5f8bfc11c823,,http://www.booker.co.uk,Booker Derby,open,Alfreton Road,Derby,,,East Midlands,DE21 4AP,GB,52.94897523,-1.46099649,Europe/London,Booker,,01332833833,England,E12000004,East Midlands,E06000015,Derby,E02002799,Derby 004,E01013530,Derby 004A,overture,postcodes.io,3fc16500-4c9f-41af-81c0-5f8bfc11c823,0.9946
ovt:4a7cff2c-a531-4154-b831-ff0146cccec8,,http://www.booker.co.uk,Booker Darlington,open,Banks Rd,Darlington,,,North East,DL1 1YB,GB,54.52807563,-1.52483686,Europe/London,Booker,,01325468438,England,E12000001,North East,E06000005,Darlington,E02002567,Darlington 009,E01012342,Darlington 009C,overture,postcodes.io,4a7cff2c-a531-4154-b831-ff0146cccec8,0.9780
ovt:b9bc3460-36e3-4b5d-a505-846ccbf72674,,https://www.booker.co.uk/?utm_source=Listings&utm_medium=Local&utm_campaign=Yext,Booker Weymouth,open,10 Cumberland Drive,Weymouth,,,South West,DT4 9TB,GB,50.61192595,-2.48647958,Europe/London,Booker,,01305774505,England,E12000009,South West,E06000059,Dorset,E02004280,Dorset 037,E01020516,Dorset 037E,overture,postcodes.io,b9bc3460-36e3-4b5d-a505-846ccbf72674,0.9978
ovt:961e65f6-6241-47b6-979d-3c9ca18188c0,,https://www.booker.co.uk/?utm_source=Listings&utm_medium=Local&utm_campaign=Yext,Booker Beckton,open,"London Industrial Park, Hillcroft Rd",London,,,London,E6 6LW,GB,51.51862371,0.06808508,Europe/London,Booker,,02075113931,England,E12000007,London,E09000025,Newham,E02000746,Newham 033,E01034205,Newham 033E,overture,postcodes.io,961e65f6-6241-47b6-979d-3c9ca18188c0,0.9913
ovt:5c1737db-f7d8-4019-811f-fec368a3a9d1,,https://www.booker.co.uk/?utm_source=Listings&utm_medium=Local&utm_campaign=Yext,Booker A1 Edinburgh,open,55 Eastfield,Edinburgh,,,Scotland,EH15 2PJ,GB,55.9466115,-3.07918844,Europe/London,Booker,,01316695656,Scotland,S92000003,Scotland,S12000036,City of Edinburgh,S02002737,Joppa,S01014767,Joppa - 01,overture,postcodes.io,5c1737db-f7d8-4019-811f-fec368a3a9d1,0.9980
ovt:03feda72-3622-45b7-af32-1fc7dac105a2,,https://www.booker.co.uk/?utm_source=Listings&utm_medium=Local&utm_campaign=Yext,Makro Enfield,open,57 Stockingswater Ln,Enfield,,,London,EN3 7XA,GB,51.654542,-0.02429547,Europe/London,Makro,,02084436221,England,E12000007,London,E09000010,Enfield,E02000290,Enfield 014,E01001437,Enfield 014A,overture,postcodes.io,03feda72-3622-45b7-af32-1fc7dac105a2,0.9983
ovt:5efea1d3-5a60-462a-82e8-0b92c35a77b7,,https://www.booker.co.uk/?utm_source=Listings&utm_medium=Local&utm_campaign=Yext,Makro Exeter,open,Yeoford Way,Exeter,Devon,,South West,EX2 8LB,GB,50.6961849,-3.51269419,Europe/London,Makro,,01392823443,England,E12000009,South West,E07000041,Exeter,E02004162,Exeter 014,E01019970,Exeter 014C,overture,postcodes.io,5efea1d3-5a60-462a-82e8-0b92c35a77b7,0.9973
ovt:85353abb-1f5d-4317-adde-2af9008df003,,https://www.booker.co.uk/?utm_source=Listings&utm_medium=Local&utm_campaign=Yext,Booker Barnstaple,open,"Pottington Trading Estate, Upcott Ave",Barnstaple,Devon,,South West,EX31 1HN,GB,51.08681122,-4.0806032,Europe/London,Booker,,01271342673,England,E12000009,South West,E07000043,North Devon,E02004181,North Devon 007,E01020132,North Devon 007A,overture,postcodes.io,85353abb-1f5d-4317-adde-2af9008df003,0.9834
ovt:fa24a5d1-4d76-40ee-852a-58896e6569b0,,https://www.booker.co.uk,Booker Falkirk,open,"Middlefield Industrial Estate, Middlefield Rd.",Falkirk,,,Scotland,FK2 9HQ,GB,56.00929557,-3.76697211,Europe/London,Booker,,01324629525,Scotland,S92000003,Scotland,S12000014,Falkirk,S02003003,Falkirk - Bainsford and Langlees,S01016226,Falkirk - Bainsford and Langlees - 02,overture,postcodes.io,fa24a5d1-4d76-40ee-852a-58896e6569b0,0.9994
ovt:60017810-bb81-434e-bde6-a7e6ae7ed85c,,https://www.booker.co.uk/?utm_source=Listings&utm_medium=Local&utm_campaign=Yext,Booker Stirling,open,Whitehouse Rd,Stirling,,,Scotland,FK7 7SP,GB,56.11270697,-3.91763715,Europe/London,Booker,,01786451109,Scotland,S92000003,Scotland,S12000030,Stirling,S02003779,Braehead,S01020437,Braehead - 03,overture,postcodes.io,60017810-bb81-434e-bde6-a7e6ae7ed85c,0.9983
ovt:71abc70c-3139-4f8d-add6-f4b084313537,,https://www.booker.co.uk/?utm_source=Listings&utm_medium=Local&utm_campaign=Yext,Booker Blackpool,open,Brunel Way,Blackpool,,,North West,FY4 5ES,GB,53.79347318,-2.99973298,Europe/London,Booker,,01253791989,England,E12000002,North West,E06000009,Blackpool,E02002650,Blackpool 018,E01012732,Blackpool 018E,overture,postcodes.io,71abc70c-3139-4f8d-add6-f4b084313537,0.9787
ovt:4ced930e-4c63-4c1c-ae11-545ea383b01d,,http://www.booker.co.uk,Booker Glasgow,open,154 Craighall Rd,Glasgow,,,Scotland,G4 9TD,GB,55.87676113,-4.25324921,Europe/London,Booker,,01413530350,Scotland,S92000003,Scotland,S12000049,Glasgow City,S02003224,Cowlairs and Port Dundas,S01017370,Cowlairs and Port Dundas - 01,overture,postcodes.io,4ced930e-4c63-4c1c-ae11-545ea383b01d,0.9995
ovt:d41ff184-d895-4faf-aa2b-b10ac861a8aa,,https://www.booker.co.uk/?utm_source=Listings&utm_medium=Local&utm_campaign=Yext,Booker Gloucester,open,Barnett Way,Gloucester,Gloucestershire,,South West,GL4 3RT,GB,51.86479333,-2.20436512,Europe/London,Booker,,01452614222,England,E12000009,South West,E07000081,Gloucester,E02004642,Gloucester 007,E01022287,Gloucester 007G,overture,postcodes.io,d41ff184-d895-4faf-aa2b-b10ac861a8aa,0.9987
ovt:507f88d2-9c87-46cc-82cb-9516e6fda469,,https://www.booker.co.uk/?utm_source=Listings&utm_medium=Local&utm_campaign=Yext,Booker Cheltenham,open,"Unit 6, Kingsditch Retail park",Cheltenham,Gloucestershire,,South West,GL51 9PX,GB,51.91683211,-2.09497926,Europe/London,Booker,,01242516166,England,E12000009,South West,E07000078,Cheltenham,E02004600,Cheltenham 001,E01022165,Cheltenham 001C,overture,postcodes.io,507f88d2-9c87-46cc-82cb-9516e6fda469,0.9888
ovt:fbfff151-01a3-4ff6-a01a-10e9c2fd3b21,,https://www.booker.co.uk,Booker Huddersfield,open,"Red Doles Ln, Leeds Rd",Huddersfield,,,Yorkshire and The Humber,HD2 1YF,GB,53.65889999,-1.7689252,Europe/London,Booker,,01484535225,England,E12000003,Yorkshire and The Humber,E08000034,Kirklees,E02002299,Kirklees 029,E01011107,Kirklees 029D,overture,postcodes.io,fbfff151-01a3-4ff6-a01a-10e9c2fd3b21,0.9819
ovt:77c9c8d8-9fe2-4a78-a258-902d055a78a0,,https://www.booker.co.uk/branch-locator/huddersfield/red-doles-lane,Booker Huddersfield,open,"Red Doles Lane, Leeds Road",Huddersfield,,,Yorkshire and The Humber,HD2 1YF,GB,53.6589979,-1.7683606,Europe/London,Booker,,,England,E12000003,Yorkshire and The Humber,E08000034,Kirklees,E02002299,Kirklees 029,E01011107,Kirklees 029D,overture,postcodes.io,77c9c8d8-9fe2-4a78-a258-902d055a78a0,0.4000
ovt:17891461-73bf-4fb0-99ea-573e61e62278,,https://www.booker.co.uk/?utm_source=Listings&utm_medium=Local&utm_campaign=Yext,Booker Harrogate,open,Ripon Way,Harrogate,,,Yorkshire and The Humber,HG1 2BX,GB,54.00445472,-1.55101206,Europe/London,Booker,,01423564083,England,E12000003,Yorkshire and The Humber,E06000065,North Yorkshire,E02005770,Harrogate 010,E01027690,Harrogate 010D,overture,postcodes.io,17891461-73bf-4fb0-99ea-573e61e62278,0.9820
ovt:9ff28868-def3-4d06-9595-18530565092e,,https://www.booker.co.uk/?utm_source=Listings&utm_medium=Local&utm_campaign=Yext,Booker High Wycombe,open,"Cressex Business Park, Stirling Rd",High Wycombe,,,South East,HP12 3ST,GB,51.62130563,-0.78076123,Europe/London,Booker,,01494443573,England,E12000008,South East,E06000060,Buckinghamshire,E02003710,Buckinghamshire 049,E01017836,Buckinghamshire 049A,overture,postcodes.io,9ff28868-def3-4d06-9595-18530565092e,0.9861
ovt:0fede292-3e67-4f6b-a77a-7cb965e26ee5,,https://www.booker.co.uk/?utm_source=Listings&utm_medium=Local&utm_campaign=Yext,Booker Hereford,open,"Centurion Way, Roman Rd",Hereford,,,West Midlands,HR1 1HU,GB,52.07370147,-2.7069352,Europe/London,Booker,,01432352979,England,E12000005,West Midlands,E06000019,"Herefordshire, County of",E02002914,Herefordshire 010,E01014084,Herefordshire 010B,overture,postcodes.io,0fede292-3e67-4f6b-a77a-7cb965e26ee5,0.9949
ovt:0185c537-8977-4ea2-b1df-fec2c98b2d72,,https://www.booker.co.uk/?utm_source=Listings&utm_medium=Local&utm_campaign=Yext,Booker Hull,open,"The Junction, Clive Sullivan Way",Hull,,,Yorkshire and The Humber,HU3 4SA,GB,53.72551124,-0.38366528,Europe/London,Booker,,01482943158,England,E12000003,Yorkshire and The Humber,E06000010,"Kingston upon Hull, City of",E02002681,Kingston upon Hull 030,E01012889,Kingston upon Hull 030B,overture,postcodes.io,0185c537-8977-4ea2-b1df-fec2c98b2d72,0.9991
ovt:ef4bbf83-77d7-4af1-94df-3e77d8cd5940,,https://www.booker.co.uk/?utm_source=Listings&utm_medium=Local&utm_campaign=Yext,Makro Hull,open,"The Junction, Clive Sullivan Way",Hull,,,Yorkshire and The Humber,HU3 4SA,GB,53.72528831,-0.38367218,Europe/London,Makro,,01482943159,England,E12000003,Yorkshire and The Humber,E06000010,"Kingston upon Hull, City of",E02002681,Kingston upon Hull 030,E01012889,Kingston upon Hull 030B,overture,postcodes.io,ef4bbf83-77d7-4af1-94df-3e77d8cd5940,0.9983
ovt:b242a031-38f8-4711-adb1-faa2f910a137,,http://www.booker.co.uk,Booker Ipswich,open,5 Crompton Road,Ipswich,Suffolk,,East of England,IP2 0UQ,GB,52.06289745,1.1288468,Europe/London,Booker,,01473259059,England,E12000006,East of England,E07000202,Ipswich,E02006254,Ipswich 010,E01029985,Ipswich 010B,overture,postcodes.io,b242a031-38f8-4711-adb1-faa2f910a137,0.9781
ovt:c519cd8d-ffcd-4fe0-b6b8-4388bf79e4e4,,https://www.booker.co.uk/?utm_source=Listings&utm_medium=Local&utm_campaign=Yext,Makro Ipswich,open,17 The Havens,Ipswich,Suffolk,,East of England,IP3 9SJ,GB,52.0288699,1.21917453,Europe/London,Makro,,01473321171,England,E12000006,East of England,E07000202,Ipswich,E02006258,Ipswich 014,E01033127,Ipswich 014E,overture,postcodes.io,c519cd8d-ffcd-4fe0-b6b8-4388bf79e4e4,0.9980
ovt:a5281eee-031d-4211-b333-34d8ea602d24,,https://www.booker.co.uk,Booker Inverness,open,19 Longman Drive,Inverness,,,Scotland,IV1 1SU,GB,57.4923232,-4.21884707,Europe/London,Booker,,01463235291,Scotland,S92000003,Scotland,S12000017,Highland,S02003299,"Inverness Central, Raigmore and Longman",S01017788,"Inverness Central, Raigmore and Longman - 01",overture,postcodes.io,a5281eee-031d-4211-b333-34d8ea602d24,0.9910
ovt:c4c69bdd-8d6f-4462-92d3-bad9ac0f0a14,,http://www.booker.co.uk,Booker Elgin,open,2 Chanonry Road South,Elgin,,,Scotland,IV30 6NG,GB,57.64823682,-3.29038558,Europe/London,Booker,,01343543260,Scotland,S92000003,Scotland,S12000020,Moray,S02003391,"Elgin Central East, Kingsmills, Ashgrove and Pinefield",S01018306,"Elgin Central East, Kingsmills, Ashgrove and Pinefield - 03",overture,postcodes.io,c4c69bdd-8d6f-4462-92d3-bad9ac0f0a14,0.9953
ovt:97756118-9063-41cd-a77b-fdeac2a98e31,,https://www.booker.co.uk/?utm_source=Listings&utm_medium=Local&utm_campaign=Yext,Booker Irvine,open,2 Meadowhead Industrial Estate,Irvine,,,Scotland,KA11 5AU,GB,55.58739345,-4.64653652,Europe/London,Booker,,01294311043,Scotland,S92000003,Scotland,S12000021,North Ayrshire,S02003413,Springside and Rural,S01018426,Springside and Rural - 01,overture,postcodes.io+reverse,97756118-9063-41cd-a77b-fdeac2a98e31,0.9995
ovt:b7232db7-72fa-4b99-acbd-9ce3e3778e97,,https://www.booker.co.uk/?utm_source=Listings&utm_medium=Local&utm_campaign=Yext,Booker Ayr,open,Boundary Rd,Ayr,,,Scotland,KA8 9DJ,GB,55.48195903,-4.60156696,Europe/London,Booker,,01292281721,Scotland,S92000003,Scotland,S12000028,South Ayrshire,S02003675,Heathfield,S01019848,Heathfield - 05,overture,postcodes.io,b7232db7-72fa-4b99-acbd-9ce3e3778e97,0.9808
ovt:598f26f1-3ae3-4af0-8571-ac6553112067,,https://www.booker.co.uk/?utm_source=Listings&utm_medium=Local&utm_campaign=Yext,Booker Byfleet,open,117 Oyster Lane,West Byfleet,Surrey,,South East,KT14 7JW,GB,51.3476676,-0.48145639,Europe/London,Booker,,01932345515,England,E12000008,South East,E07000217,Woking,E02006456,Woking 001,E01030949,Woking 001D,overture,postcodes.io,598f26f1-3ae3-4af0-8571-ac6553112067,0.9850
ovt:d2491b83-b896-4821-8d05-729cf98c4829,,https://www.booker.co.uk/?utm_source=Listings&utm_medium=Local&utm_campaign=Yext,Booker Kirkcaldy,open,"Randolph Industrial Estate, Randolph Rd",Kirkcaldy,,,Scotland,KY1 2YX,GB,56.13818744,-3.12667176,Europe/London,Booker,,01592651968,Scotland,S92000003,Scotland,S12000047,Fife,S02003091,Dysart,S01016654,Sinclairtown East,overture,postcodes.io,d2491b83-b896-4821-8d05-729cf98c4829,0.9983
ovt:08204612-483e-4be5-8c4e-c4d384738241,,https://www.booker.co.uk,Booker Liverpool,open,"Pighue Ln, Binns Rd",Liverpool,,,North West,L13 1DH,GB,53.40707819,-2.9231573,Europe/London,Booker,,01512595132,England,E12000002,North West,E08000012,Liverpool,E02001374,Liverpool 028,E01006692,Liverpool 028B,overture,postcodes.io,08204612-483e-4be5-8c4e-c4d384738241,0.9996
ovt:1a2fe0cd-64d6-4a8e-9569-a60437a83633,,http://www.makro.co.uk,Makro Liverpool,open,"Britonwood Trading Estate, Hornhouse Ln",Liverpool,,,North West,L33 7YQ,GB,53.46859112,-2.85717569,Europe/London,Makro,,01515453221,England,E12000002,North West,E08000011,Knowsley,E02001331,Knowsley 005,E01006416,Knowsley 005A,overture,postcodes.io,1a2fe0cd-64d6-4a8e-9569-a60437a83633,0.9915
ovt:285fd8fd-e9ae-4211-9c9e-7ba2604153df,,https://www.booker.co.uk/branch-locator/liverpool/hornhouse-lane,Makro Liverpool,open,"Hornhouse Lane, Britonwood Trading Estate",Liverpool,,,North West,L33 7YQ,GB,53.4701152,-2.8551778,Europe/London,Makro,,,England,E12000002,North West,E08000011,Knowsley,E02001331,Knowsley 005,E01006416,Knowsley 005A,overture,postcodes.io,285fd8fd-e9ae-4211-9c9e-7ba2604153df,0.4000
ovt:ed561afc-a7c1-461a-82a2-ecfe696b61a5,,http://www.booker.co.uk,Booker Barrow,open,"Woods Industrial Estate, Bouthwood Road Sowerby",Barrow-in-Furness,,,North West,LA14 4RB,GB,54.15127602,-3.22553971,Europe/London,Booker,,01229825443,England,E12000002,North West,E06000064,Westmorland and Furness,E02003980,Barrow-in-Furness 004,E01019164,Barrow-in-Furness 004C,overture,postcodes.io,ed561afc-a7c1-461a-82a2-ecfe696b61a5,0.9947
ovt:23acf796-31ad-46cc-b83e-f51aa1a40062,,https://www.booker.co.uk/?utm_source=Listings&utm_medium=Local&utm_campaign=Yext,Makro Leicester,open,"Centurion Way, Meridian Business Park",Leicester,Leicestershire,,East Midlands,LE19 1WG,GB,52.60753164,-1.19296575,Europe/London,Makro,,01162634221,England,E12000004,East Midlands,E07000129,Blaby,E02005336,Blaby 004,E01025669,Blaby 004D,overture,postcodes.io,23acf796-31ad-46cc-b83e-f51aa1a40062,0.9953
ovt:8ce5a5cc-f41d-4dfe-a953-a0b391411fc8,,https://www.booker.co.uk/?utm_source=Listings&utm_medium=Local&utm_campaign=Yext,Booker Leicester,open,"Braunstone Firth Industrial Estate, Murrayfield Rd",Leicester,,,East Midlands,LE3 1UW,GB,52.63235007,-1.20073106,Europe/London,Booker,,01162871300,England,E12000004,East Midlands,E06000016,Leicester,E02002846,Leicester 020,E01013729,Leicester 020A,overture,postcodes.io,8ce5a5cc-f41d-4dfe-a953-a0b391411fc8,0.9733
ovt:dc64fad5-be16-485c-bf7b-8373c8ad1f60,,https://www.booker.co.uk/?utm_source=Listings&utm_medium=Local&utm_campaign=Yext,Booker Wrexham,open,Ruabon Rd,Wrexham,,,Wales,LL13 7RF,GB,53.03790637,-3.00926867,Europe/London,Booker,,01978291665,Wales,W92000004,Wales,W06000006,Wrexham,W02000088,Wrexham 011,W01000402,Wrexham 011D,overture,postcodes.io,dc64fad5-be16-485c-bf7b-8373c8ad1f60,0.8826
ovt:b0cb4d57-0b6a-4af7-88c2-0104fad6dc1d,,http://www.booker.co.uk,Booker Llandudno,open,"Tre Marl Industrial Estate, Ffordd Maelgwyn",Llandudno Junction,,,Wales,LL31 9PL,GB,53.2806354,-3.79689229,Europe/London,Booker,,01492584165,Wales,W92000004,Wales,W06000003,Conwy,W02000037,Conwy 011,W01000177,Conwy 011E,overture,postcodes.io,b0cb4d57-0b6a-4af7-88c2-0104fad6dc1d,0.8012
ovt:b3c624da-f713-48ee-9929-b3d20a497214,,https://www.booker.co.uk/branch-locator/llandudno-junction/tremarl-industrial-estate,Booker Llandudno,open,"Tremarl Industrial Estate, Ffordd Maelgwyn",Llandudno Junction,,,Wales,LL31 9PL,GB,53.280737996321584,-3.795570829447752,Europe/London,Booker,,,Wales,W92000004,Wales,W06000003,Conwy,W02000037,Conwy 011,W01000177,Conwy 011E,overture,postcodes.io,b3c624da-f713-48ee-9929-b3d20a497214,0.4000
ovt:b77a3086-e9dd-41a9-b860-bfcbce05060b,,http://www.booker.co.uk,Booker Lincoln,open,157 Sadler Road,Lincoln,Lincolnshire,,East Midlands,LN6 3RS,GB,53.20456302,-0.61087534,Europe/London,Booker,,01522686620,England,E12000004,East Midlands,E07000138,Lincoln,E02005450,Lincoln 009,E01026163,Lincoln 009F,overture,postcodes.io,b77a3086-e9dd-41a9-b860-bfcbce05060b,0.9951
ovt:73fd4ee2-9cc8-407d-a3c3-f05a2f1599fb,,https://www.booker.co.uk/?utm_source=Listings&utm_medium=Local&utm_campaign=Yext,Booker Leeds,open,Royds Ln,Leeds,,,Yorkshire and The Humber,LS12 6HU,GB,53.77868096,-1.59258309,Europe/London,Booker,,01133874221,England,E12000003,Yorkshire and The Humber,E08000035,Leeds,E02002412,Leeds 083,E01011734,Leeds 083A,overture,postcodes.io,73fd4ee2-9cc8-407d-a3c3-f05a2f1599fb,0.9922
ovt:dc8e8944-ae52-4f82-b2c1-8fb13a9b7e29,,https://www.booker.co.uk/?utm_source=Listings&utm_medium=Local&utm_campaign=Yext,Booker Luton,open,"Sundon Park Mot Centre, 35 Camford Way",Luton,,,East of England,LU3 3AN,GB,51.9229521,-0.47558572,Europe/London,Booker,,01582490537,England,E12000006,East of England,E06000032,Luton,E02003259,Luton 002,E01015804,Luton 002C,overture,postcodes.io,dc8e8944-ae52-4f82-b2c1-8fb13a9b7e29,0.8325
ovt:f866195c-84de-4a31-950e-ae600cb06d6e,,https://www.booker.co.uk/branch-locator/luton/camford-way,Booker Luton,open,"Camford Way, Sundon Park Road",Luton,,,East of England,LU3 3AN,GB,51.9229507,-0.4758235,Europe/London,Booker,,,England,E12000006,East of England,E06000032,Luton,E02003259,Luton 002,E01015804,Luton 002C,overture,postcodes.io,f866195c-84de-4a31-950e-ae600cb06d6e,0.4000
ovt:abc370a1-62bf-4de2-8e9b-81731ff4d2dc,,https://www.booker.co.uk/branch-locator/manchester/lawton-street,Booker Gorton (Manchester),open,"Lawton Street, Cornwall Street",Manchester,,,North West,M11 2NR,GB,53.47292876082484,-2.1732349526918493,Europe/London,Booker,,,England,E12000002,North West,E08000003,Manchester,E02001061,Manchester 017,E01034113,Manchester 017I,overture,postcodes.io,abc370a1-62bf-4de2-8e9b-81731ff4d2dc,0.4000
ovt:9b66edde-ae01-4864-b1fd-cdc79cd4cb83,,https://www.booker.co.uk/?utm_source=Listings&utm_medium=Local&utm_campaign=Yext,BookerGorton(Manchester),open,"Lawton Street, Cornwall Street",Manchester,,,North West,M11 2NR,GB,53.469672,-2.173269,Europe/London,Booker,,01612237733,England,E12000002,North West,E08000003,Manchester,E02001061,Manchester 017,E01034113,Manchester 017I,overture,postcodes.io,9b66edde-ae01-4864-b1fd-cdc79cd4cb83,0.9961
ovt:1fedab07-0138-4629-a4d0-35b0d0fbe502,,https://www.booker.co.uk/?utm_source=Listings&utm_medium=Local&utm_campaign=Yext,Booker Middleton,open,"Stakehill Industrial Estate, Touchet Hall Rd",Oldham,,,North West,M24 2SJ,GB,53.5652285,-2.16374742,Europe/London,Booker,,01616532363,England,E12000002,North West,E08000005,Rochdale,E02001152,Rochdale 021,E01005543,Rochdale 021F,overture,postcodes.io,1fedab07-0138-4629-a4d0-35b0d0fbe502,0.9997
ovt:c5ddda1c-7856-4e51-adce-9eaa2ad054a1,,https://www.booker.co.uk/?utm_source=Listings&utm_medium=Local&utm_campaign=Yext,Makro Manchester,open,Liverpool Rd,Manchester,,,North West,M30 7RT,GB,53.4631704,-2.39468538,Europe/London,Makro,,01617852217,England,E12000002,North West,E08000006,Salford,E02001185,Salford 029,E01005640,Salford 029B,overture,postcodes.io,c5ddda1c-7856-4e51-adce-9eaa2ad054a1,0.9988
ovt:c381205a-4c89-42da-939d-278c99740813,,https://www.booker.co.uk,Booker Medway,open,5 Laker Road,Rochester,Kent,,South East,ME1 3QZ,GB,51.35142778,0.50134074,Europe/London,Booker,,01634684141,England,E12000008,South East,E07000115,Tonbridge and Malling,E02005149,Tonbridge and Malling 001,E01035003,Tonbridge and Malling 001H,overture,postcodes.io+reverse,c381205a-4c89-42da-939d-278c99740813,0.9988
ovt:6f846696-a3e5-4b40-9f2d-78e932bbcaf3,,https://www.booker.co.uk/?utm_source=Listings&utm_medium=Local&utm_campaign=Yext,Booker Bedford,open,Edison Rd,Bedford,,,East of England,MK41 0HU,GB,52.14865392,-0.41993286,Europe/London,Booker,,01234353243,England,E12000006,East of England,E06000055,Bedford,E02003622,Bedford 007,E01017490,Bedford 007C,overture,postcodes.io,6f846696-a3e5-4b40-9f2d-78e932bbcaf3,0.9996
ovt:54e871d4-b332-4ff8-aa64-015da90642cc,,https://www.booker.co.uk/?utm_source=Listings&utm_medium=Local&utm_campaign=Yext,Booker Hamilton,open,71 Bothwell Road,Hamilton,,,Scotland,ML3 0SD,GB,55.78872563,-4.05381696,Europe/London,Booker,,01698282666,Scotland,S92000003,Scotland,S12000029,South Lanarkshire,S02003727,Whitehill,S01020145,Whitehill - 05,overture,postcodes.io,54e871d4-b332-4ff8-aa64-015da90642cc,0.9998
ovt:ea4bdc9c-d99a-4c1a-b777-4a9d8f32e29c,,https://www.booker.co.uk/?utm_source=Listings&utm_medium=Local&utm_campaign=Yext,Booker Tottenham,open,Queen St,London,,,London,N17 8HZ,GB,51.60793741,-0.07682515,Europe/London,Booker,,02088084240,England,E12000007,London,E09000014,Haringey,E02000402,Haringey 006,E01002092,Haringey 006B,overture,postcodes.io,ea4bdc9c-d99a-4c1a-b777-4a9d8f32e29c,0.8471
ovt:b9564b99-203d-4499-875c-9d91370c2207,,https://www.booker.co.uk,Booker St Pancras,open,106 Camley Street,London,,,London,N1C 4PF,GB,51.5387708,-0.13061382,Europe/London,Booker,,02073872585,England,E12000007,London,E09000007,Camden,E02000184,Camden 019,E01000958,Camden 019D,overture,postcodes.io,b9564b99-203d-4499-875c-9d91370c2207,0.9992
ovt:58157ded-0112-4948-adaf-30190817e2cc,,http://www.booker.co.uk,Booker Gateshead,open,First Ave,Gateshead,,,North East,NE11 0RH,GB,54.94317688,-1.61730896,Europe/London,Booker,,01914821114,England,E12000001,North East,E08000037,Gateshead,E02001688,Gateshead 007,E01008259,Gateshead 007D,overture,postcodes.io,58157ded-0112-4948-adaf-30190817e2cc,0.9993
ovt:c1ee4728-5b61-44a6-8bc8-ec605ee0cc53,,https://www.booker.co.uk/?utm_source=Listings&utm_medium=Local&utm_campaign=Yext,Makro Washington,open,"Wear Industrial Estate, Sedling Rd",Washington,,,North East,NE37 1LX,GB,54.88603691,-1.54021136,Europe/London,Makro,,01914197221,England,E12000001,North East,E08000024,Sunderland,E02001815,Sunderland 025,E01008866,Sunderland 025G,overture,postcodes.io,c1ee4728-5b61-44a6-8bc8-ec605ee0cc53,0.9964
ovt:6a07ca9f-394a-43c2-b8a4-db7c52f60780,,https://www.booker.co.uk/?utm_source=Listings&utm_medium=Local&utm_campaign=Yext,Booker Newcastle,open,Bath St,Newcastle upon Tyne,,,North East,NE6 3PH,GB,54.97474905,-1.54037577,Europe/London,Booker,,01912627421,England,E12000001,North East,E08000021,Newcastle upon Tyne,E02001735,Newcastle upon Tyne 028,E01008429,Newcastle upon Tyne 028D,overture,postcodes.io,6a07ca9f-394a-43c2-b8a4-db7c52f60780,0.9927
ovt:0acc3bb3-e225-4d2a-a9bb-0d982ab46345,,https://www.booker.co.uk,Booker Morpeth,open,Coopies Lane,Morpeth,,,North East,NE61 6JS,GB,55.15989986,-1.66796761,Europe/London,Booker,,01670515334,England,E12000001,North East,E06000057,Northumberland,E02005723,Northumberland 016,E01027452,Northumberland 016A,overture,postcodes.io,0acc3bb3-e225-4d2a-a9bb-0d982ab46345,0.9394
ovt:6f0ca7d5-cfc4-49cc-9ed2-f6dd23040b3d,,https://www.booker.co.uk/?utm_source=Listings&utm_medium=Local&utm_campaign=Yext,Booker Mansfield,open,Hermitage Ln,Mansfield,Nottinghamshire,,East Midlands,NG18 5HB,GB,53.13051075,-1.21881479,Europe/London,Booker,,01623625055,England,E12000004,East Midlands,E07000174,Mansfield,E02005889,Mansfield 010,E01028246,Mansfield 010E,overture,postcodes.io,6f0ca7d5-cfc4-49cc-9ed2-f6dd23040b3d,0.9928
ovt:655c42bf-8a1b-452a-9bcd-391629f05979,,https://www.booker.co.uk,Booker Grantham,open,Gonerby Rd,Grantham,Lincolnshire,,East Midlands,NG31 8HY,GB,52.92375518,-0.65347086,Europe/London,Booker,,01476565313,England,E12000004,East Midlands,E07000141,South Kesteven,E02005479,South Kesteven 004,E01026324,South Kesteven 004E,overture,postcodes.io,655c42bf-8a1b-452a-9bcd-391629f05979,0.9334
ovt:ce8d164d-b602-4459-b6b2-76d912d5146f,,http://www.booker.co.uk,Booker Nottingham,open,The Midway,Nottingham,,,East Midlands,NG7 2TS,GB,52.93214908,-1.18107335,Europe/London,Booker,,01159869678,England,E12000004,East Midlands,E06000018,Nottingham,E02002898,Nottingham 031,E01013928,Nottingham 031G,overture,postcodes.io,ce8d164d-b602-4459-b6b2-76d912d5146f,0.9901
ovt:d3d63116-f5fe-4d8c-af68-29f63c8029aa,,https://www.booker.co.uk/?utm_source=Listings&utm_medium=Local&utm_campaign=Yext,Booker Kettering,open,Bath Rd,Kettering,,,East Midlands,NN16 9ND,GB,52.4090609,-0.71690046,Europe/London,Booker,,01536482950,England,E12000004,East Midlands,E06000061,North Northamptonshire,E02005643,North Northamptonshire 016,E01027083,North Northamptonshire 016C,overture,postcodes.io,d3d63116-f5fe-4d8c-af68-29f63c8029aa,0.9987
ovt:603bf96c-fd7d-4156-aadc-9b13ffd39a7a,,https://www.booker.co.uk/branch-locator/northampton/ravens-way,Booker Northampton,open,"Ravens Way, Crow Lane Industrial Estate",Northampton,,,East Midlands,NN3 9UD,GB,52.2475527,-0.8096802,Europe/London,Booker,,,England,E12000004,East Midlands,E06000062,West Northamptonshire,E02005660,West Northamptonshire 026,E01027140,West Northamptonshire 026A,overture,postcodes.io,603bf96c-fd7d-4156-aadc-9b13ffd39a7a,0.4000
ovt:725f9daa-9c9d-4be8-8fa2-5c6375749898,,https://www.booker.co.uk,Booker Northampton,open,Ravens Way,Northampton,,,East Midlands,NN3 9UD,GB,52.24781252,-0.81394,Europe/London,Booker,,01604787707,England,E12000004,East Midlands,E06000062,West Northamptonshire,E02005660,West Northamptonshire 026,E01027140,West Northamptonshire 026A,overture,postcodes.io,725f9daa-9c9d-4be8-8fa2-5c6375749898,0.9736
ovt:4eb456d8-99e6-4333-9917-0538b106b233,,https://www.booker.co.uk/?utm_source=Listings&utm_medium=Local&utm_campaign=Yext,BookerGroupLtd-HeadOffice,open,Irthlingborough Road,Wellingborough,,,East Midlands,NN8 1LT,GB,52.2983240535,-0.6793642455,Europe/London,Booker,,01933371000,England,E12000004,East Midlands,E06000061,North Northamptonshire,E02005695,North Northamptonshire 030,E01035430,North Northamptonshire 030E,overture,postcodes.io,4eb456d8-99e6-4333-9917-0538b106b233,0.9938
ovt:7d56daff-06a2-47e9-961e-f5db5cddf029,,http://www.booker.co.uk,Booker Cwmbran,open,"Grange Industrial Est, Llanfrechfa Way",Cwmbran,,,Wales,NP44 8HQ,GB,51.64518213,-3.01505066,Europe/London,Booker,,01633484444,Wales,W92000004,Wales,W06000020,Torfaen,W02000332,Torfaen 010,W01001506,Torfaen 010A,overture,postcodes.io,7d56daff-06a2-47e9-961e-f5db5cddf029,0.9955
ovt:0aebe9bc-58d5-4f5a-b0d3-1e717d5e5e62,,http://www.makro.co.uk,Makro Norwich,open,"Broadland Business Park, 54 Thorpe Road",Norwich,Norfolk,,East of England,NR1 1RY,GB,52.63439538,1.37494833,Europe/London,Makro,,01603703121,England,E12000006,East of England,E07000148,Norwich,E02006907,Norwich 014,E01035137,Norwich 014E,overture,postcodes.io,0aebe9bc-58d5-4f5a-b0d3-1e717d5e5e62,0.9985
ovt:2310b5bc-59a8-42a3-b251-fa9814640a0e,,https://www.booker.co.uk/?utm_source=Listings&utm_medium=Local&utm_campaign=Yext,Booker Holt,open,"Country Park Industrial Estate, Hempstead Rd",Holt,Norfolk,,East of England,NR25 6EE,GB,52.90102562,1.10264593,Europe/London,Booker,,01263713529,England,E12000006,East of England,E07000147,North Norfolk,E02005573,North Norfolk 004,E01026743,North Norfolk 004C,overture,postcodes.io,2310b5bc-59a8-42a3-b251-fa9814640a0e,0.9951
ovt:22021092-bb70-468e-9768-f18b64f14392,,https://www.booker.co.uk/?utm_source=Listings&utm_medium=Local&utm_campaign=Yext,Booker Gt Yarmouth,open,"St Nicholas Trading Estate, St Nicholas Rd",Great Yarmouth,Norfolk,,East of England,NR30 1NN,GB,52.61099802,1.7312332,Europe/London,Booker,,01493858603,England,E12000006,East of England,E07000145,Great Yarmouth,E02005542,Great Yarmouth 005,E01026597,Great Yarmouth 005C,overture,postcodes.io,22021092-bb70-468e-9768-f18b64f14392,0.9969
ovt:3f49175e-0e69-4150-94c0-a4f3ee6b3d42,,https://www.booker.co.uk/?utm_source=Listings&utm_medium=Local&utm_campaign=Yext,Booker Lowestoft,open,"Mobbs Way, Gorleston Rd",Lowestoft,Suffolk,,East of England,NR32 3AL,GB,52.48743066,1.71806516,Europe/London,Booker,,01502565168,England,E12000006,East of England,E07000244,East Suffolk,E02006304,East Suffolk 003,E01030267,East Suffolk 003B,overture,postcodes.io,3f49175e-0e69-4150-94c0-a4f3ee6b3d42,0.9798
ovt:fe230cf6-34ae-420f-85bd-904a103ef518,,http://www.booker.co.uk,Booker Norwich,open,"Airport Industrial Estate, Liberator Rd",Norwich,Norfolk,,East of England,NR6 6EU,GB,52.6681318,1.28446365,Europe/London,Booker,,01603429029,England,E12000006,East of England,E07000148,Norwich,E02005584,Norwich 001,E01026797,Norwich 001A,overture,postcodes.io,fe230cf6-34ae-420f-85bd-904a103ef518,0.9870
ovt:a6d31041-fda4-4b8a-bf6c-d03c7fb793b0,,https://www.booker.co.uk/?utm_source=Listings&utm_medium=Local&utm_campaign=Yext,Booker Oxford,open,"Industrial Estate, Osney Mead, Ferry Hinksey Rd",Oxford,Oxfordshire,,South East,OX2 0ES,GB,51.7479098,-1.27481269,Europe/London,Booker,,01865243210,England,E12000008,South East,E07000178,Oxford,E02005948,Oxford 009,E01028549,Oxford 009B,overture,postcodes.io,a6d31041-fda4-4b8a-bf6c-d03c7fb793b0,0.9995
ovt:c4ded664-92ac-4f90-8acd-fa4ed5787f56,,https://www.booker.co.uk/?utm_source=Listings&utm_medium=Local&utm_campaign=Yext,Booker Paisley,open,44 Lacy Street,Paisley,,,Scotland,PA1 1QR,GB,55.84355818,-4.40626364,Europe/London,Booker,,01418897997,Scotland,S92000003,Scotland,S12000038,Renfrewshire,S02003600,Paisley North East,S01019450,Paisley North East - 04,overture,postcodes.io,c4ded664-92ac-4f90-8acd-fa4ed5787f56,0.9778
ovt:d67d2602-57c6-4183-a1b9-586ae0aceba8,,https://www.booker.co.uk/branch-locator/oban/glenshellach-business-park,Booker Oban,open,"Glenshellach Business Park, Glengallon Road",Oban,,,Scotland,PA34 4HG,GB,56.3965299,-5.488066799999999,Europe/London,Booker,,,Scotland,S92000003,Scotland,S12000035,Argyll and Bute,S02002656,Oban South,S01014312,Oban South - 02,overture,postcodes.io,d67d2602-57c6-4183-a1b9-586ae0aceba8,0.4000
ovt:cd5864f8-25e3-41e0-b5b0-165ad5586235,,http://www.booker.co.uk,Booker Oban,open,"Business Park, Glenshellach, Glengallan Rd",Oban,,,Scotland,PA34 4HG,GB,56.39569933,-5.48758662,Europe/London,Booker,,01631565984,Scotland,S92000003,Scotland,S12000035,Argyll and Bute,S02002656,Oban South,S01014312,Oban South - 02,overture,postcodes.io,cd5864f8-25e3-41e0-b5b0-165ad5586235,0.9873
ovt:19a825a5-dbda-4e83-80f8-412d5f9305ed,,http://www.booker.co.uk,Booker Peterborough,open,"Woodston Industrial Estate, Off Morley Way, Shrewsbury Ave",Peterborough,,,East of England,PE2 7BP,GB,52.55467013,-0.26128609,Europe/London,Booker,,01733231941,England,E12000006,East of England,E06000031,Peterborough,E02006877,Peterborough 022,E01015650,Peterborough 022B,overture,postcodes.io,19a825a5-dbda-4e83-80f8-412d5f9305ed,0.9993
ovt:0af4015a-75c8-4d34-a6b0-b5b4cdfec727,,https://www.booker.co.uk/?utm_source=Listings&utm_medium=Local&utm_campaign=Yext,Booker Boston,open,Witham Grn,Boston,Lincolnshire,,East Midlands,PE21 9JR,GB,52.98324606,-0.02896665,Europe/London,Booker,,01205364595,England,E12000004,East Midlands,E07000136,Boston,E02005418,Boston 002,E01026037,Boston 002E,overture,postcodes.io,0af4015a-75c8-4d34-a6b0-b5b4cdfec727,0.9883
ovt:20b39c68-80e8-46a2-9da8-89664f31f549,,https://www.booker.co.uk/?utm_source=Listings&utm_medium=Local&utm_campaign=Yext,Booker Skegness,open,Grantham Dr,Skegness,Lincolnshire,,East Midlands,PE25 3RN,GB,53.14585012,0.3310431,Europe/London,Booker,,01754763034,England,E12000004,East Midlands,E07000137,East Lindsey,E02005437,East Lindsey 014,E01026092,East Lindsey 014A,overture,postcodes.io,20b39c68-80e8-46a2-9da8-89664f31f549,0.9724
ovt:fcdaf679-9513-4da9-8e4e-b4a3f254b650,,https://www.booker.co.uk/?utm_source=Listings&utm_medium=Local&utm_campaign=Yext,Booker Kings Lynn,open,"Hardwick Trading Estate, Hansa Rd",King's Lynn,Norfolk,,East of England,PE30 4JB,GB,52.74273863,0.41085781,Europe/London,Booker,,01553774280,England,E12000006,East of England,E07000146,King's Lynn and West Norfolk,E02005561,King's Lynn and West Norfolk 011,E01026706,King's Lynn and West Norfolk 011F,overture,postcodes.io,fcdaf679-9513-4da9-8e4e-b4a3f254b650,0.9992
ovt:56159d2b-0cfc-44c3-8929-00a45df50880,,https://www.booker.co.uk/?utm_source=Listings&utm_medium=Local&utm_campaign=Yext,Booker Cash & Carry,open,Glover Street,Perth,,,Scotland,PH2 0JD,GB,56.393284898121,-3.4421741181714,Europe/London,Booker,,01738639858,Scotland,S92000003,Scotland,S12000048,Perth and Kinross,S02003552,Viewlands and Craigie,S01019183,Viewlands and Craigie - 02,overture,postcodes.io,56159d2b-0cfc-44c3-8929-00a45df50880,0.9997
ovt:a12a4b24-5781-4f8f-aff6-1077e6db7eef,,http://www.booker.co.uk,Booker St Austell,open,3 Manfield Way,St Austell,,,South West,PL25 3JH,GB,50.3419411,-4.75491954,Europe/London,Booker,,0172672746,England,E12000009,South West,E06000052,Cornwall,E02003961,Cornwall 036,E01019013,Cornwall 036A,overture,postcodes.io,a12a4b24-5781-4f8f-aff6-1077e6db7eef,0.9818
ovt:d9983692-8162-48e6-ac07-e889eb7ac289,,https://www.booker.co.uk/?utm_source=Listings&utm_medium=Local&utm_campaign=Yext,Booker Plymouth,open,25 Burrington Way,Plymouth,,,South West,PL5 3NY,GB,50.40314022,-4.15983332,Europe/London,Booker,,01752708111,England,E12000009,South West,E06000026,Plymouth,E02003132,Plymouth 011,E01015074,Plymouth 011A,overture,postcodes.io+reverse,d9983692-8162-48e6-ac07-e889eb7ac289,0.9988
ovt:375f08ae-0f1e-4139-ad74-7f23a898cbf6,,http://www.booker.co.uk,Booker,open,Spur Road Quarry Lane Industrial Estate,Chichester,West Sussex,,South East,PO19 8PA,GB,50.83165775,-0.75987091,Europe/London,Booker,,01243787971,England,E12000008,South East,E07000225,Chichester,E02006572,Chichester 012,E01031489,Chichester 012A,overture,postcodes.io,375f08ae-0f1e-4139-ad74-7f23a898cbf6,0.9966
ovt:6b4e5b1f-645c-447d-9b0a-5ca85b4848e0,,https://www.booker.co.uk/?utm_source=Listings&utm_medium=Local&utm_campaign=Yext,Booker Portsmouth,open,"Williams Road, Airport Service Rd",Portsmouth,,,South East,PO3 5SP,GB,50.82646907,-1.05719227,Europe/London,Booker,,02392673911,England,E12000008,South East,E06000044,Portsmouth,E02003531,Portsmouth 008,E01017048,Portsmouth 008D,overture,postcodes.io,6b4e5b1f-645c-447d-9b0a-5ca85b4848e0,0.9991
ovt:2e020d09-ec21-4ca2-ad18-cca2ccd59701,,https://www.booker.co.uk,Booker Cowes,open,Three Gates Rd,Cowes,,,South East,PO31 7UP,GB,50.750045,-1.3063057,Europe/London,Booker,,01983296511,England,E12000008,South East,E06000046,Isle of Wight,E02003582,Isle of Wight 002,E01017302,Isle of Wight 002B,overture,postcodes.io,2e020d09-ec21-4ca2-ad18-cca2ccd59701,0.9247
ovt:edf370dd-097d-4960-b51d-ea2bac5a6c96,,https://www.booker.co.uk/?utm_source=Listings&utm_medium=Local&utm_campaign=Yext,Makro Preston,open,Chain Caul Way,Preston,Lancashire,,North West,PR2 2TW,GB,53.76042441,-2.75453807,Europe/London,Makro,,01772766231,England,E12000002,North West,E07000123,Preston,E02005262,Preston 010,E01025288,Preston 010D,overture,postcodes.io,edf370dd-097d-4960-b51d-ea2bac5a6c96,0.9980
ovt:23bab415-6b7d-4bdc-b197-179b8ffb3010,,https://www.booker.co.uk/?utm_source=Listings&utm_medium=Local&utm_campaign=Yext,Makro Reading,open,Craddock Road,Reading,,,South East,RG2 0AH,GB,51.4404723,-0.97077144,Europe/London,Makro,,01189232200,England,E12000008,South East,E06000038,Reading,E02003405,Reading 017,E01016377,Reading 017C,overture,postcodes.io,23bab415-6b7d-4bdc-b197-179b8ffb3010,0.9995
ovt:4680ae29-74f9-4e2f-b343-68656c2f7249,,https://www.booker.co.uk,Booker Basingstoke,open,"Daneshill East Industrial Estate, Bell Rd",Basingstoke,Hampshire,,South East,RG24 8PX,GB,51.27166734,-1.06846924,Europe/London,Booker,,01256323994,England,E12000008,South East,E07000084,Basingstoke and Deane,E02004682,Basingstoke and Deane 008,E01022523,Basingstoke and Deane 008D,overture,postcodes.io,4680ae29-74f9-4e2f-b343-68656c2f7249,0.9862
ovt:a4e5798a-0b0a-430c-b995-d1bd8ec32fd6,,https://www.booker.co.uk/?utm_source=Listings&utm_medium=Local&utm_campaign=Yext,Booker Redhill,open,Salbrook Rd,Redhill,Surrey,,South East,RH1 5DY,GB,51.2005362,-0.16621137,Europe/London,Booker,,01293786180,England,E12000008,South East,E07000211,Reigate and Banstead,E02006389,Reigate and Banstead 015,E01030629,Reigate and Banstead 015B,overture,postcodes.io,a4e5798a-0b0a-430c-b995-d1bd8ec32fd6,0.9952
ovt:d082b5a0-7c04-4dd2-a424-e50d116c771b,,https://www.booker.co.uk,Booker Chesterfield,open,"Burley Close, Off Storforth Ln",Chesterfield,Derbyshire,,East Midlands,S40 2UB,GB,53.21774138,-1.42686526,Europe/London,Booker,,01246275126,England,E12000004,East Midlands,E07000034,Chesterfield,E02004066,Chesterfield 012,E01019548,Chesterfield 012D,overture,postcodes.io,d082b5a0-7c04-4dd2-a424-e50d116c771b,0.9993
ovt:1a3fba27-adc4-4720-aac4-bbe0aed909f6,,https://www.booker.co.uk/?utm_source=Listings&utm_medium=Local&utm_campaign=Yext,Booker Barnsley,open,Twibell St,Barnsley,,,Yorkshire and The Humber,S71 1DN,GB,53.55951589,-1.46890796,Europe/London,Booker,,01226243556,England,E12000003,Yorkshire and The Humber,E08000038,Barnsley,E02001517,Barnsley 009,E01007334,Barnsley 009A,overture,postcodes.io,1a3fba27-adc4-4720-aac4-bbe0aed909f6,0.9982
ovt:0662e97f-196c-4745-ba46-9315d5d00401,,https://www.booker.co.uk/?utm_source=Listings&utm_medium=Local&utm_campaign=Yext,Booker Sheffield,open,Parkway Ave,Sheffield,,,Yorkshire and The Humber,S9 4WD,GB,53.3845702,-1.42977282,Europe/London,Booker,,01142728018,England,E12000003,Yorkshire and The Humber,E08000039,Sheffield,E02001637,Sheffield 027,E01007883,Sheffield 027A,overture,postcodes.io,0662e97f-196c-4745-ba46-9315d5d00401,0.9783
ovt:7235253d-52c2-45a0-a071-b0f01877881a,,https://www.booker.co.uk/?utm_source=Listings&utm_medium=Local&utm_campaign=Yext,Makro Sheffield,open,Parkway Ave,Sheffield,,,Yorkshire and The Humber,S9 4WD,GB,53.38429793,-1.43000549,Europe/London,Makro,,01142893200,England,E12000003,Yorkshire and The Humber,E08000039,Sheffield,E02001637,Sheffield 027,E01007883,Sheffield 027A,overture,postcodes.io,7235253d-52c2-45a0-a071-b0f01877881a,0.9978
ovt:87db685b-1f26-4138-a562-940257d963ce,,https://www.booker.co.uk/?utm_source=Listings&utm_medium=Local&utm_campaign=Yext,Booker Cash & Carry,open,"Upper Forest Way, Swansea Enterprise Park",Swansea,,,Wales,SA6 8PJ,GB,51.666341,-3.909771,Europe/London,Booker,,01792701318,Wales,W92000004,Wales,W06000011,Swansea,W02000177,Swansea 010,W01000794,Swansea 010A,overture,postcodes.io,87db685b-1f26-4138-a562-940257d963ce,0.9332
ovt:747928cd-8f4a-44ea-a936-b1db874846bc,,https://www.booker.co.uk/branch-locator/morriston/upper-forest-way,Booker Swansea,open,"Upper Forest Way, Swansea Enterprise Park",Morriston,,,Wales,SA6 8PJ,GB,51.66372699999999,-3.912552,Europe/London,Booker,,,Wales,W92000004,Wales,W06000011,Swansea,W02000177,Swansea 010,W01000794,Swansea 010A,overture,postcodes.io,747928cd-8f4a-44ea-a936-b1db874846bc,0.4000
ovt:98fe4202-7c67-480e-b599-e40d4a48bae4,,https://www.booker.co.uk/?utm_source=Listings&utm_medium=Local&utm_campaign=Yext,Booker Wholesale | Cash & Carry | Haverfordwest,open,"Withybush Trading Estate, Withybush Road",Haverfordwest,,,Wales,SA62 4BW,GB,51.82758880925,-4.958549856249999,Europe/London,Booker,,01437765296,Wales,W92000004,Wales,W06000009,Pembrokeshire,W02000129,Pembrokeshire 004,W01000611,Pembrokeshire 004C,overture,postcodes.io,98fe4202-7c67-480e-b599-e40d4a48bae4,0.9727
ovt:eadbab60-c985-4f37-88ad-41826981f525,,https://www.booker.co.uk/?utm_source=Listings&utm_medium=Local&utm_campaign=Yext,Makro Charlton,open,"Anchor & Hope Business Park, Anchor and Hope Ln",London,,,London,SE7 7RZ,GB,51.48884892,0.02958324,Europe/London,Makro,,02083128221,England,E12000007,London,E09000011,Greenwich,E02006993,Greenwich 041,E01001666,Greenwich 041G,overture,postcodes.io,eadbab60-c985-4f37-88ad-41826981f525,0.9987
ovt:684e9ae5-ca30-468e-bf16-a9f412391ae5,,https://www.booker.co.uk,Booker Macclesfield,open,"Hurdsfield Estate, Queen's Ave",Macclesfield,,,North West,SK10 2DN,GB,53.26987157,-2.11877309,Europe/London,Booker,,01625422080,England,E12000002,North West,E06000049,Cheshire East,E02003868,Cheshire East 016,E01018629,Cheshire East 016C,overture,postcodes.io,684e9ae5-ca30-468e-bf16-a9f412391ae5,0.9992
ovt:1dde902e-edbe-42b1-b7fa-dbab2c6a88f2,,https://www.booker.co.uk/branch-locator/manchester/stockport-trading-estate,Booker Stockport,open,"Stockport Trading Estate, Yew Street",Manchester,,,North West,SK4 2JZ,GB,53.4065214,-2.1847902,Europe/London,Booker,,,England,E12000002,North West,E08000007,Stockport,E02001197,Stockport 011,E01005853,Stockport 011A,overture,postcodes.io,1dde902e-edbe-42b1-b7fa-dbab2c6a88f2,0.4000
ovt:f545030e-b230-41ab-88fb-99c6ab562f7e,,https://www.booker.co.uk/?utm_source=Listings&utm_medium=Local&utm_campaign=Yext,Booker Stockport,open,"Stockport Trading Estate, Yew St",Stockport,,,North West,SK4 2JZ,GB,53.40626342,-2.18898732,Europe/London,Booker,,01614764618,England,E12000002,North West,E08000007,Stockport,E02001197,Stockport 011,E01005853,Stockport 011A,overture,postcodes.io,f545030e-b230-41ab-88fb-99c6ab562f7e,0.9786
ovt:42efe23d-6ed7-4e71-a974-5985532869c3,,https://www.booker.co.uk/?utm_source=Listings&utm_medium=Local&utm_campaign=Yext,Booker Slough,open,794 Weston Road,Slough,,,South East,SL1 4LN,GB,51.52630341,-0.6381325,Europe/London,Booker,,01753567777,England,E12000008,South East,E06000039,Slough,E02003409,Slough 003,E01016494,Slough 003B,overture,postcodes.io+reverse,42efe23d-6ed7-4e71-a974-5985532869c3,0.9974
ovt:0d4be4cc-42a5-4a90-8e35-1f8d24cec7ab,,https://www.booker.co.uk,Booker Swindon,open,"Elgin Industrial Estate, Elgin Dr",Swindon,,,South West,SN2 8DQ,GB,51.57569981,-1.76646605,Europe/London,Booker,,01793521082,England,E12000009,South West,E06000030,Swindon,E02003221,Swindon 010,E01015509,Swindon 010B,overture,postcodes.io,0d4be4cc-42a5-4a90-8e35-1f8d24cec7ab,0.9981
ovt:0a29dd12-9da8-4885-869a-d25d263bbbeb,,https://www.booker.co.uk/?utm_source=Listings&utm_medium=Local&utm_campaign=Yext,Booker Eastleigh,open,Woodside Rd,Eastleigh,Hampshire,,South East,SO50 4ZS,GB,50.97655489,-1.36931594,Europe/London,Booker,,02380610816,England,E12000008,South East,E07000086,Eastleigh,E02004713,Eastleigh 002,E01022675,Eastleigh 002C,overture,postcodes.io,0a29dd12-9da8-4885-869a-d25d263bbbeb,0.9953
ovt:435ebe66-a9b3-42f5-a490-e1b0712e2dbb,,https://www.booker.co.uk/?utm_source=Listings&utm_medium=Local&utm_campaign=Yext,Booker Salisbury,open,"Unit 5, Harnham Business Park, Off Netherhampton Rd",Salisbury,,,South West,SP2 8PF,GB,51.05996506,-1.82308069,Europe/London,Booker,,01722341509,England,E12000009,South West,E06000054,Wiltshire,E02006672,Wiltshire 057,E01032000,Wiltshire 057A,overture,postcodes.io,435ebe66-a9b3-42f5-a490-e1b0712e2dbb,0.9991
ovt:59a289b7-fc42-4450-b74b-049cb641e1f8,,https://www.booker.co.uk/?utm_source=Listings&utm_medium=Local&utm_campaign=Yext,Booker Sunderland,open,6 Addison Street,Sunderland,,,North East,SR2 8BH,GB,54.90205966,-1.3670514,Europe/London,Booker,,01915671356,England,E12000001,North East,E08000024,Sunderland,E02001806,Sunderland 016,E01008736,Sunderland 016C,overture,postcodes.io+reverse,59a289b7-fc42-4450-b74b-049cb641e1f8,0.9941
ovt:9721f1b9-56ed-4585-9cc0-5fea45188597,,https://www.booker.co.uk/?utm_source=Listings&utm_medium=Local&utm_campaign=Yext,Makro Rayleigh,open,"Rawreth Ln, Rawreth Industrial Est",Rayleigh,Essex,,East of England,SS6 9RL,GB,51.60246348,0.59319935,Europe/London,Makro,,01268642421,England,E12000006,East of England,E07000075,Rochford,E02004568,Rochford 006,E01021920,Rochford 006A,overture,postcodes.io,9721f1b9-56ed-4585-9cc0-5fea45188597,0.9974
ovt:b6c183af-517a-48d6-a1dd-5a3570ca3681,,https://www.booker.co.uk/?utm_source=Listings&utm_medium=Local&utm_campaign=Yext,Booker Stoke,open,Campbell Rd,Stoke-on-Trent,,,West Midlands,ST4 4RU,GB,52.99228675,-2.18439263,Europe/London,Booker,,01782744800,England,E12000005,West Midlands,E06000021,Stoke-on-Trent,E02002973,Stoke-on-Trent 023,E01014343,Stoke-on-Trent 023D,overture,postcodes.io,b6c183af-517a-48d6-a1dd-5a3570ca3681,0.9831
ovt:daf30bd5-512d-40b0-bec2-c54bfe30ecee,,https://www.booker.co.uk/?utm_source=Listings&utm_medium=Local&utm_campaign=Yext,Booker Wimbledon,open,"Endeavour Way, Durnsford Rd",London,,,London,SW19 8LG,GB,51.43365026,-0.19335236,Europe/London,Booker,,02089460701,England,E12000007,London,E09000024,Merton,E02000689,Merton 001,E01034578,Merton 001F,overture,postcodes.io,daf30bd5-512d-40b0-bec2-c54bfe30ecee,0.9950
ovt:f6a9572b-3b95-4a90-a8c1-b6b782deb148,,http://www.booker.co.uk,Booker Shrewsbury,open,"Unit A, sundorne retail park, Arlington Way",Shrewsbury,,,West Midlands,SY1 4YA,GB,52.73722764,-2.71746562,Europe/London,Booker,,01743442258,England,E12000005,West Midlands,E06000051,Shropshire,E02006030,Shropshire 016,E01035059,Shropshire 016E,overture,postcodes.io,f6a9572b-3b95-4a90-a8c1-b6b782deb148,0.9993
ovt:ecd8448c-00ea-4d6a-8e4a-e77b2bbdfe6c,,https://www.booker.co.uk/branch-locator/aberystwyth/glan-yr-afon-industrial-estate,Booker Aberystwyth,open,Glan Yr Afon Industrial Estate,Aberystwyth,,,Wales,SY23 3JQ,GB,52.4025823,-4.0430729,Europe/London,Booker,,,Wales,W92000004,Wales,W06000008,Ceredigion,W02000421,Ceredigion 011,W01000534,Ceredigion 011B,overture,postcodes.io,ecd8448c-00ea-4d6a-8e4a-e77b2bbdfe6c,0.4000
ovt:51a6cff9-4ba1-4305-93ab-719a8f8359d4,,http://www.booker.co.uk,Booker Aberystwyth,open,Glan Yr Afon Industrial Estate,Llanfarian,,,Wales,SY23 3JQ,GB,52.40358722,-4.04177197,Europe/London,Booker,,01970617442,Wales,W92000004,Wales,W06000008,Ceredigion,W02000421,Ceredigion 011,W01000534,Ceredigion 011B,overture,postcodes.io,51a6cff9-4ba1-4305-93ab-719a8f8359d4,0.9992
ovt:a6ca5334-d4a9-4739-b128-f90b36a42a39,,https://www.booker.co.uk/?utm_source=Listings&utm_medium=Local&utm_campaign=Yext,Booker Taunton,open,"Business Park, Brunel Way, Langford Bridge",Taunton,,,South West,TA2 6SF,GB,51.02581389,-3.13666067,Europe/London,Booker,,01823283243,England,E12000009,South West,E06000066,Somerset,E02006106,Somerset West and Taunton 012,E01032652,Somerset West and Taunton 012E,overture,postcodes.io,a6ca5334-d4a9-4739-b128-f90b36a42a39,0.9732
ovt:9e318323-823f-4496-8b24-b302c50f4b57,,https://www.booker.co.uk/?utm_source=Listings&utm_medium=Local&utm_campaign=Yext,Booker Galashiels,open,"Netherdale Industrial Estate, Waverley Pl",Galashiels,,,Scotland,TD1 3EH,GB,55.60925686,-2.78868673,Europe/London,Booker,,01896752836,Scotland,S92000003,Scotland,S12000026,Scottish Borders,S02003627,Galashiels South,S01019605,Galashiels - S - Netherdale and Kingsknowe,overture,postcodes.io,9e318323-823f-4496-8b24-b302c50f4b57,0.9852
ovt:79ad89a9-e90e-4e73-bb23-a807ed7f2e7b,,https://www.booker.co.uk/?utm_source=Listings&utm_medium=Local&utm_campaign=Yext,Booker Telford,open,Stafford Park 13,Telford,,,West Midlands,TF3 3BB,GB,52.67480661,-2.42650824,Europe/London,Booker,,01952290131,England,E12000005,West Midlands,E06000020,Telford and Wrekin,E02002945,Telford and Wrekin 018,E01014192,Telford and Wrekin 018B,overture,postcodes.io,79ad89a9-e90e-4e73-bb23-a807ed7f2e7b,0.9981
ovt:4826cba1-1935-4ebe-b1dc-f83382a9c3b0,,https://www.booker.co.uk,Booker Tunbridge Wells,open,"Kingstanding Way, Kingstanding Business Park",Tunbridge Wells,Kent,,South East,TN2 3UP,GB,51.15891545,0.29471754,Europe/London,Booker,,01892531200,England,E12000008,South East,E07000116,Tunbridge Wells,E02005164,Tunbridge Wells 003,E01024839,Tunbridge Wells 003B,overture,postcodes.io,4826cba1-1935-4ebe-b1dc-f83382a9c3b0,0.9996
ovt:b5e9cf39-4264-4c12-95e7-9e81b6b81e65,,https://www.booker.co.uk,Booker Hastings,open,The Ridge W,St Leonards on Sea,East Sussex,,South East,TN37 7PJ,GB,50.88999802,0.55365298,Europe/London,Booker,,01424751740,England,E12000008,South East,E07000062,Hastings,E02004368,Hastings 001,E01020970,Hastings 001B,overture,postcodes.io,b5e9cf39-4264-4c12-95e7-9e81b6b81e65,0.9856
ovt:4280894e-c314-44c6-804b-14f4ee3c56da,,http://www.booker.co.uk,Booker Newton Abbot,open,11 Pottery Road,Newton Abbot,Devon,,South West,TQ12 3BN,GB,50.54148021,-3.59840209,Europe/London,Booker,,01626362106,England,E12000009,South West,E07000045,Teignbridge,E02004209,Teignbridge 009,E01020252,Teignbridge 009B,overture,postcodes.io+reverse,4280894e-c314-44c6-804b-14f4ee3c56da,0.8470
ovt:7e210d3b-6aa3-441e-95fb-5685947a0e37,,http://www.booker.co.uk,Booker Paignton,open,Borough Rd,Paignton,,,South West,TQ4 7EL,GB,50.42573842,-3.58843618,Europe/London,Booker,,01803529000,England,E12000009,South West,E06000027,Torbay,E02003166,Torbay 013,E01034171,Torbay 013H,overture,postcodes.io,7e210d3b-6aa3-441e-95fb-5685947a0e37,0.9980
ovt:883a09f7-b0c6-4338-a69a-4815894ac331,,https://www.booker.co.uk/?utm_source=Listings&utm_medium=Local&utm_campaign=Yext,Booker Redruth,open,"Industrial Estate, Wilson Way Poole",Redruth,,,South West,TR15 3RH,GB,50.22581019,-5.26218399,Europe/London,Booker,,01209314411,England,E12000009,South West,E06000052,Cornwall,E02003922,Cornwall 051,E01018895,Cornwall 051B,overture,postcodes.io,883a09f7-b0c6-4338-a69a-4815894ac331,0.9830
ovt:f881e003-50c4-4309-9961-819e6a925981,,https://www.booker.co.uk/?utm_source=Listings&utm_medium=Local&utm_campaign=Yext,Booker Hayle,open,16 Trevoarn,Hayle,,,South West,TR27 4HA,GB,50.18361743,-5.42206327,Europe/London,Booker,,01736753071,England,E12000009,South West,E06000052,Cornwall,E02003944,Cornwall 057,E01034869,Cornwall 057G,overture,postcodes.io,f881e003-50c4-4309-9961-819e6a925981,0.9470
ovt:c8a3f3a2-b5ec-4bb1-aa49-33b333395302,,https://www.booker.co.uk/branch-locator/hayle/16-foundry-square,Booker Hayle,open,"16 Foundry Square, Trevoarn",Hayle,,,South West,TR27 4HT,GB,50.1830605,-5.4216468,Europe/London,Booker,,,England,E12000009,South West,E06000052,Cornwall,E02003944,Cornwall 057,E01018983,Cornwall 057D,overture,postcodes.io,c8a3f3a2-b5ec-4bb1-aa49-33b333395302,0.4000
ovt:25704738-0053-4bb7-ae0a-0633669c708e,,https://www.booker.co.uk/?utm_source=Listings&utm_medium=Local&utm_campaign=Yext,Booker Newquay,open,Treloggan Rd,Newquay,,,South West,TR7 2JQ,GB,50.40290059,-5.06303548,Europe/London,Booker,,01637876161,England,E12000009,South West,E06000052,Cornwall,E02003955,Cornwall 021,E01019023,Cornwall 021F,overture,postcodes.io,25704738-0053-4bb7-ae0a-0633669c708e,0.9833
ovt:4130e095-4a13-4096-ab76-0d3d45194a05,,https://www.booker.co.uk/?utm_source=Listings&utm_medium=Local&utm_campaign=Yext,Booker Stockton,open,"Industrial Estate, Pennine Avenue, Portrack Lane North Tees",Stockton-on-Tees,,,North East,TS18 2RJ,GB,54.57630672,-1.27475413,Europe/London,Booker,,01642606404,England,E12000001,North East,E06000004,Stockton-on-Tees,E02002544,Stockton-on-Tees 010,E01012258,Stockton-on-Tees 010C,overture,postcodes.io,4130e095-4a13-4096-ab76-0d3d45194a05,0.8614
ovt:ce31c083-f659-4e88-8069-8ca9a5725be5,,https://www.booker.co.uk/branch-locator/stockton-on-tees/pennine-avenue-portrack-lane,Booker Stockton,open,"Pennine Avenue, Portrack Lane, North Tees Industrial Estate",Stockton-On-Tees,,,North East,TS18 2RJ,GB,54.57471299416569,-1.274462090789985,Europe/London,Booker,,,England,E12000001,North East,E06000004,Stockton-on-Tees,E02002544,Stockton-on-Tees 010,E01012258,Stockton-on-Tees 010C,overture,postcodes.io,ce31c083-f659-4e88-8069-8ca9a5725be5,0.4000
ovt:700aceee-0495-41db-8f44-c1a9d69c9d38,,https://www.booker.co.uk/?utm_source=Listings&utm_medium=Local&utm_campaign=Yext,Makro Teesside,open,Westland Way,Stockton-on-Tees,,,North East,TS18 3TG,GB,54.54769561,-1.32369793,Europe/London,Makro,,01642637880,England,E12000001,North East,E06000004,Stockton-on-Tees,E02007061,Stockton-on-Tees 026,E01035202,Stockton-on-Tees 026D,overture,postcodes.io,700aceee-0495-41db-8f44-c1a9d69c9d38,0.9849
ovt:84389593-0e44-437b-a172-b3fcd42ac17e,,http://www.booker.co.uk,Booker Sunbury,open,112 Windmill Road,Sunbury on Thames,Surrey,,South East,TW16 7HB,GB,51.41375428,-0.43318847,Europe/London,Booker,,01932732200,England,E12000008,South East,E07000213,Spelthorne,E02006408,Spelthorne 006,E01030725,Spelthorne 006E,overture,postcodes.io,84389593-0e44-437b-a172-b3fcd42ac17e,0.9990
ovt:f6e1826f-b1e1-4691-aa34-196e64a15d18,,https://www.booker.co.uk/branch-locator/sunbury/164-168-windmill-road,Booker Sunbury,open,"164-168 Windmill Road, Dolphin Industrial Estate",Sunbury,Surrey,,South East,TW16 7HB,GB,51.4164494,-0.4317822,Europe/London,Booker,,,England,E12000008,South East,E07000213,Spelthorne,E02006408,Spelthorne 006,E01030725,Spelthorne 006E,overture,postcodes.io,f6e1826f-b1e1-4691-aa34-196e64a15d18,0.4000
ovt:f9e77222-8217-458d-b242-ddf0b5e89b75,,https://www.booker.co.uk,Booker Greenford,open,4 Auriol Drive,Greenford,,,London,UB6 8QE,GB,51.54745981,-0.34678671,Europe/London,Booker,,02085788851,England,E12000007,London,E09000009,Ealing,E02000238,Ealing 001,E01001271,Ealing 001B,overture,postcodes.io+reverse,f9e77222-8217-458d-b242-ddf0b5e89b75,0.9855
ovt:9e998257-fe9d-47f3-ac27-b15fa92d44a7,,http://www.booker.co.uk,Booker Acton,open,"Off Curricle St, The Vale",London,,,London,W3 7YA,GB,51.50616655,-0.25460015,Europe/London,Booker,,02087430041,England,E12000007,London,E09000009,Ealing,E02000271,Ealing 034,E01001381,Ealing 034D,overture,postcodes.io,9e998257-fe9d-47f3-ac27-b15fa92d44a7,0.9948
ovt:aa828844-91d0-41e6-abb4-f7eaa2be1f76,,https://www.booker.co.uk/?utm_source=Listings&utm_medium=Local&utm_campaign=Yext,Booker Limited,open,"Yew Tree Trading Estate, Kilbuck Lane",St Helens,,,North West,WA11 9UX,GB,53.473789181774,-2.6502879829448,Europe/London,Booker,,01942712801,England,E12000002,North West,E08000013,St. Helens,E02001410,St. Helens 005,E01006840,St. Helens 005C,overture,postcodes.io,aa828844-91d0-41e6-abb4-f7eaa2be1f76,0.9980
ovt:2035c7d7-f1fb-4e31-b5e9-589baac5a18c,,https://www.booker.co.uk/?utm_source=Listings&utm_medium=Local&utm_campaign=Yext,Booker Watford,open,11 Greycaine Road,Watford,Hertfordshire,,East of England,WD24 7GY,GB,51.6779054,-0.38572501,Europe/London,Booker,,01923243903,England,E12000006,East of England,E07000103,Watford,E02004972,Watford 005,E01023897,Watford 005C,overture,postcodes.io,2035c7d7-f1fb-4e31-b5e9-589baac5a18c,0.9996
ovt:8c91b77d-c68d-4f27-9963-4bb22eab9768,,https://www.booker.co.uk,Booker Castleford,open,California Dr,Castleford,,,Yorkshire and The Humber,WF10 5QH,GB,53.71398299,-1.39630408,Europe/London,Booker,,01977513388,England,E12000003,Yorkshire and The Humber,E08000036,Wakefield,E02002450,Wakefield 013,E01011758,Wakefield 013A,overture,postcodes.io,8c91b77d-c68d-4f27-9963-4bb22eab9768,0.9656
ovt:b1475488-3505-49bb-96c4-e5a1b01580ce,,https://www.booker.co.uk/?utm_source=Listings&utm_medium=Local&utm_campaign=Yext,Booker Wolverhampton,open,Ettingshall Rd,Wolverhampton,,,West Midlands,WV2 2NG,GB,52.56981537,-2.10242896,Europe/London,Booker,,01902496346,England,E12000005,West Midlands,E08000031,Wolverhampton,E02002177,Wolverhampton 029,E01010452,Wolverhampton 029D,overture,postcodes.io,b1475488-3505-49bb-96c4-e5a1b01580ce,0.9887
ovt:ffa8532d-0c40-4349-99c9-f95b463518ad,,https://www.booker.co.uk/?utm_source=Listings&utm_medium=Local&utm_campaign=Yext,Booker York,open,"Industrial Estate, Audax Rd",York,,,Yorkshire and The Humber,YO30 4US,GB,53.99252832,-1.09540799,Europe/London,Booker,,01904691800,England,E12000003,Yorkshire and The Humber,E06000014,York,E02002777,York 006,E01013431,York 006D,overture,postcodes.io,ffa8532d-0c40-4349-99c9-f95b463518ad,0.9997
