store_number,slug,url,location_name,status,address_line1,city,county,state,region,postal_code,country_code,latitude,longitude,time_zone,format,total_building_area_sqft,main_voice_phone_number,state_fips,county_fips,tract_fips,block_fips,cbsa_fips,csa_fips,coord_source,fips_source
35-memorial-pky-e,,https://locations.familydollar.com/al/aliceville/35-memorial-pky-e,Family Dollar,open,35 Memorial Pky E,Aliceville,,Alabama,AL,35442,US,33.1275,-88.1514,America/Chicago,,,205-779-1346,01,01107,01107050401,011070504013017,46220,,ceo,census
214-kirkland-street,,https://locations.familydollar.com/al/abbeville/214-kirkland-street,Family Dollar,open,214 Kirkland Street,Abbeville,,Alabama,AL,36310,US,31.5676,-85.2512,America/Chicago,,,334-223-4498,01,01067,01067030200,010670302003002,20020,222,ceo,census
35360-us-highway-231,,https://locations.familydollar.com/al/ashville/35360-us-highway-231,Family Dollar,open,35360 Us Highway 231,Ashville,,Alabama,AL,35953,US,33.8407,-86.2631,America/Chicago,,,205-208-1376,01,01115,01115040401,011150404014035,13820,142,ceo,census
7198-al-highway-207,,https://locations.familydollar.com/al/anderson/7198-al-highway-207,Family Dollar,open,7198 Al Highway 207,Anderson,,Alabama,AL,35610,US,34.9239,-87.2689,America/Chicago,,,256-802-0131,01,01077,01077011801,010770118013027,22520,250,ceo,census
1718-quintard-ave,,https://locations.familydollar.com/al/anniston/1718-quintard-ave,Family Dollar,open,1718 Quintard Ave,Anniston,,Alabama,AL,36201,US,33.6672,-85.8281,America/Chicago,,,256-954-5664,01,01015,01015000300,010150003001059,11500,,ceo,census
3200-main-st,,https://locations.familydollar.com/al/altoona/3200-main-st,Family Dollar,open,3200 Main St.,Altoona,,Alabama,AL,35952,US,34.029,-86.3202,America/Chicago,,,337-888-8252,01,01055,01055011100,010550111003077,23460,,ceo,fcc
73-n-broadway-street,,https://locations.familydollar.com/al/ashford/73-n-broadway-street,Family Dollar,open,73 N Broadway Street,Ashford,,Alabama,AL,36312,US,31.1779,-85.2384,America/Chicago,,,251-206-5576,01,01069,01069041902,010690419021007,20020,222,ceo,census
25332-straughn-school-road,,https://locations.familydollar.com/al/andalusia/25332-straughn-school-road,Family Dollar,open,25332 Straughn School Road,Andalusia,,Alabama,AL,36421,US,31.3589,-86.4682,America/Chicago,,,251-272-7426,01,01039,01039962000,010399620002001,,,ceo,fcc
315-sand-mountain-dr-e,,https://locations.familydollar.com/al/albertville/315-sand-mountain-dr-e,Family Dollar,open,315 Sand Mountain Dr E,Albertville,,Alabama,AL,35950,US,34.2689,-86.2079,America/Chicago,,,256-907-0681,01,01095,01095030903,010950309031045,10700,290,ceo,census
6201-us-highway-431,,https://locations.familydollar.com/al/alexandria/6201-us-highway-431,Family Dollar,open,6201 Us Highway 431,Alexandria,,Alabama,AL,36250,US,33.7619,-85.8918,America/Chicago,,,256-343-0951,01,01015,01015002504,010150025043027,11500,,ceo,census
500-e-church-st,,https://locations.familydollar.com/al/atmore/500-e-church-st,Family Dollar,open,500 E Church St,Atmore,,Alabama,AL,36502,US,31.0226,-87.4882,America/Chicago,,,251-321-9259,01,01053,01053970700,010539707002032,,,ceo,census
2020-center-point-parkway,,https://locations.familydollar.com/al/center-point/2020-center-point-parkway,Family Dollar,open,2020 Center Point Parkway,Center Point,,Alabama,AL,35215,US,33.6398,-86.6843,America/Chicago,,,659-674-9915,01,01073,01073011804,010730118042022,13820,142,ceo,census
15704-al-highway-216,,https://locations.familydollar.com/al/brookwood/15704-al-highway-216,Family Dollar,open,15704 Al Highway 216,Brookwood,,Alabama,AL,35444,US,33.2549,-87.3289,America/Chicago,,,659-215-5942,01,01125,01125010601,011250106014028,46220,,ceo,census
302-w-pushmataha-st,,https://locations.familydollar.com/al/butler/302-w-pushmataha-st,Family Dollar,open,302 W Pushmataha St,Butler,,Alabama,AL,36904,US,32.0898,-88.2238,America/Chicago,,,205-462-8534,01,01023,01023956800,010239568003002,,,ceo,census
10364-al-hwy-168,,https://locations.familydollar.com/al/boaz/10364-al-hwy-168,Family Dollar,open,10364 Al Hwy 168,Boaz,,Alabama,AL,35957,US,34.1983,-86.1611,America/Chicago,,,256-251-4378,01,01095,01095031200,010950312004039,10700,290,ceo,census
2224-bessemer-rd,,https://locations.familydollar.com/al/birmingham/2224-bessemer-rd,Family Dollar,open,2224 Bessemer Rd 5 Points West Shopping City,Birmingham,,Alabama,AL,35208,US,33.4963,-86.8777,America/Chicago,,,205-598-4176,01,01073,01073003700,010730037002000,13820,142,ceo,census
430-4th-avenue-n,,https://locations.familydollar.com/al/bessemer/430-4th-avenue-n,Family Dollar,open,430 4th Avenue N,Bessemer,,Alabama,AL,35020,US,33.3879,-86.9674,America/Chicago,,,205-920-1627,01,01073,01073010401,010730104013027,13820,142,ceo,census
3949-al-highway-9,,https://locations.familydollar.com/al/cedar-bluff/3949-al-highway-9,Family Dollar,open,3949 Al Highway 9,Cedar Bluff,,Alabama,AL,35959,US,34.2184,-85.6023,America/Chicago,,,256-269-0502,01,01019,01019955701,010199557011060,,,ceo,census
69255-main-street,,https://locations.familydollar.com/al/blountsville/69255-main-street,Family Dollar,open,69255 Main Street,Blountsville,,Alabama,AL,35031,US,34.0846,-86.5911,America/Chicago,,,256-203-6137,01,01009,01009050501,010090505012016,13820,142,ceo,census
50470-al-highway-277,,https://locations.familydollar.com/al/bridgeport/50470-al-highway-277,Family Dollar,open,50470 Al Highway 277,Bridgeport,,Alabama,AL,35740,US,34.9411,-85.727,America/Chicago,,,938-930-1234,01,01071,01071950200,010719502002036,42460,174,ceo,fcc
1355-bessemer-rd,,https://locations.familydollar.com/al/birmingham/1355-bessemer-rd,Family Dollar,open,1355 Bessemer Rd,Birmingham,,Alabama,AL,35208,US,33.4811,-86.8936,America/Chicago,,,659-262-5837,01,01073,01073003802,010730038023047,13820,142,ceo,census
17150-jordan-street,,https://locations.familydollar.com/al/chatom/17150-jordan-street,Family Dollar,open,17150 Jordan Street,Chatom,,Alabama,AL,36518,US,31.4697,-88.2531,America/Chicago,,,334-209-3245,01,01129,01129044000,011290440002004,,,ceo,census
8491-us-hwy-72,,https://locations.familydollar.com/al/cherokee/8491-us-hwy-72,Family Dollar,open,8491 Us Hwy 72,Cherokee,,Alabama,AL,35616,US,34.7537,-87.968,America/Chicago,,,334-245-5660,01,01033,01033021000,010330210003033,22520,250,ceo,fcc
4341-bessemer-super-highway,,https://locations.familydollar.com/al/bessemer/4341-bessemer-super-highway,Family Dollar,open,4341 Bessemer Super Highway,Bessemer,,Alabama,AL,35020,US,33.4337,-86.9383,America/Chicago,,,659-255-7881,01,01073,01073013300,010730133001002,13820,142,ceo,census
2157-carson-rd,,https://locations.familydollar.com/al/birmingham/2157-carson-rd,Family Dollar,open,2157 Carson Rd Queensbury Shp Ctr,Birmingham,,Alabama,AL,35215,US,33.6429,-86.7059,America/Chicago,,,659-674-9911,01,01073,01073011804,010730118042009,13820,142,ceo,census
424-s-craft-hwy,,https://locations.familydollar.com/al/chickasaw/424-s-craft-hwy,Family Dollar,open,424 S Craft Hwy,Chickasaw,,Alabama,AL,36611,US,30.7579,-88.0758,America/Chicago,,,251-301-8306,01,01097,01097005200,010970052002015,33660,380,ceo,census
19535-n-3rd-st,,https://locations.familydollar.com/al/citronelle/19535-n-3rd-st,Family Dollar,open,19535 N 3rd St,Citronelle,,Alabama,AL,36522,US,31.0992,-88.2387,America/Chicago,,,251-317-1116,01,01097,01097006000,010970060003043,33660,380,ceo,census
913-1st-st-sw,,https://locations.familydollar.com/al/childersburg/913-1st-st-sw,Family Dollar,open,913 1st St Sw,Childersburg,,Alabama,AL,35044,US,33.2782,-86.3568,America/Chicago,,,256-346-1751,01,01121,01121011302,011210113021048,45180,142,ceo,census
608-springville-rd,,https://locations.familydollar.com/al/birmingham/608-springville-rd,Family Dollar,open,608 Springville Rd,Birmingham,,Alabama,AL,35215,US,33.6088,-86.6878,America/Chicago,,,659-302-0055,01,01073,01073005908,010730059082038,13820,142,ceo,census
21-head-drive,,https://locations.familydollar.com/al/cleveland/21-head-drive,Family Dollar,open,21 Head Drive,Cleveland,,Alabama,AL,35049,US,33.9851,-86.5855,America/Chicago,,,256-445-5469,01,01009,01009050200,010090502002040,13820,142,ceo,census
15322-highway-11-n,,https://locations.familydollar.com/al/coaling/15322-highway-11-n,Family Dollar,open,15322 Highway 11 N.,Coaling,,Alabama,AL,35453,US,33.1706,-87.3414,America/Chicago,,,659-215-5789,01,01125,01125010706,011250107062061,46220,,ceo,census
1181-brundidge-street,,https://locations.familydollar.com/al/clio/1181-brundidge-street,Family Dollar,open,1181 Brundidge Street,Clio,,Alabama,AL,36017,US,31.7087,-85.6118,America/Chicago,,,334-569-5414,01,01005,01005950400,010059504003032,21640,,ceo,census
1632-bankhead-hwy-w,,https://locations.familydollar.com/al/birmingham/1632-bankhead-hwy-w,Family Dollar,open,1632 Bankhead Hwy W.,Birmingham,,Alabama,AL,35214,US,52.4789,-1.9059,Europe/London,,,659-262-5026,,,,,,,ceo,none
13001-cottonwood-rd,,https://locations.familydollar.com/al/cottonwood/13001-cottonwood-rd,Family Dollar,open,13001 Cottonwood Rd,Cottonwood,,Alabama,AL,36320,US,31.0509,-85.3031,America/Chicago,,,334-316-3593,01,01069,01069042000,010690420002019,20020,222,ceo,census
25-county-rd-940,,https://locations.familydollar.com/al/cullman/25-county-rd-940,Family Dollar,open,25 County Rd 940,Cullman,,Alabama,AL,35057,US,34.2094,-87.0522,America/Chicago,,,256-297-7631,01,01043,01043964500,010439645003015,18980,142,ceo,census
521-center-street-n,,https://locations.familydollar.com/al/birmingham/521-center-street-n,Family Dollar,open,521 Center Street N,Birmingham,,Alabama,AL,35204,US,33.5117,-86.8358,America/Chicago,,,659-262-5031,01,01073,01073002900,010730029002039,13820,142,ceo,census
10370-us-highway-231,,https://locations.familydollar.com/al/cropwell/10370-us-highway-231,Family Dollar,open,10370 Us Highway 231,Cropwell,,Alabama,AL,35054,US,33.5055,-86.3103,America/Chicago,,,205-480-5814,01,01115,01115040213,011150402132000,13820,142,ceo,fcc
17916-us-highway-280,,https://locations.familydollar.com/al/dadeville/17916-us-highway-280,Family Dollar,open,17916 Us Highway 280,Dadeville,,Alabama,AL,36853,US,32.8371,-85.7647,America/Chicago,,,256-269-1459,01,01123,01123962400,011239624002017,10760,194,ceo,census
3120-26th-street-n,,https://locations.familydollar.com/al/birmingham/3120-26th-street-n,Family Dollar,open,3120 26th Street N,Birmingham,,Alabama,AL,35207,US,33.5534,-86.819,America/Chicago,,,205-421-3515,01,01073,01073000800,010730008001065,13820,142,ceo,census
104-palm-jean-road,,https://locations.familydollar.com/al/dothan/104-palm-jean-road,Family Dollar,open,104 Palm Jean Road,Dothan,,Alabama,AL,36301,US,31.2212,-85.3726,America/Chicago,,,334-316-6746,01,01069,01069041400,010690414002058,20020,222,ceo,census
302-e-jackson-st,,https://locations.familydollar.com/al/demopolis/302-e-jackson-st,Family Dollar,open,302 E Jackson St Demopolis Plaza,Demopolis,,Alabama,AL,36732,US,32.5121,-87.835,America/Chicago,,,334-641-1290,01,01091,01091972901,010919729011055,,,ceo,census
905-moulton-st-w,,https://locations.familydollar.com/al/decatur/905-moulton-st-w,Family Dollar,open,905 Moulton St W,Decatur,,Alabama,AL,35601,US,34.6038,-86.9996,America/Chicago,,,256-274-5613,01,01103,01103000700,011030007001000,19460,290,ceo,census
2003-avenue-f-ensley,,https://locations.familydollar.com/al/ensley/2003-avenue-f-ensley,Family Dollar,open,2003 Avenue F Ensley,Ensley,,Alabama,AL,35218,US,33.5111,-86.8962,America/Chicago,,,205-382-8312,01,01073,01073003400,010730034001046,13820,142,ceo,census
13949-bartow-lake-blvd,,https://locations.familydollar.com/al/duncanville/13949-bartow-lake-blvd,Family Dollar,open,13949 Bartow Lake Blvd,Duncanville,,Alabama,AL,35456,US,33.0894,-87.4583,America/Chicago,,,659-268-1017,01,01125,01125010704,011250107042017,46220,,ceo,census
3124-alemeda-avenue-sw,,https://locations.familydollar.com/al/birmingham/3124-alemeda-avenue-sw,Family Dollar,open,3124 Alemeda Avenue Sw,Birmingham,,Alabama,AL,35221,US,33.4701,-86.8842,America/Chicago,,,659-262-5037,01,01073,01073005701,010730057013028,13820,142,ceo,census
1707-montgomery-hwy,,https://locations.familydollar.com/al/dothan/1707-montgomery-hwy,Family Dollar,open,1707 Montgomery Hwy,Dothan,,Alabama,AL,36303,US,31.2386,-85.4077,America/Chicago,,,334-784-9168,01,01069,01069040400,010690404003000,20020,222,ceo,census
986-s-eufaula-avenue,,https://locations.familydollar.com/al/eufaula/986-s-eufaula-avenue,Family Dollar,open,986 S. Eufaula Avenue,Eufaula,,Alabama,AL,36027,US,31.8805,-85.1472,America/Chicago,,,334-355-6750,01,01005,01005950600,010059506001022,21640,,ceo,census
1061-s-oates-st,,https://locations.familydollar.com/al/dothan/1061-s-oates-st,Family Dollar,open,1061 S Oates St,Dothan,,Alabama,AL,36301,US,31.2104,-85.393,America/Chicago,,,256-666-3956,01,01069,01069041200,010690412002023,20020,222,ceo,census
450-w-front-street,,https://locations.familydollar.com/al/evergreen/450-w-front-street,Family Dollar,open,450 W. Front Street,Evergreen,,Alabama,AL,36401,US,31.4297,-86.9606,America/Chicago,,,251-227-4276,01,01035,01035960500,010359605002019,,,ceo,fcc
313-36th-st,,https://locations.familydollar.com/al/fairfield/313-36th-st,Family Dollar,open,313 36th St,Fairfield,,Alabama,AL,35064,US,33.4997,-86.9098,America/Chicago,,,631-320-5350,01,01073,01073010605,010730106051001,13820,142,ceo,census
5401-1st-ave-n,,https://locations.familydollar.com/al/birmingham/5401-1st-ave-n,Family Dollar,open,5401 1st Ave. N.,Birmingham,,Alabama,AL,35212,US,33.539,-86.753,America/Chicago,,,256-715-5224,01,01073,01073000300,010730003002029,13820,142,ceo,census
1152-5th-st,,https://locations.familydollar.com/al/florala/1152-5th-st,Family Dollar,open,1152 5th St,Florala,,Alabama,AL,36442,US,31.005,-86.3289,America/Chicago,,,251-399-0047,01,01039,01039963000,010399630003046,,,ceo,fcc
11620-highway-20,,https://locations.familydollar.com/al/florence/11620-highway-20,Family Dollar,open,11620 Highway 20,Florence,,Alabama,AL,35633,US,34.8965,-87.8095,America/Chicago,,,256-246-8723,01,01077,01077011402,010770114022015,22520,250,ceo,fcc
200-6th-avenue-south,,https://locations.familydollar.com/al/birmingham/200-6th-avenue-south,Family Dollar,open,200 6th Avenue South,Birmingham,,Alabama,AL,35205,US,33.4952,-86.8267,America/Chicago,,,659-207-1664,01,01073,01073004200,010730042001053,13820,142,ceo,census
761-s-mckenzie-street,,https://locations.familydollar.com/al/foley/761-s-mckenzie-street,Family Dollar,open,761 S Mckenzie Street Irwin Square,Foley,,Alabama,AL,36535,US,30.3972,-87.6827,America/Chicago,,,251-263-6538,01,01003,01003011503,010030115032074,19300,380,ceo,fcc
7730-1st-ave-n,,https://locations.familydollar.com/al/birmingham/7730-1st-ave-n,Family Dollar,open,7730 1st Ave N,Birmingham,,Alabama,AL,35206,US,33.5624,-86.7284,America/Chicago,,,205-396-2114,01,01073,01073001902,010730019023005,13820,142,ceo,census
299-old-fort-rd-west,,https://locations.familydollar.com/al/fort-deposit/299-old-fort-rd-west,Family Dollar,open,299 Old Fort Rd West,Fort Deposit,,Alabama,AL,36032,US,31.9858,-86.5717,America/Chicago,,,334-392-8582,01,01085,01085781200,010857812001023,33860,388,ceo,fcc
253-sweetwater-branch-road,,https://locations.familydollar.com/al/fort-mitchell/253-sweetwater-branch-road,Family Dollar,open,253 Sweetwater Branch Road,Fort Mitchell,,Alabama,AL,36856,US,32.2824,-85.005,America/Chicago,,,334-214-1013,01,01113,01113030904,011130309042002,17980,194,ceo,census
25149-highway-82,,https://locations.familydollar.com/al/gordo/25149-highway-82,Family Dollar,open,25149 Highway 82,Gordo,,Alabama,AL,35466,US,33.3218,-87.9089,America/Chicago,,,205-364-2677,01,01107,01107050000,011070500003008,46220,,ceo,fcc
1225-west-meighan-blvd,,https://locations.familydollar.com/al/gadsden/1225-west-meighan-blvd,Family Dollar,open,1225 West Meighan Blvd Agricola Shopping Center,Gadsden,,Alabama,AL,35901,US,34.0225,-86.0235,America/Chicago,,,470-231-2779,01,01055,01055000800,010550008001033,23460,,ceo,census
715-w-state-highway-106,,https://locations.familydollar.com/al/georgiana/715-w-state-highway-106,Family Dollar,open,715 W State Highway 106,Georgiana,,Alabama,AL,36033,US,31.6491,-86.7556,America/Chicago,,,334-625-6520,01,01013,01013953400,010139534002041,,,ceo,census
12350-us-highway-90,,https://locations.familydollar.com/al/grand-bay/12350-us-highway-90,Family Dollar,open,12350 Us Highway 90,Grand Bay,,Alabama,AL,36541,US,30.4802,-88.3353,America/Chicago,,,251-521-1756,01,01097,01097006600,010970066001002,33660,380,ceo,census
925-dennison-avenue,,https://locations.familydollar.com/al/birmingham/925-dennison-avenue,Family Dollar,open,925 Dennison Avenue Heritage Town Center,Birmingham,,Alabama,AL,35211,US,33.4802,-86.8438,America/Chicago,,,659-268-1402,01,01073,01073005200,010730052001031,13820,142,ceo,fcc
13516-choctaw-ave,,https://locations.familydollar.com/al/gilbertown/13516-choctaw-ave,Family Dollar,open,13516 Choctaw Ave,Gilbertown,,Alabama,AL,36908,US,31.8782,-88.3216,America/Chicago,,,334-245-5603,01,01023,01023956900,010239569004021,,,ceo,census
3530-cathedral-caverns-hwy,,https://locations.familydollar.com/al/grant/3530-cathedral-caverns-hwy,Family Dollar,open,3530 Cathedral Caverns Hwy,Grant,,Alabama,AL,35747,US,34.5019,-86.2607,America/Chicago,,,256-432-7279,01,01095,01095030204,010950302041014,10700,290,ceo,census
1095-tuscaloosa-street,,https://locations.familydollar.com/al/greensboro/1095-tuscaloosa-street,Family Dollar,open,1095 Tuscaloosa Street,Greensboro,,Alabama,AL,36744,US,32.7054,-87.5952,America/Chicago,,,334-218-0304,01,01065,01065040402,010650404022015,46220,,ceo,fcc
3001-12th-ave-n,,https://locations.familydollar.com/al/birmingham/3001-12th-ave-n,Family Dollar,open,3001 12th Ave N,Birmingham,,Alabama,AL,35234,US,33.5334,-86.7999,America/Chicago,,,659-268-0111,01,01073,01073001600,010730016002042,13820,142,ceo,census
184-s-jackson-street,,https://locations.familydollar.com/al/grove-hill/184-s-jackson-street,Family Dollar,open,184 S Jackson Street,Grove Hill,,Alabama,AL,36451,US,31.7037,-87.7764,America/Chicago,,,334-245-8222,01,01025,01025957800,010259578006007,,,ceo,census
217-cedar-street,,https://locations.familydollar.com/al/greenville/217-cedar-street,Family Dollar,open,217 Cedar Street,Greenville,,Alabama,AL,36037,US,31.8308,-86.622,America/Chicago,,,334-245-9216,01,01013,01013952800,010139528001028,,,ceo,census
4369-state-hwy-160,,https://locations.familydollar.com/al/hayden/4369-state-hwy-160,Family Dollar,open,4369 State Hwy 160,Hayden,,Alabama,AL,35079,US,33.8855,-86.766,America/Chicago,,,659-258-9520,01,01009,01009050604,010090506043037,13820,142,ceo,census
149-hayneville-plaza,,https://locations.familydollar.com/al/hayneville/149-hayneville-plaza,Family Dollar,open,149 Hayneville Plaza,Hayneville,,Alabama,AL,36040,US,32.1817,-86.5847,America/Chicago,,,719-657-1376,01,01085,01085780800,010857808002024,33860,388,ceo,fcc
804-cleveland-street-suite-1,,https://locations.familydollar.com/al/headland/804-cleveland-street-suite-1,Family Dollar,open,804 Cleveland Street,Headland,,Alabama,AL,36345,US,31.3355,-85.336,America/Chicago,,,334-625-6501,01,01067,01067030500,010670305003049,20020,222,ceo,census
10113-highway-9,,https://locations.familydollar.com/al/heflin/10113-highway-9,Family Dollar,open,10113 Highway 9,Heflin,,Alabama,AL,36264,US,33.6412,-85.5987,America/Chicago,,,938-526-0648,01,01029,01029959600,010299596003014,,,ceo,fcc
16996-broad-street,,https://locations.familydollar.com/al/henagar/16996-broad-street,Family Dollar,open,16996 Broad Street,Henagar,,Alabama,AL,35978,US,34.6336,-85.7421,America/Chicago,,,938-722-0121,01,01049,01049960200,010499602001028,22840,290,ceo,fcc
3202-lorna-road,,https://locations.familydollar.com/al/hoover/3202-lorna-road,Family Dollar,open,3202 Lorna Road,Hoover,,Alabama,AL,35216,US,33.3972,-86.802,America/Chicago,,,205-578-6011,01,01073,01073012908,010730129083008,13820,142,ceo,fcc
17824-montgomery-hwy,,https://locations.familydollar.com/al/highland-home/17824-montgomery-hwy,Family Dollar,open,17824 Montgomery Hwy,Highland Home,,Alabama,AL,36041,US,31.9449,-86.3146,America/Chicago,,,334-409-1682,01,01041,01041963400,010419634002008,,,ceo,census
731-ross-street,,https://locations.familydollar.com/al/heflin/731-ross-street,Family Dollar,open,731 Ross Street,Heflin,,Alabama,AL,36264,US,33.6474,-85.5876,America/Chicago,,,256-568-0659,01,01029,01029959600,010299596003007,,,ceo,census
9435-irvington-blb-hwy,,https://locations.familydollar.com/al/irvington/9435-irvington-blb-hwy,Family Dollar,open,9435 Irvington Blb Hwy,Irvington,,Alabama,AL,36544,US,30.4951,-88.2338,America/Chicago,,,251-699-1016,01,01097,01097006702,010970067022020,33660,380,ceo,fcc
2715-university-drive-nw,,https://locations.familydollar.com/al/huntsville/2715-university-drive-nw,Family Dollar,open,2715 University Drive Nw,Huntsville,,Alabama,AL,35816,US,34.7357,-86.6087,America/Chicago,,,256-715-4921,01,01089,01089001200,010890012001008,26620,290,ceo,census
19996-us-highway-117,,https://locations.familydollar.com/al/ider/19996-us-highway-117,Family Dollar,open,19996 Us Highway 117,Ider,,Alabama,AL,35981,US,34.6985,-85.6699,America/Chicago,,,256-803-0386,01,01049,01049960102,010499601021034,22840,290,ceo,fcc
1127-college-ave,,https://locations.familydollar.com/al/jackson/1127-college-ave,Family Dollar,open,1127 College Ave,Jackson,,Alabama,AL,36545,US,31.5232,-87.8957,America/Chicago,,,251-744-7792,01,01025,01025957901,010259579012043,,,ceo,census
802-pelham-road-south,,https://locations.familydollar.com/al/jacksonville/802-pelham-road-south,Family Dollar,open,802 Pelham Road South,Jacksonville,,Alabama,AL,36265,US,33.8069,-85.7606,America/Chicago,,,256-365-7779,01,01015,01015002105,010150021052008,11500,,ceo,census
405-mastin-lake-road-nw,,https://locations.familydollar.com/al/huntsville/405-mastin-lake-road-nw,Family Dollar,open,405 Mastin Lake Road Nw,Huntsville,,Alabama,AL,35810,US,34.763,-86.5793,America/Chicago,,,256-801-2308,01,01089,01089000203,010890002033026,26620,290,ceo,census
24586-us-highway-31,,https://locations.familydollar.com/al/jemison/24586-us-highway-31,Family Dollar,open,24586 Us Highway 31,Jemison,,Alabama,AL,35085,US,32.9579,-86.7428,America/Chicago,,,334-245-9204,01,01021,01021060401,010210604011021,13820,142,ceo,census
904-s-lafayette-st,,https://locations.familydollar.com/al/lafayette/904-s-lafayette-st,Family Dollar,open,904 S Lafayette St,Lafayette,,Alabama,AL,36862,US,32.88,-85.4063,America/Chicago,,,334-209-3536,01,01017,01017954002,010179540024013,29300,122,ceo,census
403-n-gilmer-ave,,https://locations.familydollar.com/al/lanett/403-n-gilmer-ave,Family Dollar,open,403 N Gilmer Ave,Lanett,,Alabama,AL,36863,US,32.8698,-85.1869,America/New_York,,,334-203-0281,01,01017,01017954800,010179548002008,29300,122,ceo,fcc
305-s-main-st,,https://locations.familydollar.com/al/linden/305-s-main-st,Family Dollar,open,305 S. Main St.,Linden,,Alabama,AL,36748,US,32.3036,-87.7976,America/Chicago,,,334-212-8988,01,01091,01091973002,010919730023026,,,ceo,census
3407-pulaski-pike-nw,,https://locations.familydollar.com/al/huntsville/3407-pulaski-pike-nw,Family Dollar,open,3407 Pulaski Pike Nw,Huntsville,,Alabama,AL,35810,US,34.7704,-86.6172,America/Chicago,,,256-384-0324,01,01089,01089000503,010890005032000,26620,290,ceo,census
47950-us-78,,https://locations.familydollar.com/al/lincoln/47950-us-78,Family Dollar,open,47950 Us 78,Lincoln,,Alabama,AL,35096,US,33.6039,-86.1148,America/Chicago,,,661-381-5366,01,01121,01121010202,011210102023001,45180,142,ceo,fcc
1307-north-washington-street,,https://locations.familydollar.com/al/livingston/1307-north-washington-street,Family Dollar,open,1307 North Washington Street,Livingston,,Alabama,AL,35470,US,32.6108,-88.1833,America/Chicago,,,205-575-2744,01,01119,01119011301,011190113011008,,,ceo,census
1960-main-street,,https://locations.familydollar.com/al/louisville/1960-main-street,Family Dollar,open,1960 Main Street,Louisville,,Alabama,AL,36048,US,31.7835,-85.5554,America/Chicago,,,334-232-0172,01,01005,01005950300,010059503001018,21640,,ceo,census
1049-s-hickory-street,,https://locations.familydollar.com/al/loxley/1049-s-hickory-street,Family Dollar,open,1049 S Hickory Street,Loxley,,Alabama,AL,36551,US,30.6216,-87.7528,America/Chicago,,,251-571-4752,01,01003,01003010903,010030109031042,19300,380,ceo,census
2512-winchester-pike-nw,,https://locations.familydollar.com/al/huntsville/2512-winchester-pike-nw,Family Dollar,open,2512 Winchester Pike Nw,Huntsville,,Alabama,AL,35810,US,34.7933,-86.599,America/Chicago,,,256-384-0365,01,01089,01089000403,010890004031029,26620,290,ceo,census
822-s-forest-av,,https://locations.familydollar.com/al/luverne/822-s-forest-av,Family Dollar,open,822 S Forest Av,Luverne,,Alabama,AL,36049,US,31.7051,-86.2654,America/Chicago,,,334-409-1992,01,01041,01041963600,010419636003034,,,ceo,fcc
8996-al-highway-22,,https://locations.familydollar.com/al/maplesville/8996-al-highway-22,Family Dollar,open,8996 Al Highway 22,Maplesville,,Alabama,AL,36750,US,32.7828,-86.8732,America/Chicago,,,334-259-5158,01,01021,01021060500,010210605002017,13820,142,ceo,census
110-fikes-ferry-road,,https://locations.familydollar.com/al/marion/110-fikes-ferry-road,Family Dollar,open,110 Fikes Ferry Road,Marion,,Alabama,AL,36756,US,32.6197,-87.3173,America/Chicago,,,334-247-1728,01,01105,01105687002,011056870022022,,,ceo,fcc
3435-hwy-14,,https://locations.familydollar.com/al/millbrook/3435-hwy-14,Family Dollar,open,3435 Hwy 14,Millbrook,,Alabama,AL,36054,US,32.5129,-86.3805,America/Chicago,,,334-245-1283,01,01051,01051031002,010510310021011,33860,388,ceo,census
34-commerce-st,,https://locations.familydollar.com/al/mcintosh/34-commerce-st,Family Dollar,open,34 Commerce St.,Mcintosh,,Alabama,AL,36553,US,31.2666,-88.0312,America/Chicago,,,334-569-5147,01,01129,01129044200,011290442002030,,,ceo,fcc
415-azalea-road,,https://locations.familydollar.com/al/mobile/415-azalea-road,Family Dollar,open,415 Azalea Road,Mobile,,Alabama,AL,36609,US,30.6687,-88.1507,America/Chicago,,,251-436-1786,01,01097,01097003205,010970032051005,33660,380,ceo,census
19160-highway-43,,https://locations.familydollar.com/al/mount-vernon/19160-highway-43,Family Dollar,open,19160 Highway 43,Mount Vernon,,Alabama,AL,36560,US,31.0906,-88.0147,America/Chicago,,,251-571-4467,01,01097,01097005800,010970058002129,33660,380,ceo,census
13254-us-highway-411,,https://locations.familydollar.com/al/odenville/13254-us-highway-411,Family Dollar,open,13254 Us Highway 411,Odenville,,Alabama,AL,35120,US,33.6728,-86.4117,America/Chicago,,,205-360-1829,01,01115,01115040506,011150405062056,13820,142,ceo,fcc
185-s-alabama-ave,,https://locations.familydollar.com/al/monroeville/185-s-alabama-ave,Family Dollar,open,185 S Alabama Ave,Monroeville,,Alabama,AL,36460,US,31.5254,-87.3235,America/Chicago,,,251-239-6592,01,01099,01099076000,010990760003019,,,ceo,fcc
1354-navco-rd,,https://locations.familydollar.com/al/mobile/1354-navco-rd,Family Dollar,open,1354 Navco Rd Navco Shopping Center,Mobile,,Alabama,AL,36605,US,30.6468,-88.1029,America/Chicago,,,251-272-5442,01,01097,01097002200,010970022003005,33660,380,ceo,census
35-w-al-highway-144,,https://locations.familydollar.com/al/ohatchee/35-w-al-highway-144,Family Dollar,open,35 W Al Highway 144,Ohatchee,,Alabama,AL,36271,US,33.7838,-86.0375,America/Chicago,,,256-330-7028,01,01015,01015002600,010150026003010,11500,,ceo,census
3212-mobile-highway,,https://locations.familydollar.com/al/montgomery/3212-mobile-highway,Family Dollar,open,3212 Mobile Highway,Montgomery,,Alabama,AL,36108,US,32.3435,-86.341,America/Chicago,,,334-694-2515,01,01101,01101002400,011010024001017,33860,388,ceo,census
2300-lee-road-112,,https://locations.familydollar.com/al/opelika/2300-lee-road-112,Family Dollar,open,2300 Lee Road 112,Opelika,,Alabama,AL,36804,US,32.5441,-85.3737,America/Chicago,,,334-203-0955,01,01081,01081042101,010810421011000,12220,194,ceo,census
316-s-university-blvd,,https://locations.familydollar.com/al/mobile/316-s-university-blvd,Family Dollar,open,316 S. University Blvd,Mobile,,Alabama,AL,36609,US,30.673,-88.1717,America/Chicago,,,251-308-5093,01,01097,01097003704,010970037044016,33660,380,ceo,census
303-n-main-street,,https://locations.familydollar.com/al/opp/303-n-main-street,Family Dollar,open,303 N. Main Street Delta Plaza,Opp,,Alabama,AL,36467,US,31.2851,-86.2558,America/Chicago,,,334-764-8101,01,01039,01039962500,010399625001020,,,ceo,census
1011-perry-hill-road,,https://locations.familydollar.com/al/montgomery/1011-perry-hill-road,Family Dollar,open,1011 Perry Hill Road,Montgomery,,Alabama,AL,36109,US,32.3663,-86.2437,America/Chicago,,,334-245-6109,01,01101,01101002700,011010027002000,33860,388,ceo,census
1710-crawford-road,,https://locations.familydollar.com/al/phenix-city/1710-crawford-road,Family Dollar,open,1710 Crawford Road,Phenix City,,Alabama,AL,36867,US,32.4736,-85.0169,America/Chicago,,,334-214-1028,01,01113,01113030500,011130305002016,17980,194,ceo,census
381-haslam-street,,https://locations.familydollar.com/al/piedmont/381-haslam-street,Family Dollar,open,381 Haslam Street Piedmont Plaza,Piedmont,,Alabama,AL,36272,US,33.9333,-85.605,America/Chicago,,,256-447-5154,01,01015,01015002300,010150023003066,11500,,ceo,census
1420-2nd-avenue,,https://locations.familydollar.com/al/opelika/1420-2nd-avenue,Family Dollar,open,1420 2nd Avenue,Opelika,,Alabama,AL,36801,US,32.6438,-85.3901,America/Chicago,,,334-203-0266,01,01081,01081041300,010810413002013,12220,194,ceo,census
2755-pleasant-valley-rd,,https://locations.familydollar.com/al/mobile/2755-pleasant-valley-rd,Family Dollar,open,2755 Pleasant Valley Rd Pleasant Valley Shopping Cente,Mobile,,Alabama,AL,36606,US,30.661,-88.1075,America/Chicago,,,251-263-7398,01,01097,01097002100,010970021001004,33660,380,ceo,census
1009-gateway-dr,,https://locations.familydollar.com/al/phenix-city/1009-gateway-dr,Family Dollar,open,1009 Gateway Dr,Phenix City,,Alabama,AL,36869,US,32.4324,-85.026,America/Chicago,,,334-214-1050,01,01113,01113030601,011130306011018,17980,194,ceo,census
1214-n-wilson-avenue,,https://locations.familydollar.com/al/prichard/1214-n-wilson-avenue,Family Dollar,open,1214 N. Wilson Avenue,Prichard,,Alabama,AL,36610,US,30.7463,-88.078,America/Chicago,,,251-214-0472,01,01097,01097007500,010970075002024,33660,380,ceo,census
401-1st-ave-w,,https://locations.familydollar.com/al/reform/401-1st-ave-w,Family Dollar,open,401 1st Ave W,Reform,,Alabama,AL,35481,US,33.3801,-88.0175,America/Chicago,,,205-779-0784,01,01107,01107050100,011070501003000,46220,,ceo,census
820-w-south-boulevard,,https://locations.familydollar.com/al/montgomery/820-w-south-boulevard,Family Dollar,open,820 W South Boulevard Southwest Shp Ctr,Montgomery,,Alabama,AL,36105,US,32.3281,-86.3239,America/Chicago,,,334-777-0345,01,01101,01101002300,011010023004006,33860,388,ceo,fcc
502-e-willow-st,,https://locations.familydollar.com/al/scottsboro/502-e-willow-st,Family Dollar,open,502 E Willow St,Scottsboro,,Alabama,AL,35768,US,34.6733,-86.0286,America/Chicago,,,256-912-0832,01,01071,01071950800,010719508002001,42460,174,ceo,census
3002-dauphin-island-pky,,https://locations.familydollar.com/al/mobile/3002-dauphin-island-pky,Family Dollar,open,3002 Dauphin Island Pky Gulfdale Shopping Center,Mobile,,Alabama,AL,36605,US,30.6104,-88.0757,America/Chicago,,,251-272-5817,01,01097,01097001902,010970019021019,33660,380,ceo,census
1113-hwy-280-bypass,,https://locations.familydollar.com/al/phenix-city/1113-hwy-280-bypass,Family Dollar,open,1113 Hwy 280 Bypass Phenix Square,Phenix City,,Alabama,AL,36867,US,32.4533,-85.0061,America/Chicago,,,334-214-3385,01,01113,01113030800,011130308002008,17980,194,ceo,fcc
12-silver-run-dr,,https://locations.familydollar.com/al/seale/12-silver-run-dr,Family Dollar,open,12 Silver Run Dr,Seale,,Alabama,AL,36875,US,32.3281,-85.1667,America/Chicago,,,334-214-1039,01,01113,01113031200,011130312001028,17980,194,ceo,census
210-w-fairview-ave,,https://locations.familydollar.com/al/montgomery/210-w-fairview-ave,Family Dollar,open,210 W Fairview Ave,Montgomery,,Alabama,AL,36105,US,32.3514,-86.3041,America/Chicago,,,334-310-2371,01,01101,01101001300,011010013001008,33860,388,ceo,census
3030-mcgehee-road,,https://locations.familydollar.com/al/montgomery/3030-mcgehee-road,Family Dollar,open,3030 Mcgehee Road,Montgomery,,Alabama,AL,36111,US,32.3374,-86.2592,America/Chicago,,,334-245-6113,01,01101,01101002800,011010028003002,33860,388,ceo,census
408-n-broad-street,,https://locations.familydollar.com/al/mobile/408-n-broad-street,Family Dollar,open,408 N Broad Street,Mobile,,Alabama,AL,36603,US,30.6953,-88.0547,America/Chicago,,,251-436-1955,01,01097,01097000200,010970002002009,33660,380,ceo,census
1018-highland-avenue,,https://locations.familydollar.com/al/selma/1018-highland-avenue,Family Dollar,open,1018 Highland Avenue,Selma,,Alabama,AL,36701,US,32.4309,-87.0249,America/Chicago,,,334-267-7030,01,01047,01047956600,010479566001000,42820,388,ceo,census
1849-stadium-dr,,https://locations.familydollar.com/al/phenix-city/1849-stadium-dr,Family Dollar,open,1849 Stadium Dr Stadium Plaza Shp Ctr,Phenix City,,Alabama,AL,36867,US,32.4956,-85.0178,America/Chicago,,,334-214-1021,01,01113,01113030404,011130304041021,17980,194,ceo,census
6250-mccrary-rd,,https://locations.familydollar.com/al/semmes/6250-mccrary-rd,Family Dollar,open,6250 Mccrary Rd,Semmes,,Alabama,AL,36575,US,30.8215,-88.2593,America/Chicago,,,251-706-7786,01,01097,01097006102,010970061021000,33660,380,ceo,census
42985-state-hwy-75,,https://locations.familydollar.com/al/snead/42985-state-hwy-75,Family Dollar,open,42985 State Hwy 75,Snead,,Alabama,AL,35952,US,34.1203,-86.3951,America/Chicago,,,205-749-2722,01,01009,01009050301,010090503012006,13820,142,ceo,census
4726-moffett-rd,,https://locations.familydollar.com/al/mobile/4726-moffett-rd,Family Dollar,open,4726 Moffett Rd Moffat Road Shopping Center,Mobile,,Alabama,AL,36618,US,30.7213,-88.1502,America/Chicago,,,251-308-0576,01,01097,01097003402,010970034022015,33660,380,ceo,census
2525-madison-ave,,https://locations.familydollar.com/al/montgomery/2525-madison-ave,Family Dollar,open,2525 Madison Ave,Montgomery,,Alabama,AL,36107,US,32.3813,-86.2736,America/Chicago,,,334-245-9090,01,01101,01101000500,011010005002012,33860,388,ceo,census
104-adam-st,,https://locations.familydollar.com/al/stevenson/104-adam-st,Family Dollar,open,104 Adam St,Stevenson,,Alabama,AL,35772,US,34.8731,-85.8153,America/Chicago,,,938-930-1244,01,01071,01071950302,010719503022002,42460,174,ceo,census
35292-state-highway-59,,https://locations.familydollar.com/al/stapleton/35292-state-highway-59,Family Dollar,open,35292 State Highway 59,Stapleton,,Alabama,AL,36578,US,30.7397,-87.7924,America/Chicago,,,843-380-2203,01,01003,01003010400,010030104003088,19300,380,ceo,fcc
653-stanton-rd,,https://locations.familydollar.com/al/mobile/653-stanton-rd,Family Dollar,open,653 Stanton Rd,Mobile,,Alabama,AL,36617,US,30.7114,-88.098,America/Chicago,,,251-263-6141,01,01097,01097000801,010970008013014,33660,380,ceo,census
20-n-broadway-ave,,https://locations.familydollar.com/al/sylacauga/20-n-broadway-ave,Family Dollar,open,20 N Broadway Ave Sylacauga Shopping Center,Sylacauga,,Alabama,AL,35150,US,33.1677,-86.2506,America/Chicago,,,256-207-5138,01,01121,01121011800,011210118002025,45180,142,ceo,fcc
7630-stemley-bridge-road,,https://locations.familydollar.com/al/talladega/7630-stemley-bridge-road,Family Dollar,open,7630 Stemley Bridge Road,Talladega,,Alabama,AL,35160,US,33.5135,-86.2161,America/Chicago,,,256-268-5117,01,01121,01121010302,011210103021095,45180,142,ceo,fcc
2100-pinson-valley-parkway,,https://locations.familydollar.com/al/tarrant/2100-pinson-valley-parkway,Family Dollar,open,2100 Pinson Valley Parkway Tarrant Discount Shopping Cent,Tarrant,,Alabama,AL,35217,US,33.5892,-86.7664,America/Chicago,,,205-445-9970,01,01073,01073011904,010730119041019,13820,142,ceo,census
2998-springhill-ave,,https://locations.familydollar.com/al/mobile/2998-springhill-ave,Family Dollar,open,2998 Springhill Ave Crichton Plaza,Mobile,,Alabama,AL,36607,US,30.7008,-88.1113,America/Chicago,,,251-263-9241,01,01097,01097002600,010970026003036,33660,380,ceo,census
207-battle-street-e,,https://locations.familydollar.com/al/talladega/207-battle-street-e,Family Dollar,open,207 Battle Street E Talladega Plaza,Talladega,,Alabama,AL,35160,US,33.4348,-86.1001,America/Chicago,,,256-268-5039,01,01121,01121010900,011210109002030,45180,142,ceo,fcc
6890-carol-plantation-road,,https://locations.familydollar.com/al/theodore/6890-carol-plantation-road,Family Dollar,open,6890 Carol Plantation Road,Theodore,,Alabama,AL,36582,US,30.548,-88.1751,America/Chicago,,,251-441-4584,01,01097,01097007101,010970071013007,33660,380,ceo,census
sec-huntsville-browns-ferry-rd,,https://locations.familydollar.com/al/tanner/sec-huntsville-browns-ferry-rd,Family Dollar,open,Sec Huntsville Browns Ferry Rd,Tanner,,Alabama,AL,35671,US,34.731,-86.9483,America/Chicago,,,256-444-6659,01,01083,01083021101,010830211011020,26620,290,ceo,fcc
518-main-street,,https://locations.familydollar.com/al/tallassee/518-main-street,Family Dollar,open,518 Main Street,Tallassee,,Alabama,AL,36078,US,32.5372,-85.8931,America/Chicago,,,334-812-5559,01,01051,01051030402,010510304024022,33860,388,ceo,fcc
2384-al-highway-20,,https://locations.familydollar.com/al/town-creek/2384-al-highway-20,Family Dollar,open,2384 Al Highway 20,Town Creek,,Alabama,AL,35672,US,34.6812,-87.4139,America/Chicago,,,256-602-1502,01,01079,01079979202,010799792022015,19460,290,ceo,fcc
208-w-martin-luther-king-hwy,,https://locations.familydollar.com/al/tuskegee/208-w-martin-luther-king-hwy,Family Dollar,open,208 W. Martin Luther King Hwy.,Tuskegee,,Alabama,AL,36083,US,32.423,-85.6918,America/Chicago,,,334-226-0439,01,01087,01087232000,010872320001042,12220,194,ceo,census
2515-martin-luther-king-jr-blv,,https://locations.familydollar.com/al/tuscaloosa/2515-martin-luther-king-jr-blv,Family Dollar,open,2515 Martin Luther King Jr Blv,Tuscaloosa,,Alabama,AL,35401,US,33.1893,-87.5769,America/Chicago,,,205-861-0762,01,01125,01125011800,011250118003012,46220,,ceo,census
110-baskin-street-s,,https://locations.familydollar.com/al/union-springs/110-baskin-street-s,Family Dollar,open,110 Baskin Street S,Union Springs,,Alabama,AL,36089,US,32.1351,-85.7239,America/Chicago,,,334-440-3242,01,01011,01011952201,010119522012046,,,ceo,census
301a-us-highway-29,,https://locations.familydollar.com/al/valley/301a-us-highway-29,Family Dollar,open,301a Us Highway 29,Valley,,Alabama,AL,36854,US,32.7983,-85.1831,America/Chicago,,,251-301-5498,01,01017,01017954300,010179543004045,29300,122,ceo,census
1507-culver-rd,,https://locations.familydollar.com/al/tuscaloosa/1507-culver-rd,Family Dollar,open,1507 Culver Rd Westgate Shp Ctr,Tuscaloosa,,Alabama,AL,35401,US,33.1999,-87.5897,America/Chicago,,,659-261-2321,01,01125,01125011703,011250117031000,46220,,ceo,census
447-washington-st,,https://locations.familydollar.com/al/uniontown/447-washington-st,Family Dollar,open,447 Washington St.,Uniontown,,Alabama,AL,36786,US,32.4495,-87.5164,America/Chicago,,,334-231-2116,01,01105,01105687100,011056871003017,,,ceo,fcc
15818-south-highway-21,,https://locations.familydollar.com/al/uriah/15818-south-highway-21,Family Dollar,open,15818 South Highway 21,Uriah,,Alabama,AL,36480,US,31.3035,-87.5028,America/Chicago,,,334-456-0125,01,01099,01099076200,010990762001047,,,ceo,census
13281-moffett-road,,https://locations.familydollar.com/al/wilmer/13281-moffett-road,Family Dollar,open,13281 Moffett Road,Wilmer,,Alabama,AL,36587,US,30.8228,-88.3581,America/Chicago,,,251-272-7895,01,01097,01097006202,010970062021026,33660,380,ceo,census
524-14th-st,,https://locations.familydollar.com/al/tuscaloosa/524-14th-st,Family Dollar,open,524 14th St Parkview Center,Tuscaloosa,,Alabama,AL,35401,US,33.2006,-87.5445,America/Chicago,,,659-215-5158,01,01125,01125012002,011250120022002,46220,,ceo,census
701-highway-31-south,,https://locations.familydollar.com/al/warrior/701-highway-31-south,Family Dollar,open,701 Highway 31 South,Warrior,,Alabama,AL,35180,US,33.8037,-86.8158,America/Chicago,,,659-258-0376,01,01009,01009050603,010090506032082,13820,142,ceo,census
9747-al-highway-18,,https://locations.familydollar.com/al/vernon/9747-al-highway-18,Family Dollar,open,9747 Al Highway 18,Vernon,,Alabama,AL,35592,US,33.7546,-88.1118,America/Chicago,,,205-431-3012,01,01075,01075030101,010750301012040,,,ceo,census
3851-greensboro-avenue,,https://locations.familydollar.com/al/tuscaloosa/3851-greensboro-avenue,Family Dollar,open,3851 Greensboro Avenue,Tuscaloosa,,Alabama,AL,35405,US,33.1729,-87.5467,America/Chicago,,,659-215-5613,01,01125,01125012408,011250124081006,46220,,ceo,census
15870-county-road-59,,https://locations.familydollar.com/al/woodland/15870-county-road-59,Family Dollar,open,15870 County Road 59,Woodland,,Alabama,AL,36280,US,33.3733,-85.397,America/Chicago,,,938-526-0002,01,01111,01111000200,011110002003056,,,ceo,census
700-4th-avenue,,https://locations.familydollar.com/al/york/700-4th-avenue,Family Dollar,open,700 4th Avenue,York,,Alabama,AL,36925,US,32.4889,-88.2968,America/Chicago,,,205-377-7268,01,01119,01119011500,011190115004022,,,ceo,census
10025-w-sardis-rd,,https://locations.familydollar.com/ar/bauxite/10025-w-sardis-rd,Family Dollar,open,10025 W Sardis Rd,Bauxite,,Arkansas,AR,72103,US,34.5312,-92.4085,America/Chicago,,,501-369-6689,05,05125,05125010407,051250104071042,30780,340,ceo,census
1550-pine-street,,https://locations.familydollar.com/ar/arkadelphia/1550-pine-street,Family Dollar,open,1550 Pine Street,Arkadelphia,,Arkansas,AR,71923,US,34.1234,-93.0671,America/Chicago,,,501-621-9374,05,05019,05019953601,050199536011007,11660,,ceo,census
1302-s-pine-street,,https://locations.familydollar.com/ar/cabot/1302-s-pine-street,Family Dollar,open,1302 S Pine Street,Cabot,,Arkansas,AR,72023,US,34.9523,-92.0091,America/Chicago,,,870-382-3174,05,05085,05085020206,050850202061015,30780,340,ceo,census
1421-pinecrest-street,,https://locations.familydollar.com/ar/brinkley/1421-pinecrest-street,Family Dollar,open,1421  Pinecrest Street,Brinkley,,Arkansas,AR,72021,US,34.9065,-91.2004,America/Chicago,,,870-494-8040,05,05095,05095950100,050959501003063,,,ceo,fcc
2001-w-main-st,,https://locations.familydollar.com/ar/blytheville/2001-w-main-st,Family Dollar,open,2001 W Main St,Blytheville,,Arkansas,AR,72315,US,35.9272,-89.9271,America/Chicago,,,870-493-3025,05,05093,05093010300,050930103003015,14180,,ceo,census
634-n-main-street,,https://locations.familydollar.com/ar/cave-city/634-n-main-street,Family Dollar,open,634 N Main Street,Cave City,,Arkansas,AR,72521,US,35.9507,-91.5479,America/Chicago,,,870-855-0040,05,05135,05135470401,051354704013004,,,ceo,fcc
76-e-main-st,,https://locations.familydollar.com/ar/charleston/76-e-main-st,Family Dollar,open,76 E Main St,Charleston,,Arkansas,AR,72933,US,35.2975,-94.0273,America/Chicago,,,479-384-3967,05,05047,05047950302,050479503022042,,,ceo,census
300-madison-st,,https://locations.familydollar.com/ar/clarendon/300-madison-st,Family Dollar,open,300 Madison St,Clarendon,,Arkansas,AR,72029,US,34.693,-91.3112,America/Chicago,,,501-497-8681,05,05095,05095950200,050959502002041,,,ceo,census
205-oak-street,,https://locations.familydollar.com/ar/conway/205-oak-street,Family Dollar,open,205 Oak Street,Conway,,Arkansas,AR,72032,US,35.0905,-92.429,America/Chicago,,,501-205-7002,05,05045,05045030702,050450307021008,30780,340,ceo,census
409-w-main-street,,https://locations.familydollar.com/ar/clarksville/409-w-main-street,Family Dollar,open,409 W. Main Street,Clarksville,,Arkansas,AR,72830,US,35.4712,-93.4667,America/Chicago,,,479-308-5081,05,05071,05071952000,050719520002013,,,ceo,census
308-c-pine-street,,https://locations.familydollar.com/ar/crossett/308-c-pine-street,Family Dollar,open,308 C Pine Street,Crossett,,Arkansas,AR,71635,US,33.1315,-91.9605,America/Chicago,,,870-229-1045,05,05003,05003960600,050039606001012,,,ceo,census
109-e-antioch-street,,https://locations.familydollar.com/ar/delight/109-e-antioch-street,Family Dollar,open,109 E Antioch Street,Delight,,Arkansas,AR,71940,US,34.0312,-93.5069,America/Chicago,,,501-431-0430,05,05109,05109953500,051099535002092,,,ceo,census
1602-main-street,,https://locations.familydollar.com/ar/des-arc/1602-main-street,Family Dollar,open,1602 Main Street,Des Arc,,Arkansas,AR,72040,US,34.9774,-91.5107,America/Chicago,,,870-724-4588,05,05117,05117460100,051174601004004,,,ceo,census
701-s-whitehead-dr,,https://locations.familydollar.com/ar/dewitt/701-s-whitehead-dr,Family Dollar,open,701 S Whitehead Dr,Dewitt,,Arkansas,AR,72042,US,34.2894,-91.3254,America/Chicago,,,479-485-3626,05,05001,05001480700,050014807001099,,,ceo,census
120-main-avenue,,https://locations.familydollar.com/ar/dierks/120-main-avenue,Family Dollar,open,120 Main Avenue,Dierks,,Arkansas,AR,71833,US,34.118,-94.0166,America/Chicago,,,870-912-6235,05,05061,05061950100,050619501003056,,,ceo,census
17668-us-highway-64,,https://locations.familydollar.com/ar/earle/17668-us-highway-64,Family Dollar,open,17668 Us Highway 64,Earle,,Arkansas,AR,72331,US,35.2762,-90.4698,America/Chicago,,,870-353-9814,05,05035,05035031100,050350311001018,32820,368,ceo,fcc
439-e-choctaw-street,,https://locations.familydollar.com/ar/dumas/439-e-choctaw-street,Family Dollar,open,439 E Choctaw Street,Dumas,,Arkansas,AR,71639,US,33.8892,-91.485,America/Chicago,,,870-382-3287,05,05041,05041950200,050419502003003,,,ceo,census
3200-jenny-lind-road,,https://locations.familydollar.com/ar/fort-smith/3200-jenny-lind-road,Family Dollar,open,3200 Jenny Lind Road,Fort Smith,,Arkansas,AR,72901,US,35.3533,-94.4136,America/Chicago,,,479-308-6023,05,05131,05131001001,051310010015007,22900,,ceo,census
424-n-west-ave,,https://locations.familydollar.com/ar/el-dorado/424-n-west-ave,Family Dollar,open,424 N West Ave,El Dorado,,Arkansas,AR,71730,US,33.2325,-92.6673,America/Chicago,,,870-677-6164,05,05139,05139950800,051399508001022,20980,,ceo,census
828-n-washington-st,,https://locations.familydollar.com/ar/forrest-city/828-n-washington-st,Family Dollar,open,828 N Washington St,Forrest City,,Arkansas,AR,72335,US,35.0158,-90.7869,America/Chicago,,,870-261-9014,05,05123,05123960500,051239605002017,22620,368,ceo,census
8300-edgemont-rd,,https://locations.familydollar.com/ar/greers-ferry/8300-edgemont-rd,Family Dollar,open,8300 Edgemont Rd,Greers Ferry,,Arkansas,AR,72067,US,35.5668,-92.1812,America/Chicago,,,501-550-6397,05,05023,05023480203,050234802032021,,,ceo,census
3800-midland-blvd,,https://locations.familydollar.com/ar/fort-smith/3800-midland-blvd,Family Dollar,open,3800 Midland Blvd,Fort Smith,,Arkansas,AR,72904,US,35.416,-94.3848,America/Chicago,,,479-308-6045,05,05131,05131000100,051310001002004,22900,,ceo,census
303-kenneth-jenkins-expy,,https://locations.familydollar.com/ar/fouke/303-kenneth-jenkins-expy,Family Dollar,open,303 Kenneth Jenkins Expy,Fouke,,Arkansas,AR,71837,US,33.2593,-93.8851,America/Chicago,,,870-648-1110,05,05091,05091021002,050910210023018,45500,,ceo,census
608-n-illinois-st,,https://locations.familydollar.com/ar/harrisburg/608-n-illinois-st,Family Dollar,open,608 N Illinois St,Harrisburg,,Arkansas,AR,72432,US,35.5713,-90.7234,America/Chicago,,,870-888-9935,05,05111,05111490501,051114905011005,27860,308,ceo,census
3201-grand-avenue,,https://locations.familydollar.com/ar/fort-smith/3201-grand-avenue,Family Dollar,open,3201 Grand Avenue,Fort Smith,,Arkansas,AR,72904,US,35.3865,-94.3973,America/Chicago,,,479-308-4802,05,05131,05131000501,051310005013015,22900,,ceo,census
700-n-main-street,,https://locations.familydollar.com/ar/hamburg/700-n-main-street,Family Dollar,open,700 N  Main Street,Hamburg,,Arkansas,AR,71646,US,33.2307,-91.7969,America/Chicago,,,870-229-4077,05,05003,05003960300,050039603001026,,,ceo,census
180-highway-70-e,,https://locations.familydollar.com/ar/glenwood/180-highway-70-e,Family Dollar,open,180 Highway 70 E Ste 2,Glenwood,,Arkansas,AR,71943,US,34.3253,-93.539,America/Chicago,,,870-782-4063,05,05109,05109953300,051099533002080,,,ceo,census
206-hwy-63-north,,https://locations.familydollar.com/ar/hazen/206-hwy-63-north,Family Dollar,open,206 Hwy 63 North,Hazen,,Arkansas,AR,72064,US,34.7817,-91.5677,America/Chicago,,,870-251-8112,05,05117,05117460200,051174602003021,,,ceo,fcc
1042-w-3rd-st,,https://locations.familydollar.com/ar/imboden/1042-w-3rd-st,Family Dollar,open,1042 W 3rd St,Imboden,,Arkansas,AR,72434,US,36.2037,-91.1896,America/Chicago,,,870-433-0128,05,05075,05075470200,050754702002022,,,ceo,census
815-s-main-st,,https://locations.familydollar.com/ar/hope/815-s-main-st,Family Dollar,open,815 S Main St,Hope,,Arkansas,AR,71801,US,33.6616,-93.5895,America/Chicago,,,870-331-8818,05,05057,05057480301,050574803013012,,,ceo,census
3242-albert-pike-rd,,https://locations.familydollar.com/ar/hot-springs/3242-albert-pike-rd,Family Dollar,open,3242 Albert Pike Rd,Hot Springs,,Arkansas,AR,71913,US,34.5062,-93.1293,America/Chicago,,,501-531-8696,05,05051,05051011002,050510110021052,26300,284,ceo,census
106-s-gee-st,,https://locations.familydollar.com/ar/jonesboro/106-s-gee-st,Family Dollar,open,106 S Gee St,Jonesboro,,Arkansas,AR,72401,US,35.8421,-90.725,America/Chicago,,,870-916-0210,05,05031,05031000200,050310002001004,27860,308,ceo,census
1700-s-highway-161,,https://locations.familydollar.com/ar/jacksonville/1700-s-highway-161,Family Dollar,open,1700 S Highway 161,Jacksonville,,Arkansas,AR,72076,US,34.8524,-92.1161,America/Chicago,,,501-453-0802,05,05119,05119003605,051190036053021,30780,340,ceo,census
640-malvern-ave,,https://locations.familydollar.com/ar/hot-springs/640-malvern-ave,Family Dollar,open,640 Malvern Ave,Hot Springs,,Arkansas,AR,71901,US,34.5047,-93.0495,America/Chicago,,,479-370-0560,05,05051,05051011500,050510115002021,26300,284,ceo,census
1212-s-main-st,,https://locations.familydollar.com/ar/leachville/1212-s-main-st,Family Dollar,open,1212 S. Main St,Leachville,,Arkansas,AR,72438,US,35.9239,-90.2577,America/Chicago,,,870-201-2652,05,05093,05093010801,050930108012037,14180,,ceo,census
905-pridemore-dr,,https://locations.familydollar.com/ar/lincoln/905-pridemore-dr,Family Dollar,open,905 Pridemore Dr,Lincoln,,Arkansas,AR,72744,US,35.9485,-94.4132,America/Chicago,,,479-485-3732,05,05143,05143010513,051430105133031,22220,,ceo,fcc
899-park-ave,,https://locations.familydollar.com/ar/hot-springs/899-park-ave,Family Dollar,open,899 Park Ave,Hot Springs,,Arkansas,AR,71901,US,34.5308,-93.0486,America/Chicago,,,501-489-4216,05,05051,05051010700,050510107001037,26300,284,ceo,census
1307-ar-hwy-18,,https://locations.familydollar.com/ar/lake-city/1307-ar-hwy-18,Family Dollar,open,1307 Ar Hwy 18,Lake City,,Arkansas,AR,72437,US,35.8205,-90.4466,America/Chicago,,,870-275-4511,05,05031,05031000900,050310009003033,27860,308,ceo,census
1218-highway-6582,,https://locations.familydollar.com/ar/lake-village/1218-highway-6582,Family Dollar,open,1218 Highway 65-82,Lake Village,,Arkansas,AR,71653,US,33.3209242,-91.29291239999999,America/Chicago,,,870-417-4123,05,05017,05017080300,050170803003030,,,audit-website,census
325-w-broad-street,,https://locations.familydollar.com/ar/lepanto/325-w-broad-street,Family Dollar,open,325 W  Broad Street,Lepanto,,Arkansas,AR,72354,US,35.6134,-90.3357,America/Chicago,,,870-938-6014,05,05111,05111490100,051114901003027,27860,308,ceo,census
3901-s-university-ave,,https://locations.familydollar.com/ar/little-rock/3901-s-university-ave,Family Dollar,open,3901 S University Ave Village Shp Ctr,Little Rock,,Arkansas,AR,72204,US,34.7146,-92.3406,America/Chicago,,,501-214-1071,05,05119,05119002102,051190021023031,30780,340,ceo,census
10585-hwy-89-s,,https://locations.familydollar.com/ar/lonoke/10585-hwy-89-s,Family Dollar,open,10585 Hwy 89 S,Lonoke,,Arkansas,AR,72086,US,34.834,-91.9798,America/Chicago,,,501-237-1255,05,05085,05085020302,050850203022062,30780,340,ceo,census
25085-highway-5,,https://locations.familydollar.com/ar/lonsdale/25085-highway-5,Family Dollar,open,25085 Highway 5 South,Lonsdale,,Arkansas,AR,72087,US,34.6216,-92.858,America/Chicago,,,501-939-4332,05,05125,05125010508,051250105081024,30780,340,ceo,fcc
431-e-main-st,,https://locations.familydollar.com/ar/magnolia/431-e-main-st,Family Dollar,open,431 E Main St Columbia Shopping Center,Magnolia,,Arkansas,AR,71753,US,33.2661,-93.2357,America/Chicago,,,870-796-8208,05,05027,05027950500,050279505001053,31620,,ceo,census
10422-chicot-road,,https://locations.familydollar.com/ar/little-rock/10422-chicot-road,Family Dollar,open,10422 Chicot Road,Little Rock,,Arkansas,AR,72209,US,34.6556,-92.3638,America/Chicago,,,501-531-0930,05,05119,05119004105,051190041051020,30780,340,ceo,census
801-s-state-highway-77,,https://locations.familydollar.com/ar/manila/801-s-state-highway-77,Family Dollar,open,801 S State Highway 77,Manila,,Arkansas,AR,72442,US,35.8701,-90.1784,America/Chicago,,,870-888-9384,05,05093,05093010802,050930108023016,14180,,ceo,census
4514-w-12th-st,,https://locations.familydollar.com/ar/little-rock/4514-w-12th-st,Family Dollar,open,4514 W 12th St,Little Rock,,Arkansas,AR,72204,US,34.7412,-92.3244,America/Chicago,,,501-313-0011,05,05119,05119001800,051190018004086,30780,340,ceo,census
138-block-st,,https://locations.familydollar.com/ar/marion/138-block-st,Family Dollar,open,138 Block St Marion Shopping Center,Marion,,Arkansas,AR,72364,US,35.2091,-90.2034,America/Chicago,,,901-410-0764,05,05035,05035030805,050350308052035,32820,368,ceo,census
2408-dr-martin-luther-king-jr,,https://locations.familydollar.com/ar/little-rock/2408-dr-martin-luther-king-jr,Family Dollar,open,2408 Dr Martin Luther King Jr,Little Rock,,Arkansas,AR,72206,US,34.7256,-92.2902,America/Chicago,,,501-400-0688,05,05119,05119001100,051190011002089,30780,340,ceo,census
804-n-edmonds-ave,,https://locations.familydollar.com/ar/mccrory/804-n-edmonds-ave,Family Dollar,open,804  N Edmonds Ave,Mccrory,,Arkansas,AR,72101,US,35.2655,-91.2,America/Chicago,,,870-406-4024,05,05147,05147490100,051474901001042,,,ceo,census
606-holly-street,,https://locations.familydollar.com/ar/mcgehee/606-holly-street,Family Dollar,open,606 Holly Street,Mcgehee,,Arkansas,AR,71654,US,33.6295,-91.4026,America/Chicago,,,870-501-5622,05,05041,05041950500,050419505002063,,,ceo,census
15700-arch-street,,https://locations.familydollar.com/ar/little-rock/15700-arch-street,Family Dollar,open,15700 Arch Street,Little Rock,,Arkansas,AR,72206,US,34.6095,-92.3204,America/Chicago,,,501-621-9152,05,05119,05119004004,051190040043000,30780,340,ceo,census
609-e-main-street,,https://locations.familydollar.com/ar/melbourne/609-e-main-street,Family Dollar,open,609 E Main Street,Melbourne,,Arkansas,AR,72556,US,36.0588,-91.897,America/Chicago,,,870-855-0051,05,05065,05065960200,050659602002079,,,ceo,census
1002-us-highway-65-n,,https://locations.familydollar.com/ar/marshall/1002-us-highway-65-n,Family Dollar,open,1002 Us Highway 65 N,Marshall,,Arkansas,AR,72650,US,35.8964,-92.6158,America/Chicago,,,870-916-0167,05,05129,05129970200,051299702002045,,,ceo,census
438-s-alabama-st,,https://locations.familydollar.com/ar/marianna/438-s-alabama-st,Family Dollar,open,438 S  Alabama St,Marianna,,Arkansas,AR,72360,US,34.7618,-90.7674,America/Chicago,,,870-298-2776,05,05077,05077470300,050774703004021,,,ceo,census
3500-baseline-road,,https://locations.familydollar.com/ar/little-rock/3500-baseline-road,Family Dollar,open,3500 Baseline Road Baseline Square Shopping Ctr,Little Rock,,Arkansas,AR,72209,US,34.6684,-92.3169,America/Chicago,,,501-683-8476,05,05119,05119004107,051190041072003,30780,340,ceo,census
306-e-13th-street,,https://locations.familydollar.com/ar/murfreesboro/306-e-13th-street,Family Dollar,open,306 E 13th Street,Murfreesboro,,Arkansas,AR,71958,US,34.0696,-93.6873,America/Chicago,,,870-925-5271,05,05109,05109953500,051099535003037,,,ceo,census
627-highway-270-e,,https://locations.familydollar.com/ar/mount-ida/627-highway-270-e,Family Dollar,open,627 Highway 270 E,Mount Ida,,Arkansas,AR,71957,US,34.5505,-93.6267,America/Chicago,,,870-905-0831,05,05097,05097953000,050979530002037,,,ceo,census
2633-pike-ave,,https://locations.familydollar.com/ar/n-little-rock/2633-pike-ave,Family Dollar,open,2633 Pike Ave Pike Plz Shp Ctr,N Little Rock,,Arkansas,AR,72114,US,34.7794,-92.2793,America/Chicago,,,501-291-1996,05,05119,05119003002,051190030023000,30780,340,ceo,census
1051-w-keiser,,https://locations.familydollar.com/ar/osceola/1051-w-keiser,Family Dollar,open,1051 W Keiser Unit B,Osceola,,Arkansas,AR,72370,US,35.6966,-89.9841,America/Chicago,,,870-576-4193,05,05093,05093011100,050930111002022,14180,,ceo,census
4204-camp-robinson-rd,,https://locations.familydollar.com/ar/n-little-rock/4204-camp-robinson-rd,Family Dollar,open,4204 Camp Robinson Rd,N Little Rock,,Arkansas,AR,72118,US,34.7935,-92.2715,America/Chicago,,,501-902-4021,05,05119,05119003202,051190032022030,30780,340,ceo,census
5200-west-65th-st,,https://locations.familydollar.com/ar/little-rock/5200-west-65th-st,Family Dollar,open,5200 West 65th St,Little Rock,,Arkansas,AR,72209,US,34.6909,-92.3347,America/Chicago,,,501-683-9071,05,05119,05119002002,051190020021037,30780,340,ceo,census
1008-w-commercial-street,,https://locations.familydollar.com/ar/ozark/1008-w-commercial-street,Family Dollar,open,1008 W Commercial Street,Ozark,,Arkansas,AR,72949,US,35.4879,-93.835,America/Chicago,,,479-895-9102,05,05047,05047950202,050479502023036,,,ceo,census
300-w-kings-highway,,https://locations.familydollar.com/ar/paragould/300-w-kings-highway,Family Dollar,open,300 W Kings Highway,Paragould,,Arkansas,AR,72450,US,36.0523,-90.489,America/Chicago,,,870-565-4008,05,05055,05055480700,050554807001000,37500,308,ceo,census
715-e-broadway-street,,https://locations.familydollar.com/ar/n-little-rock/715-e-broadway-street,Family Dollar,open,715 E Broadway Street,N Little Rock,,Arkansas,AR,72114,US,34.7563,-92.2597,America/Chicago,,,501-214-8057,05,05119,05119002600,051190026001029,30780,340,ceo,census
2901-s-olive-st,,https://locations.familydollar.com/ar/pine-bluff/2901-s-olive-st,Family Dollar,open,2901 S Olive St Ste 2,Pine Bluff,,Arkansas,AR,71601,US,34.1996,-92.0064,America/Chicago,,,870-293-6170,05,05069,05069001700,050690017004023,38220,340,ceo,census
2104-highway-62-w,,https://locations.familydollar.com/ar/pocahontas/2104-highway-62-w,Family Dollar,open,2104 Highway 62 W,Pocahontas,,Arkansas,AR,72455,US,36.2578,-90.9852,America/Chicago,,,501-431-0342,05,05121,05121960301,051219603013018,,,ceo,census
6212-batesville-blvd,,https://locations.familydollar.com/ar/pleasant-plains/6212-batesville-blvd,Family Dollar,open,6212 Batesville Blvd,Pleasant Plains,,Arkansas,AR,72568,US,35.5594,-91.6221,America/Chicago,,,501-600-9056,05,05063,05063490800,050634908004033,12900,,ceo,fcc
2121-highway-161,,https://locations.familydollar.com/ar/n-little-rock/2121-highway-161,Family Dollar,open,2121 Highway 161,N Little Rock,,Arkansas,AR,72117,US,34.7738,-92.1998,America/Chicago,,,501-400-0385,05,05119,05119002700,051190027005002,30780,340,ceo,census
1100-west-1st-street-n,,https://locations.familydollar.com/ar/prescott/1100-west-1st-street-n,Family Dollar,open,1100 West 1st Street N,Prescott,,Arkansas,AR,71857,US,33.8072,-93.3755,America/Chicago,,,870-796-8261,05,05099,05099090200,050990902002076,,,ceo,census
1900-s-1st-street-ste-6,,https://locations.familydollar.com/ar/rogers/1900-s-1st-street-ste-6,Family Dollar,open,1900 S 1st Street  Ste 6,Rogers,,Arkansas,AR,72758,US,36.3104,-94.1181,America/Chicago,,,479-309-0242,05,05007,05007020206,050070202061032,22220,,ceo,census
5316-dollarway-rd,,https://locations.familydollar.com/ar/pine-bluff/5316-dollarway-rd,Family Dollar,open,5316 Dollarway Rd,Pine Bluff,,Arkansas,AR,71602,US,34.2433,-92.0601,America/Chicago,,,870-403-5272,05,05069,05069001401,050690014012007,38220,340,ceo,census
7126-albert-pike-rd,,https://locations.familydollar.com/ar/royal/7126-albert-pike-rd,Family Dollar,open,7126 Albert Pike Rd.,Royal,,Arkansas,AR,71968,US,34.5113,-93.2517,America/Chicago,,,501-431-0726,05,05051,05051010302,050510103022036,26300,284,ceo,census
5991-hwy-36-w,,https://locations.familydollar.com/ar/rose-bud/5991-hwy-36-w,Family Dollar,open,5991 Hwy 36 W,Rose Bud,,Arkansas,AR,72137,US,35.3312,-92.0783,America/Chicago,,,501-419-9260,05,05145,05145070300,051450703002027,42620,340,ceo,fcc
2405-w-olive-st,,https://locations.familydollar.com/ar/rogers/2405-w-olive-st,Family Dollar,open,2405 W Olive St,Rogers,,Arkansas,AR,72756,US,36.3421,-94.1535,America/Chicago,,,405-970-1981,05,05007,05007020302,050070203021007,22220,,ceo,census
1200-s-knoxville-ave,,https://locations.familydollar.com/ar/russellville/1200-s-knoxville-ave,Family Dollar,open,1200 S Knoxville Ave,Russellville,,Arkansas,AR,72802,US,35.2671,-93.1213,America/Chicago,,,501-453-0813,05,05115,05115951601,051159516014001,40780,,ceo,census
113-spruce-street,,https://locations.familydollar.com/ar/salem/113-spruce-street,Family Dollar,open,113 Spruce Street,Salem,,Arkansas,AR,72576,US,36.3711,-91.8327,America/Chicago,,,870-900-6010,05,05049,05049550201,050495502013014,,,ceo,fcc
2601-east-robinson-ave,,https://locations.familydollar.com/ar/springdale/2601-east-robinson-ave,Family Dollar,open,2601 East Robinson Ave,Springdale,,Arkansas,AR,72764,US,36.166,-94.1023,America/Chicago,,,479-487-1162,05,05143,05143010305,051430103052004,22220,,ceo,census
812-e-antigo-st,,https://locations.familydollar.com/ar/stamps/812-e-antigo-st,Family Dollar,open,812 E Antigo St,Stamps,,Arkansas,AR,71860,US,33.3656,-93.4891,America/Chicago,,,870-533-5242,05,05073,05073470101,050734701013005,,,ceo,census
1823-s-main-street,,https://locations.familydollar.com/ar/stuttgart/1823-s-main-street,Family Dollar,open,1823 S. Main Street,Stuttgart,,Arkansas,AR,72160,US,34.4851,-91.5523,America/Chicago,,,870-649-2082,05,05001,05001480500,050014805002124,,,ceo,census
3909-jefferson-ave,,https://locations.familydollar.com/ar/texarkana/3909-jefferson-ave,Family Dollar,open,3909 Jefferson Ave,Texarkana,,Arkansas,AR,71854,US,33.4614,-94.0298,America/Chicago,,,870-330-0692,05,05091,05091020100,050910201001005,45500,,ceo,census
1302-n-thompson-st,,https://locations.familydollar.com/ar/springdale/1302-n-thompson-st,Family Dollar,open,1302 N Thompson St Plaza Shopping Center,Springdale,,Arkansas,AR,72764,US,36.196,-94.1384,America/Chicago,,,501-400-0196,05,05143,05143010401,051430104011002,22220,,ceo,census
443-highway-463-s,,https://locations.familydollar.com/ar/trumann/443-highway-463-s,Family Dollar,open,443 Highway 463 S Trumann Plaza,Trumann,,Arkansas,AR,72472,US,35.6669,-90.5121,America/Chicago,,,479-427-7931,05,05111,05111490300,051114903001013,27860,308,ceo,fcc
10-eagle-street,,https://locations.familydollar.com/ar/vilonia/10-eagle-street,Family Dollar,open,10 Eagle Street,Vilonia,,Arkansas,AR,72173,US,35.0839,-92.1995,America/Chicago,,,501-808-7105,05,05045,05045030302,050450303022031,30780,340,ceo,census
1213-e-9th-st,,https://locations.familydollar.com/ar/texarkana/1213-e-9th-st,Family Dollar,open,1213 E 9th St,Texarkana,,Arkansas,AR,71854,US,33.4313,-94.0304,America/Chicago,,,870-330-0849,05,05091,05091020200,050910202002044,45500,,ceo,census
651-w-2nd-street,,https://locations.familydollar.com/ar/waldron/651-w-2nd-street,Family Dollar,open,651 W 2nd Street,Waldron,,Arkansas,AR,72958,US,34.8999,-94.0983,America/Chicago,,,479-410-0680,05,05127,05127950200,051279502001027,,,ceo,census
500-sw-front-st,,https://locations.familydollar.com/ar/walnut-ridge/500-sw-front-st,Family Dollar,open,500 Sw Front St,Walnut Ridge,,Arkansas,AR,72476,US,36.0657,-90.9604,America/Chicago,,,870-397-6308,05,05075,05075470502,050754705023056,,,ceo,census
317-s-martin-st,,https://locations.familydollar.com/ar/warren/317-s-martin-st,Family Dollar,open,317 S Martin St,Warren,,Arkansas,AR,71671,US,33.6105,-92.0707,America/Chicago,,,870-466-4951,05,05011,05011950200,050119502001024,,,ceo,census
900-east-st,,https://locations.familydollar.com/ar/texarkana/900-east-st,Family Dollar,open,900 East St,Texarkana,,Arkansas,AR,71854,US,33.4124,-94.0294,America/Chicago,,,870-330-0712,05,05091,05091020500,050910205001026,45500,,ceo,census
233-n-sebastian-st,,https://locations.familydollar.com/ar/west-helena/233-n-sebastian-st,Family Dollar,open,233 N Sebastian St,West Helena,,Arkansas,AR,72390,US,34.5472,-90.646,America/Chicago,,,870-383-0092,05,05107,05107480300,051074803005037,,,ceo,census
209-shoppingway-blvd-ste-b,,https://locations.familydollar.com/ar/west-memphis/209-shoppingway-blvd-ste-b,Family Dollar,open,209 Shoppingway Blvd Ste B Holiday Plaza,West Memphis,,Arkansas,AR,72301,US,35.167,-90.1886,America/Chicago,,,870-551-2582,05,05035,05035030201,050350302011007,32820,368,ceo,census
1800-n-falls-blvd,,https://locations.familydollar.com/ar/wynne/1800-n-falls-blvd,Family Dollar,open,1800 N Falls Blvd Oakwood Shopping Center,Wynne,,Arkansas,AR,72396,US,35.2429,-90.7822,America/Chicago,,,870-587-4167,05,05037,05037950600,050379506002023,,,ceo,census
601-n-2nd-ave,,https://locations.familydollar.com/az/ajo/601-n-2nd-ave,Family Dollar,open,601 N 2nd Ave,Ajo,,Arizona,AZ,85321,US,32.3766,-112.8733,America/Phoenix,,,480-757-1161,04,04019,04019005200,040190052004034,46060,536,ceo,census
420-s-avalon-street,,https://locations.familydollar.com/ar/west-memphis/420-s-avalon-street,Family Dollar,open,420 S Avalon Street,West Memphis,,Arkansas,AR,72301,US,35.1414,-90.1933,America/Chicago,,,870-394-5511,05,05035,05035030302,050350303021009,32820,368,ceo,census
50518-n-eagle-view-drive,,https://locations.familydollar.com/az/aguila/50518-n-eagle-view-drive,Family Dollar,open,50518 N. Eagle View Drive,Aguila,,Arizona,AZ,85320,US,33.9424,-113.1659,America/Phoenix,,,480-999-2783,04,04013,04013040515,040130405151148,38060,429,ceo,census
12214-w-lower-buckeye-road,,https://locations.familydollar.com/az/avondale/12214-w-lower-buckeye-road,Family Dollar,open,12214 W. Lower Buckeye Road,Avondale,,Arizona,AZ,85323,US,33.4211,-112.3222,America/Phoenix,,,480-800-0450,04,04013,04013082211,040130822112015,38060,429,ceo,fcc
155-w-park-ave,,https://locations.familydollar.com/az/ash-fork/155-w-park-ave,Family Dollar,open,155 W. Park Ave.,Ash Fork,,Arizona,AZ,86320,US,35.2224,-112.4807,America/Phoenix,,,928-255-5183,04,04025,04025002100,040250021001063,39150,,ceo,fcc
14510-s-sunland-gin-rd,,https://locations.familydollar.com/az/arizona-city/14510-s-sunland-gin-rd,Family Dollar,open,14510 S Sunland Gin Rd,Arizona City,,Arizona,AZ,85123,US,32.748,-111.6719,America/Phoenix,,,520-230-1238,04,04021,04021002105,040210021053000,38060,429,ceo,fcc
725-north-dysart-rd,,https://locations.familydollar.com/az/avondale/725-north-dysart-rd,Family Dollar,open,725 North Dysart Rd,Avondale,,Arizona,AZ,85323,US,33.4396,-112.3403,America/Phoenix,,,480-712-9497,04,04013,04013061200,040130612005007,38060,429,ceo,census
1101-s-naco-hwy-ste-105,,https://locations.familydollar.com/az/bisbee/1101-s-naco-hwy-ste-105,Family Dollar,open,1101 S. Naco Hwy Ste 105 Valley View Shp Ctr,Bisbee,,Arizona,AZ,85603,US,31.4012,-109.9175,America/Phoenix,,,520-353-8200,04,04003,04003001200,040030012002020,43420,,ceo,census
709-e-monroe-ave,,https://locations.familydollar.com/az/buckeye/709-e-monroe-ave,Family Dollar,open,709 E. Monroe Ave,Buckeye,,Arizona,AZ,85326,US,33.3702,-112.5808,America/Phoenix,,,602-428-0215,04,04013,04013050702,040130507022020,38060,429,ceo,census
34150-s-old-black-canyon-hwy,,https://locations.familydollar.com/az/black-canyon-city/34150-s-old-black-canyon-hwy,Family Dollar,open,34150 S Old Black Canyon Hwy,Black Canyon City,,Arizona,AZ,85324,US,34.0687,-112.1525,America/Phoenix,,,480-808-3816,04,04025,04025001402,040250014021008,39150,,ceo,census
28035-hwy-72,,https://locations.familydollar.com/az/bouse/28035-hwy-72,Family Dollar,open,28035 Hwy 72,Bouse,,Arizona,AZ,85325,US,33.9334,-114.0071,America/Phoenix,,,928-851-4786,04,04012,04012020101,040120201012200,,,ceo,census
1127-highway-95,,https://locations.familydollar.com/az/bullhead-city/1127-highway-95,Family Dollar,open,1127 Highway 95,Bullhead City,,Arizona,AZ,86429,US,35.1457,-114.5691,America/Phoenix,,,480-808-1529,04,04015,04015951404,040159514041062,29420,,ceo,census
633-w-finnie-flat-rd,,https://locations.familydollar.com/az/camp-verde/633-w-finnie-flat-rd,Family Dollar,open,633 W. Finnie Flat Rd,Camp Verde,,Arizona,AZ,86322,US,34.5652,-111.8651,America/Phoenix,,,928-325-2175,04,04025,04025001601,040250016013011,39150,,ceo,census
1437-n-pinal-ave,,https://locations.familydollar.com/az/casa-grande/1437-n-pinal-ave,Family Dollar,open,1437 N Pinal Ave,Casa Grande,,Arizona,AZ,85122,US,32.8889,-111.7579,America/Phoenix,,,520-540-1069,04,04021,04021001500,040210015003024,38060,429,ceo,census
1027-n-arizona-ave,,https://locations.familydollar.com/az/chandler/1027-n-arizona-ave,Family Dollar,open,1027 N Arizona Ave,Chandler,,Arizona,AZ,85225,US,33.322,-111.8407,America/Phoenix,,,480-808-0295,04,04013,04013522901,040135229013005,38060,429,ceo,census
1005-hancock-rd,,https://locations.familydollar.com/az/bullhead-city/1005-hancock-rd,Family Dollar,open,1005 Hancock Rd,Bullhead City,,Arizona,AZ,86442,US,35.1085,-114.6125,America/Phoenix,,,928-296-8283,04,04015,04015951601,040159516012024,29420,,ceo,census
5-w-big-chino-road,,https://locations.familydollar.com/az/chino-valley/5-w-big-chino-road,Family Dollar,open,5 W Big Chino Road,Chino Valley,,Arizona,AZ,86334,US,34.8933,-112.4691,America/Phoenix,,,928-227-1624,04,04025,04025000211,040250002111046,39150,,ceo,census
355-n-coronado-blvd,,https://locations.familydollar.com/az/clifton/355-n-coronado-blvd,Family Dollar,open,355 N Coronado Blvd,Clifton,,Arizona,AZ,85533,US,33.0563,-109.3042,America/Phoenix,,,928-396-1887,04,04011,04011960100,040119601002015,,,ceo,census
555-n-arizona-blvd,,https://locations.familydollar.com/az/coolidge/555-n-arizona-blvd,Family Dollar,open,555 N Arizona Blvd,Coolidge,,Arizona,AZ,85128,US,32.9825,-111.5236,America/Phoenix,,,480-536-8882,04,04021,04021001000,040210010001031,38060,429,ceo,census
300-n-village-way,,https://locations.familydollar.com/az/dewey/300-n-village-way,Family Dollar,open,300 N Village Way,Dewey,,Arizona,AZ,86327,US,34.5469,-112.249,America/Phoenix,,,928-379-6526,04,04025,04025000617,040250006172047,39150,,ceo,census
314-business-park-dr,,https://locations.familydollar.com/az/chino-valley/314-business-park-dr,Family Dollar,open,314 Business Park Dr,Chino Valley,,Arizona,AZ,86323,US,34.7699,-112.4543,America/Phoenix,,,928-227-0862,04,04025,04025000211,040250002112026,39150,,ceo,census
16-cr-5064,,https://locations.familydollar.com/az/concho-lake/16-cr-5064,Family Dollar,open,16 Cr 5064,Concho Lake,,Arizona,AZ,85924,US,34.54,-109.8564,America/Phoenix,,,928-275-3321,04,04001,04001970202,040019702022019,,,ceo,fcc
1225-s-eastern-dr,,https://locations.familydollar.com/az/cornville/1225-s-eastern-dr,Family Dollar,open,1225 S Eastern Dr.,Cornville,,Arizona,AZ,86325,US,34.7171,-111.8994,America/Phoenix,,,928-852-7530,04,04025,04025001701,040250017011004,39150,,ceo,census
1900-e-10th-st,,https://locations.familydollar.com/az/douglas/1900-e-10th-st,Family Dollar,open,1900 E 10th St,Douglas,,Arizona,AZ,85607,US,31.3447,-109.5319,America/Phoenix,,,520-534-3891,04,04003,04003000800,040030008002022,43420,,ceo,census
15964-pierce-ferry-rd,,https://locations.familydollar.com/az/dolan-springs/15964-pierce-ferry-rd,Family Dollar,open,15964 Pierce Ferry Rd.,Dolan Springs,,Arizona,AZ,86441,US,35.5891,-114.2761,America/Phoenix,,,928-565-6989,04,04015,04015950401,040159504013037,29420,,ceo,census
379726-arizona-75,,https://locations.familydollar.com/az/duncan/379726-arizona-75,Family Dollar,open,379726 Arizona 75,Duncan,,Arizona,AZ,85534,US,32.729,-109.0932,America/Phoenix,,,928-275-4608,04,04011,04011960300,040119603002011,,,ceo,fcc
50045-ehrenberg-rd,,https://locations.familydollar.com/az/ehrenberg/50045-ehrenberg-rd,Family Dollar,open,50045 Ehrenberg Rd,Ehrenberg,,Arizona,AZ,85334,US,33.6087,-114.5167,America/Los_Angeles,,,928-264-7141,04,04012,04012020602,040120206022022,,,ceo,fcc
10391-n-highway-191,,https://locations.familydollar.com/az/elfrida/10391-n-highway-191,Family Dollar,open,10391 N Highway 191,Elfrida,,Arizona,AZ,85610,US,31.6858,-109.687,America/Phoenix,,,520-276-4648,04,04003,04003000501,040030005012027,43420,,ceo,census
12101-w-thunderbird-road,,https://locations.familydollar.com/az/el-mirage/12101-w-thunderbird-road,Family Dollar,open,12101 W. Thunderbird Road,El Mirage,,Arizona,AZ,85335,US,33.6087,-112.3197,America/Phoenix,,,602-698-6294,04,04013,04013060903,040130609032001,38060,429,ceo,census
11-north-santa-cruz,,https://locations.familydollar.com/az/eloy/11-north-santa-cruz,Family Dollar,open,11 North Santa Cruz,Eloy,,Arizona,AZ,85131,US,32.7489,-111.5487,America/Phoenix,,,520-355-5485,04,04021,04021002004,040210020041070,38060,429,ceo,census
5060-n-us-highway-89,,https://locations.familydollar.com/az/flagstaff/5060-n-us-highway-89,Family Dollar,open,5060 N. U.S. Highway 89,Flagstaff,,Arizona,AZ,86004,US,35.2273,-111.5787,America/Phoenix,,,928-255-0889,04,04005,04005000500,040050005003017,22380,,ceo,census
15822-w-highway-70,,https://locations.familydollar.com/az/ft-thomas/15822-w-highway-70,Family Dollar,open,15822 W. Highway 70,Ft. Thomas,,Arizona,AZ,85536,US,33.0388,-109.968,America/Phoenix,,,928-275-3259,04,04009,04009961100,040099611001016,40940,,ceo,fcc
300-south-main-street,,https://locations.familydollar.com/az/fredonia/300-south-main-street,Family Dollar,open,300 South Main Street,Fredonia,,Arizona,AZ,86022,US,36.9428,-112.526,America/Phoenix,,,928-307-7151,04,04005,04005002000,040050020001030,22380,,ceo,census
415-west-pima-ave,,https://locations.familydollar.com/az/gila-bend/415-west-pima-ave,Family Dollar,open,415 West Pima Ave.,Gila Bend,,Arizona,AZ,85337,US,32.9458,-112.7228,America/Phoenix,,,928-683-5982,04,04013,04013723305,040137233051042,38060,429,ceo,fcc
1800-e-ash-st,,https://locations.familydollar.com/az/globe/1800-e-ash-st,Family Dollar,open,1800 E Ash St,Globe,,Arizona,AZ,85501,US,33.3884,-110.7616,America/Phoenix,,,928-719-4652,04,04007,04007001200,040070012002010,37740,429,ceo,census
5846-n-43rd-avenue,,https://locations.familydollar.com/az/glendale/5846-n-43rd-avenue,Family Dollar,open,5846 N 43rd Avenue,Glendale,,Arizona,AZ,85301,US,33.522,-112.1517,America/Phoenix,,,602-730-6916,04,04013,04013093101,040130931011002,38060,429,ceo,fcc
4275-w-highway-68,,https://locations.familydollar.com/az/golden-valley/4275-w-highway-68,Family Dollar,open,4275 W Highway 68,Golden Valley,,Arizona,AZ,86413,US,35.2194,-114.179,America/Phoenix,,,928-391-2339,04,04015,04015950603,040159506032064,29420,,ceo,census
4130-e-john-l-avenue,,https://locations.familydollar.com/az/kingman/4130-e-john-l-avenue,Family Dollar,open,4130 E John L. Avenue,Kingman,,Arizona,AZ,86409,US,35.2548,-113.9757,America/Phoenix,,,928-391-2271,04,04015,04015950705,040159507052007,29420,,ceo,census
615-w-hopi-drive,,https://locations.familydollar.com/az/holbrook/615-w-hopi-drive,Family Dollar,open,615 W Hopi Drive,Holbrook,,Arizona,AZ,86025,US,34.9021,-110.1668,America/Phoenix,,,928-297-0764,04,04017,04017960200,040179602001047,43320,,ceo,census
6744-glendale-ave-ste-155,,https://locations.familydollar.com/az/glendale/6744-glendale-ave-ste-155,Family Dollar,open,6744 Glendale Ave.,Glendale,,Arizona,AZ,85303,US,33.5396,-112.2046,America/Phoenix,,,480-788-6938,04,04013,04013092705,040130927052024,38060,429,ceo,census
302-w-alden-rd,,https://locations.familydollar.com/az/kearny/302-w-alden-rd,Family Dollar,open,302 W. Alden Rd,Kearny,,Arizona,AZ,85137,US,33.0583,-110.9044,America/Phoenix,,,313-895-7103,04,04021,04021002300,040210023003000,38060,429,ceo,census
90-acoma-blvd-n,,https://locations.familydollar.com/az/lake-havasu-city/90-acoma-blvd-n,Family Dollar,open,90 Acoma Blvd N,Lake Havasu City,,Arizona,AZ,86403,US,34.4776,-114.324,America/Los_Angeles,,,928-846-8691,04,04015,04015952901,040159529011000,29420,,ceo,census
2930-e-northern-ave,,https://locations.familydollar.com/az/kingman/2930-e-northern-ave,Family Dollar,open,2930 E. Northern Ave,Kingman,,Arizona,AZ,86409,US,35.2535,-114.0127,America/Phoenix,,,928-377-5030,04,04015,04015950705,040159507051001,29420,,ceo,census
4341-w-glendale-ave,,https://locations.familydollar.com/az/glendale/4341-w-glendale-ave,Family Dollar,open,4341 W. Glendale Ave.,Glendale,,Arizona,AZ,85301,US,33.5377,-112.1532,America/Phoenix,,,480-808-9037,04,04013,04013093001,040130930012000,38060,429,ceo,census
11825-w-grier-road,,https://locations.familydollar.com/az/marana/11825-w-grier-road,Family Dollar,open,11825 W Grier Road,Marana,,Arizona,AZ,85653,US,32.4526,-111.2181,America/Phoenix,,,520-540-2126,04,04019,04019004430,040190044301017,46060,536,ceo,census
20-e-white-mountain-blvd-8a,,https://locations.familydollar.com/az/lakeside/20-e-white-mountain-blvd-8a,Family Dollar,open,20 E. White Mountain Blvd  #8a White Mountain Village Shp Ctr,Lakeside,,Arizona,AZ,85929,US,34.1421,-109.9545,America/Phoenix,,,928-487-1635,04,04017,04017965301,040179653012002,43320,,ceo,census
19660-e-hitching-post-way,,https://locations.familydollar.com/az/mayer/19660-e-hitching-post-way,Family Dollar,open,19660 E. Hitching Post Way,Mayer,,Arizona,AZ,86333,US,34.3261,-112.1179,America/Phoenix,,,928-237-2181,04,04025,04025001502,040250015023002,39150,,ceo,census
6420-n-59th-avenue,,https://locations.familydollar.com/az/glendale/6420-n-59th-avenue,Family Dollar,open,6420 N 59th Avenue Glenfair Plaza Shp Ctr,Glendale,,Arizona,AZ,85301,US,33.5299,-112.1864,America/Phoenix,,,602-613-3741,04,04013,04013092802,040130928023000,38060,429,ceo,census
28955-pierce-ferry-road,,https://locations.familydollar.com/az/meadview/28955-pierce-ferry-road,Family Dollar,open,28955 Pierce Ferry Road,Meadview,,Arizona,AZ,86444,US,35.9661,-114.094,America/Phoenix,,,480-878-2749,04,04015,04015950403,040159504032009,29420,,ceo,census
10062-south-hwy-69,,https://locations.familydollar.com/az/mayer/10062-south-hwy-69,Family Dollar,open,10062 South Hwy 69,Mayer,,Arizona,AZ,86333,US,34.3988,-112.2298,America/Phoenix,,,928-237-4124,04,04025,04025001502,040250015021063,39150,,ceo,fcc
5435-n-59th-avenue,,https://locations.familydollar.com/az/glendale/5435-n-59th-avenue,Family Dollar,open,5435 N 59th Avenue,Glendale,,Arizona,AZ,85301,US,33.5163,-112.1857,America/Phoenix,,,480-744-7108,04,04013,04013093104,040130931043000,38060,429,ceo,census
255-e-southern-avenue-suite-9,,https://locations.familydollar.com/az/mesa/255-e-southern-avenue-suite-9,Family Dollar,open,255 E. Southern Avenue Suite 9 Macfrugals Plaza,Mesa,,Arizona,AZ,85210,US,33.3929,-111.8256,America/Phoenix,,,602-830-2586,04,04013,04013422301,040134223014000,38060,429,ceo,census
2250-us-highway-60-ste-01,,https://locations.familydollar.com/az/miami/2250-us-highway-60-ste-01,Family Dollar,open,2250 Us Highway 60  Ste 01 Cobre Valle Plaza,Miami,,Arizona,AZ,85539,US,33.4166,-110.8265,America/Phoenix,,,928-813-7672,04,04007,04007001000,040070010002042,37740,429,ceo,census
865-s-dobson-road,,https://locations.familydollar.com/az/mesa/865-s-dobson-road,Family Dollar,open,865 S Dobson Road,Mesa,,Arizona,AZ,85202,US,33.3987,-111.8744,America/Phoenix,,,480-808-0773,04,04013,04013422103,040134221032009,38060,429,ceo,census
8920-s-highway-95,,https://locations.familydollar.com/az/mohave-valley/8920-s-highway-95,Family Dollar,open,8920 S. Highway 95,Mohave Valley,,Arizona,AZ,86440,US,34.8977,-114.5971,America/Phoenix,,,928-444-8859,04,04015,04015955001,040159550012035,29420,,ceo,census
2200-w-american-ave,,https://locations.familydollar.com/az/oracle/2200-w-american-ave,Family Dollar,open,2200 W American Ave.,Oracle,,Arizona,AZ,85623,US,32.6196,-110.7971,America/Phoenix,,,602-698-6451,04,04021,04021002200,040210022004014,38060,429,ceo,fcc
400-n-grand-ave,,https://locations.familydollar.com/az/nogales/400-n-grand-ave,Family Dollar,open,400 N Grand Ave Nogales Plaza Shp Ctr,Nogales,,Arizona,AZ,85621,US,31.3399,-110.9375,America/Phoenix,,,520-860-4563,04,04023,04023966402,040239664024003,35700,536,ceo,census
6036-e-main-street,,https://locations.familydollar.com/az/mesa/6036-e-main-street,Family Dollar,open,6036 E Main Street,Mesa,,Arizona,AZ,85205,US,33.417,-111.7002,America/Phoenix,,,602-805-6635,04,04013,04013420214,040134202143028,38060,429,ceo,census
616-elm-street,,https://locations.familydollar.com/az/page/616-elm-street,Family Dollar,open,616 Elm Street,Page,,Arizona,AZ,86040,US,36.9153,-111.4587,America/Denver,,,928-307-7131,04,04005,04005002102,040050021021014,22380,,ceo,census
2857-highway-260,,https://locations.familydollar.com/az/overgaard/2857-highway-260,Family Dollar,open,2857 Highway 260,Overgaard,,Arizona,AZ,85933,US,34.4069,-110.5659,America/Phoenix,,,602-899-4550,04,04017,04017963700,040179637002056,43320,,ceo,fcc
1321-n-grand-ave,,https://locations.familydollar.com/az/nogales/1321-n-grand-ave,Family Dollar,open,1321 N Grand Ave Escalada Plaza,Nogales,,Arizona,AZ,85621,US,31.3563,-110.9305,America/Phoenix,,,520-355-5721,04,04023,04023966401,040239664012008,35700,536,ceo,census
1630-n-36th-st,,https://locations.familydollar.com/az/phoenix/1630-n-36th-st,Family Dollar,open,1630 N 36th St,Phoenix,,Arizona,AZ,85008,US,33.4666,-112.0051,America/Phoenix,,,602-649-6599,04,04013,04013111401,040131114012014,38060,429,ceo,census
1012-s-kofa-ave,,https://locations.familydollar.com/az/parker/1012-s-kofa-ave,Family Dollar,open,1012 S Kofa Ave,Parker,,Arizona,AZ,85344,US,34.1485,-114.2916,America/Phoenix,,,928-575-2804,04,04012,04012940200,040129402001013,,,ceo,census
9796-w-peoria-ave,,https://locations.familydollar.com/az/peoria/9796-w-peoria-ave,Family Dollar,open,9796 W Peoria Ave Arrowhead Shp Ctr,Peoria,,Arizona,AZ,85345,US,33.5813,-112.2709,America/Phoenix,,,480-606-5389,04,04013,04013071801,040130718011012,38060,429,ceo,census
3605-w-thomas-road,,https://locations.familydollar.com/az/phoenix/3605-w-thomas-road,Family Dollar,open,3605 W Thomas Road,Phoenix,,Arizona,AZ,85019,US,33.4799,-112.137,America/Phoenix,,,602-698-6887,04,04013,04013112201,040131122011002,38060,429,ceo,census
470-e-main-st,,https://locations.familydollar.com/az/quartzsite/470-e-main-st,Family Dollar,open,470 E Main St,Quartzsite,,Arizona,AZ,85346,US,33.6673,-114.2096,America/Phoenix,,,602-613-0982,04,04012,04012020504,040120205042012,,,ceo,census
2604-e-white-mountain-blvd,,https://locations.familydollar.com/az/pinetop/2604-e-white-mountain-blvd,Family Dollar,open,2604 E White Mountain Blvd,Pinetop,,Arizona,AZ,85935,US,34.1238,-109.9246,America/Phoenix,,,623-335-6328,04,04017,04017964901,040179649012009,43320,,ceo,census
7700-e-state-route-69-ste-1e,,https://locations.familydollar.com/az/prescott-valley/7700-e-state-route-69-ste-1e,Family Dollar,open,7700 E State Route 69  Ste 1e,Prescott Valley,,Arizona,AZ,86314,US,34.5873,-112.3304,America/Phoenix,,,928-277-4634,04,04025,04025000615,040250006151031,39150,,ceo,census
2548-n-32nd-st,,https://locations.familydollar.com/az/phoenix/2548-n-32nd-st,Family Dollar,open,2548 N 32nd St,Phoenix,,Arizona,AZ,85008,US,33.4766,-112.0133,America/Phoenix,,,480-808-6084,04,04013,04013111502,040131115022015,38060,429,ceo,census
725-e-cesar-chavez-blvd,,https://locations.familydollar.com/az/san-luis/725-e-cesar-chavez-blvd,Family Dollar,open,725 E Cesar Chavez Blvd,San Luis,,Arizona,AZ,85349,US,32.4939,-114.7819,America/Phoenix,,,928-550-4937,04,04027,04027011403,040270114031032,49740,,ceo,census
66952-hope-lane,,https://locations.familydollar.com/az/salome/66952-hope-lane,Family Dollar,open,66952 Hope Lane,Salome,,Arizona,AZ,85348,US,33.7829,-113.611,America/Phoenix,,,602-613-2285,04,04012,04012020101,040120201011138,,,ceo,census
2046-e-thomas-rd,,https://locations.familydollar.com/az/phoenix/2046-e-thomas-rd,Family Dollar,open,2046 E Thomas Rd,Phoenix,,Arizona,AZ,85016,US,33.4804,-112.037,America/Phoenix,,,602-563-6477,04,04013,04013110702,040131107021006,38060,429,ceo,census
1283-w-frontage-rd,,https://locations.familydollar.com/az/rio-rico/1283-w-frontage-rd,Family Dollar,open,1283 W Frontage Rd,Rio Rico,,Arizona,AZ,85648,US,31.4889,-111.0071,America/Phoenix,,,520-216-4289,04,04023,04023966108,040239661082000,35700,536,ceo,census
440-s-avenue-a,,https://locations.familydollar.com/az/san-manuel/440-s-avenue-a,Family Dollar,open,440 S Avenue A Mega Shp Ctr,San Manuel,,Arizona,AZ,85631,US,32.6024,-110.6316,America/Phoenix,,,520-201-1634,04,04021,04021000700,040210007002003,38060,429,ceo,fcc
3349-n-19th-avenue,,https://locations.familydollar.com/az/phoenix/3349-n-19th-avenue,Family Dollar,open,3349 N 19th Avenue,Phoenix,,Arizona,AZ,85015,US,33.4871,-112.0994,America/Phoenix,,,480-878-3689,04,04013,04013110400,040131104003003,38060,429,ceo,census
22765-w-old-highway-66,,https://locations.familydollar.com/az/seligman/22765-w-old-highway-66,Family Dollar,open,22765 W Old Highway 66,Seligman,,Arizona,AZ,86337,US,35.3276,-112.8821,America/Phoenix,,,480-878-2409,04,04025,04025002100,040250021003127,39150,,ceo,fcc
161-e-deuce-of-clubs,,https://locations.familydollar.com/az/show-low/161-e-deuce-of-clubs,Family Dollar,open,161 E Deuce Of Clubs Safeway Plaza,Show Low,,Arizona,AZ,85901,US,34.2506,-110.0401,America/Phoenix,,,928-487-1511,04,04017,04017961701,040179617011017,43320,,ceo,census
15813-n-cave-creek-rd-suite-1,,https://locations.familydollar.com/az/phoenix/15813-n-cave-creek-rd-suite-1,Family Dollar,open,15813 N Cave Creek Rd,Phoenix,,Arizona,AZ,85032,US,33.6304,-112.0301,America/Phoenix,,,480-744-7641,04,04013,04013103306,040131033061001,38060,429,ceo,census
21-e-fry-blvd,,https://locations.familydollar.com/az/sierra-vista/21-e-fry-blvd,Family Dollar,open,21 E Fry Blvd,Sierra Vista,,Arizona,AZ,85635,US,31.555,-110.2994,America/Phoenix,,,520-929-5311,04,04003,04003001502,040030015023024,43420,,ceo,census
531-east-main-street,,https://locations.familydollar.com/az/somerton/531-east-main-street,Family Dollar,open,531 East Main Street,Somerton,,Arizona,AZ,85350,US,32.5962,-114.7048,America/Phoenix,,,928-550-4611,04,04027,04027011505,040270115051000,49740,,ceo,census
36-s-main-street,,https://locations.familydollar.com/az/snowflake/36-s-main-street,Family Dollar,open,36 S Main Street,Snowflake,,Arizona,AZ,85937,US,34.5088,-110.0794,America/Phoenix,,,623-250-0136,04,04017,04017963300,040179633001025,43320,,ceo,census
256-state-hwy-264,,https://locations.familydollar.com/az/st-michaels/256-state-hwy-264,Family Dollar,open,256 State Hwy 264,St Michaels,,Arizona,AZ,86511,US,35.6567,-109.0931,America/Denver,,,928-295-1444,04,04001,04001945001,040019450012017,,,ceo,census
2230-e-broadway-road,,https://locations.familydollar.com/az/phoenix/2230-e-broadway-road,Family Dollar,open,2230 E Broadway Road,Phoenix,,Arizona,AZ,85040,US,33.4072,-112.0332,America/Phoenix,,,480-744-9145,04,04013,04013115300,040131153001018,38060,429,ceo,census
4155-s-hwy-92,,https://locations.familydollar.com/az/sierra-vista/4155-s-hwy-92,Family Dollar,open,4155 S Hwy 92,Sierra Vista,,Arizona,AZ,85650,US,31.4931,-110.2567,America/Phoenix,,,602-661-2179,04,04003,04003002001,040030020014004,43420,,ceo,census
13602-n-99th-avenue,,https://locations.familydollar.com/az/sun-city/13602-n-99th-avenue,Family Dollar,open,13602 N 99th Avenue,Sun City,,Arizona,AZ,85351,US,33.6075,-112.2692,America/Phoenix,,,480-744-8633,04,04013,04013071503,040130715034003,38060,429,ceo,census
60-n-albany-way,,https://locations.familydollar.com/az/stanfield/60-n-albany-way,Family Dollar,open,60 N Albany Way,Stanfield,,Arizona,AZ,85172,US,32.8798,-111.9794,America/Phoenix,,,520-391-4331,04,04021,04021941402,040219414021187,38060,429,ceo,fcc
580-w-us-highway-60,,https://locations.familydollar.com/az/superior/580-w-us-highway-60,Family Dollar,open,580 W. Us Highway 60,Superior,,Arizona,AZ,85173,US,33.2893,-111.1017,America/Phoenix,,,520-391-4105,04,04021,04021000400,040210004003032,38060,429,ceo,census
15564-w-ajo-highway,,https://locations.familydollar.com/az/three-points/15564-w-ajo-highway,Family Dollar,open,15564 W Ajo Highway,Three Points,,Arizona,AZ,85735,US,32.0831,-111.2986,America/Phoenix,,,520-809-7970,04,04019,04019004424,040190044241069,46060,536,ceo,census
1635-e-southern-ave,,https://locations.familydollar.com/az/phoenix/1635-e-southern-ave,Family Dollar,open,1635 E Southern Ave,Phoenix,,Arizona,AZ,85040,US,33.3921,-112.0464,America/Phoenix,,,480-582-3564,04,04013,04013116300,040131163002012,38060,429,ceo,census
12961-s-oatman-highway,,https://locations.familydollar.com/az/topock-golden-shore/12961-s-oatman-highway,Family Dollar,open,12961 S. Oatman Highway,Topock,,Arizona,AZ,86436,US,34.7801,-114.4816,America/Phoenix,,,928-278-6038,04,04015,04015952005,040159520051025,29420,,ceo,fcc
2709-w-camelback-rd,,https://locations.familydollar.com/az/phoenix/2709-w-camelback-rd,Family Dollar,open,2709 W Camelback Rd,Phoenix,,Arizona,AZ,85017,US,33.5093,-112.1176,America/Phoenix,,,602-805-4268,04,04013,04013109101,040131091012000,38060,429,ceo,census
9602-w-van-buren-st,,https://locations.familydollar.com/az/tolleson/9602-w-van-buren-st,Family Dollar,open,9602 W Van Buren St,Tolleson,,Arizona,AZ,85353,US,33.4507,-112.2665,America/Phoenix,,,480-401-0792,04,04013,04013083000,040130830002019,38060,429,ceo,census
208-sumner-street,,https://locations.familydollar.com/az/tombstone/208-sumner-street,Family Dollar,open,208  Sumner Street,Tombstone,,Arizona,AZ,85638,US,31.7172,-110.0699,America/Phoenix,,,520-284-6746,04,04003,04003000400,040030004002001,43420,,ceo,fcc
1012-n-main-st,,https://locations.familydollar.com/az/tuba-city/1012-n-main-st,Family Dollar,open,1012 N Main St,Tuba City,,Arizona,AZ,86045,US,36.1292,-111.2394,America/Denver,,,623-399-4911,04,04005,04005944900,040059449001036,22380,,ceo,census
12025-n-19th-avenue,,https://locations.familydollar.com/az/phoenix/12025-n-19th-avenue,Family Dollar,open,12025 N. 19th Avenue,Phoenix,,Arizona,AZ,85029,US,33.596,-112.099,America/Phoenix,,,602-613-4757,04,04013,04013103615,040131036151001,38060,429,ceo,census
1325-wickenburg-way,,https://locations.familydollar.com/az/wickenburg/1325-wickenburg-way,Family Dollar,open,1325 Wickenburg Way,Wickenburg,,Arizona,AZ,85390,US,33.9627,-112.7569,America/Phoenix,,,928-588-3902,04,04013,04013040502,040130405023004,38060,429,ceo,census
28849-los-angeles-avenue,,https://locations.familydollar.com/az/wellton/28849-los-angeles-avenue,Family Dollar,open,28849 Los Angeles Avenue,Wellton,,Arizona,AZ,85356,US,32.6734,-114.1438,America/Phoenix,,,928-328-8370,04,04027,04027011203,040270112033010,49740,,ceo,fcc
850-w-rex-allen-drive,,https://locations.familydollar.com/az/willcox/850-w-rex-allen-drive,Family Dollar,open,850 W Rex Allen Drive,Willcox,,Arizona,AZ,85643,US,32.2637,-109.8373,America/Phoenix,,,520-253-8231,04,04003,04003000202,040030002023078,43420,,ceo,census
1831-e-mcdowell-rd,,https://locations.familydollar.com/az/phoenix/1831-e-mcdowell-rd,Family Dollar,open,1831 E Mcdowell Rd,Phoenix,,Arizona,AZ,85006,US,33.4652,-112.042,America/Phoenix,,,520-333-6483,04,04013,04013113204,040131132043005,38060,429,ceo,census
2960-w-valencia-rd,,https://locations.familydollar.com/az/tucson/2960-w-valencia-rd,Family Dollar,open,2960 W Valencia Rd Manzanita Plaza,Tucson,,Arizona,AZ,85746,US,32.135,-111.0296,America/Phoenix,,,520-477-9895,04,04019,04019004312,040190043121012,46060,536,ceo,census
901-west-route-66,,https://locations.familydollar.com/az/williams/901-west-route-66,Family Dollar,open,901 West Route 66,Williams,,Arizona,AZ,86046,US,35.248,-112.1968,America/Phoenix,,,928-255-5350,04,04005,04005001700,040050017003021,22380,,ceo,fcc
1539-n-park-dr,,https://locations.familydollar.com/az/winslow/1539-n-park-dr,Family Dollar,open,1539 N Park Dr North Park Plaza,Winslow,,Arizona,AZ,86047,US,35.0362,-110.6983,America/Phoenix,,,928-224-1292,04,04017,04017960600,040179606002005,43320,,ceo,fcc
4239-w-mcdowell-rd-ste-24,,https://locations.familydollar.com/az/phoenix/4239-w-mcdowell-rd-ste-24,Family Dollar,open,4239 W. Mcdowell Rd.,Phoenix,,Arizona,AZ,85009,US,33.465,-112.15,America/Phoenix,,,480-808-2544,04,04013,04013112601,040131126011001,38060,429,ceo,census
1354-w-prince-rd,,https://locations.familydollar.com/az/tucson/1354-w-prince-rd,Family Dollar,open,1354 W Prince Rd Flowing Wells Plaza Shopping C,Tucson,,Arizona,AZ,85705,US,32.273,-110.9945,America/Phoenix,,,520-485-0117,04,04019,04019004505,040190045052004,46060,536,ceo,census
31206-n-us-highway-60,,https://locations.familydollar.com/az/wittmann/31206-n-us-highway-60,Family Dollar,open,31206 N Us Highway 60,Wittmann,,Arizona,AZ,85361,US,33.7661,-112.5151,America/Phoenix,,,480-744-8650,04,04013,04013040541,040130405411026,38060,429,ceo,fcc
11545-bartlett-avenue,,https://locations.familydollar.com/ca/adelanto/11545-bartlett-avenue,Family Dollar,open,11545 Bartlett Avenue,Adelanto,,California,CA,92301,US,34.5788,-117.4133,America/Los_Angeles,,,442-249-4451,06,06071,06071009132,060710091322008,40140,348,ceo,census
501-w-catalina-drive,,https://locations.familydollar.com/az/yuma/501-w-catalina-drive,Family Dollar,open,501 W Catalina Drive Suite C,Yuma,,Arizona,AZ,85364,US,32.6725,-114.6256,America/Phoenix,,,928-323-3971,04,04027,04027001003,040270010031024,49740,,ceo,census
6544-w-thomas-rd-ste-15,,https://locations.familydollar.com/az/phoenix/6544-w-thomas-rd-ste-15,Family Dollar,open,6544 W Thomas Rd Ste 15,Phoenix,,Arizona,AZ,85033,US,33.4814,-112.2027,America/Phoenix,,,480-877-4643,04,04013,04013109801,040131098011004,38060,429,ceo,census
3000-e-22nd-street,,https://locations.familydollar.com/az/tucson/3000-e-22nd-street,Family Dollar,open,3000 E 22nd Street,Tucson,,Arizona,AZ,85713,US,32.2064,-110.9279,America/Phoenix,,,520-365-2132,04,04019,04019002000,040190020004008,46060,536,ceo,census
2219-brundage-lane,,https://locations.familydollar.com/ca/bakersfield/2219-brundage-lane,Family Dollar,open,2219 Brundage Lane,Bakersfield,,California,CA,93304,US,35.3535,-119.0277,America/Los_Angeles,,,661-401-6032,06,06029,06029001902,060290019023019,12540,,ceo,census
432-east-16th-st,,https://locations.familydollar.com/az/yuma/432-east-16th-st,Family Dollar,open,432 East 16th St,Yuma,,Arizona,AZ,85364,US,32.6989,-114.6168,America/Phoenix,,,928-259-5316,04,04027,04027000100,040270001001037,49740,,ceo,census
601-skyline-blvd,,https://locations.familydollar.com/ca/avenal/601-skyline-blvd,Family Dollar,open,601 Skyline Blvd,Avenal,,California,CA,93204,US,36.0047,-120.1293,America/Los_Angeles,,,559-295-2207,06,06031,06031001702,060310017022032,25260,260,ceo,fcc
4725-east-southern-ave,,https://locations.familydollar.com/az/phoenix/4725-east-southern-ave,Family Dollar,open,4725 East Southern Ave.,Phoenix,,Arizona,AZ,85042,US,33.392,-111.9799,America/Phoenix,,,480-808-0131,04,04013,04013116202,040131162022000,38060,429,ceo,census
125-east-gladstone-st,,https://locations.familydollar.com/ca/azusa/125-east-gladstone-st,Family Dollar,open,125 East Gladstone St.,Azusa,,California,CA,91702,US,34.115,-117.9068,America/Los_Angeles,,,626-428-3847,06,06037,06037404302,060374043022005,31080,348,ceo,census
5089-s-midvale-park-rd,,https://locations.familydollar.com/az/tucson/5089-s-midvale-park-rd,Family Dollar,open,5089 S Midvale Park Rd,Tucson,,Arizona,AZ,85746,US,32.1595,-111.0002,America/Phoenix,,,520-719-1814,04,04019,04019002505,040190025052014,46060,536,ceo,census
1481-w-ramsey-street,,https://locations.familydollar.com/ca/banning/1481-w-ramsey-street,Family Dollar,open,1481 W Ramsey Street,Banning,,California,CA,92220,US,33.9259,-116.893,America/Los_Angeles,,,951-922-5972,06,06065,06065044101,060650441011030,40140,348,ceo,census
11337-s-foothills-blvd,,https://locations.familydollar.com/az/yuma/11337-s-foothills-blvd,Family Dollar,open,11337 S. Foothills Blvd.,Yuma,,Arizona,AZ,85367,US,32.6664,-114.4096,America/Phoenix,,,928-323-3984,04,04027,04027011112,040270111123001,49740,,ceo,census
2151-s-chester-avenue,,https://locations.familydollar.com/ca/bakersfield/2151-s-chester-avenue,Family Dollar,open,2151 S. Chester Avenue,Bakersfield,,California,CA,93304,US,35.3343,-119.016,America/Los_Angeles,,,661-489-1303,06,06029,06029003002,060290030022010,12540,,ceo,census
1717-w-southern-ave,,https://locations.familydollar.com/az/phoenix/1717-w-southern-ave,Family Dollar,open,1717 W Southern Ave.,Phoenix,,Arizona,AZ,85041,US,33.3918,-112.096,America/Phoenix,,,602-767-4406,04,04013,04013116615,040131166151001,38060,429,ceo,census
649-e-6th-st,,https://locations.familydollar.com/ca/beaumont/649-e-6th-st,Family Dollar,open,649 E. 6th St.,Beaumont,,California,CA,92223,US,33.9291,-116.9738,America/Los_Angeles,,,951-922-5780,06,06065,06065044000,060650440001047,40140,348,ceo,census
810-s-avenue-c,,https://locations.familydollar.com/az/yuma/810-s-avenue-c,Family Dollar,open,810 S Avenue C,Yuma,,Arizona,AZ,85364,US,32.7126,-114.668,America/Phoenix,,,928-323-3976,04,04027,04027000402,040270004022000,49740,,ceo,census
9776-s-nogales-highway,,https://locations.familydollar.com/az/tucson/9776-s-nogales-highway,Family Dollar,open,9776 S. Nogales Highway,Tucson,,Arizona,AZ,85756,US,32.0748,-110.9591,America/Phoenix,,,520-497-3573,04,04019,04019004114,040190041142016,46060,536,ceo,census
6868-w-indian-school-road,,https://locations.familydollar.com/az/phoenix/6868-w-indian-school-road,Family Dollar,open,6868 W Indian School Road,Phoenix,,Arizona,AZ,85033,US,33.4951,-112.2073,America/Phoenix,,,602-698-6709,04,04013,04013109602,040131096022011,38060,429,ceo,census
26645-twenty-mule-team-rd,,https://locations.familydollar.com/ca/boron/26645-twenty-mule-team-rd,Family Dollar,open,26645 Twenty Mule Team Rd,Boron,,California,CA,93516,US,35.0003,-117.6561,America/Los_Angeles,,,760-491-1841,06,06029,06029005600,060290056002065,12540,,ceo,census
201-s-main,,https://locations.familydollar.com/ca/bishop/201-s-main,Family Dollar,open,201 S. Main,Bishop,,California,CA,93514,US,37.3604,-118.3958,America/Los_Angeles,,,442-228-6776,06,06027,06027000400,060270004002044,13860,,ceo,census
2392-w-8th-st,,https://locations.familydollar.com/az/yuma/2392-w-8th-st,Family Dollar,open,2392 W 8th St,Yuma,,Arizona,AZ,85364,US,32.7138,-114.6477,America/Phoenix,,,928-259-5320,04,04027,04027000502,040270005022029,49740,,ceo,census
1400-e-main-st,,https://locations.familydollar.com/ca/brawley/1400-e-main-st,Family Dollar,open,1400 E. Main St.,Brawley,,California,CA,92227,US,32.9783,-115.5183,America/Los_Angeles,,,442-226-4317,06,06025,06025010700,060250107003000,20940,,ceo,census
5530-s-12th-ave,,https://locations.familydollar.com/az/tucson/5530-s-12th-ave,Family Dollar,open,5530 S 12th Ave,Tucson,,Arizona,AZ,85706,US,32.1522,-110.978,America/Phoenix,,,520-276-4611,04,04019,04019003901,040190039011020,46060,536,ceo,census
3121-e-van-buren-street,,https://locations.familydollar.com/az/phoenix/3121-e-van-buren-street,Family Dollar,open,3121 E. Van Buren Street,Phoenix,,Arizona,AZ,85008,US,33.451,-112.0138,America/Phoenix,,,602-726-5135,04,04013,04013113800,040131138007000,38060,429,ceo,census
489-s-4th-avenue,,https://locations.familydollar.com/az/yuma/489-s-4th-avenue,Family Dollar,open,489 S 4th Avenue,Yuma,,Arizona,AZ,85364,US,32.7183,-114.6242,America/Phoenix,,,928-261-4360,04,04027,04027000100,040270001003036,49740,,ceo,census
408-e-2nd-st,,https://locations.familydollar.com/ca/calexico/408-e-2nd-st,Family Dollar,open,408 E. 2nd St,Calexico,,California,CA,92231,US,32.6664,-115.493,America/Tijuana,,,442-252-8703,06,06025,06025012101,060250121012035,20940,,ceo,census
1623-n-59th-ave,,https://locations.familydollar.com/az/phoenix/1623-n-59th-ave,Family Dollar,open,1623 N 59th Ave,Phoenix,,Arizona,AZ,85035,US,33.4669,-112.1849,America/Phoenix,,,928-857-2208,04,04013,04013112402,040131124021019,38060,429,ceo,census
52226-cesar-chavez-street,,https://locations.familydollar.com/ca/coachella/52226-cesar-chavez-street,Family Dollar,open,52226 Cesar Chavez  Street,Coachella,,California,CA,92236,US,33.6689,-116.1811,America/Los_Angeles,,,442-256-6722,06,06065,06065045704,060650457041013,40140,348,ceo,fcc
