store_number,slug,url,location_name,status,address_line1,city,county,state,region,postal_code,country_code,latitude,longitude,time_zone,format,total_building_area_sqft,main_voice_phone_number,state_fips,county_fips,tract_fips,block_fips,cbsa_fips,csa_fips,coord_source,fips_source
801,,https://www.homedepot.com/l/West-Mobile/AL/Mobile/36695/801,West Mobile#801,open,755 Schillinger Rd S,Mobile,,Alabama,AL,36695,US,30.675,-88.2236,America/Chicago,,,251-634-0351,01,01097,01097006411,010970064111005,33660,380,ceo,census
802,,https://www.homedepot.com/l/Foley/AL/Foley/36535/802,Foley#802,open,2899 S Mckenzie St,Foley,,Alabama,AL,36535,US,30.3722,-87.6803,America/Chicago,,,251-955-2401,01,01003,01003011503,010030115033026,19300,380,ceo,census
803,,https://www.homedepot.com/l/West-Huntsville/AL/Madison/35757/803,West Huntsville#803,open,4045 Lawson Ridge Dr,Madison,,Alabama,AL,35757,US,34.7573,-86.7393,America/Chicago,,,256-837-6658,01,01089,01089010612,010890106123029,26620,290,ceo,census
804,,https://www.homedepot.com/l/North-Huntsville/AL/Huntsville/35801/804,North Huntsville#804,open,1035 Memorial Pkwy Nw,Huntsville,,Alabama,AL,35801,US,34.7415,-86.603,America/Chicago,,,256-536-2216,01,01089,01089000702,010890007022023,26620,290,ceo,fcc
805,,https://www.homedepot.com/l/Pelham/AL/Pelham/35124/805,Pelham#805,open,3191 Pelham Pkwy,Pelham,,Alabama,AL,35124,US,33.284,-86.8088,America/Chicago,,,205-685-1837,01,01117,01117030315,011170303153052,13820,142,ceo,census
806,,https://www.homedepot.com/l/Prattville/AL/Prattville/36066/806,Prattville#806,open,2710 Legends Parkway,Prattville,,Alabama,AL,36066,US,32.4571,-86.3999,America/Chicago,,,334-285-1693,01,01051,01051031300,010510313001019,33860,388,ceo,census
808,,https://www.homedepot.com/l/Dothan/AL/Dothan/36303/808,Dothan#808,open,3489 Ross Clark Cir,Dothan,,Alabama,AL,36303,US,31.2486,-85.4286,America/Chicago,,,334-677-2790,01,01069,01069040204,010690402042022,20020,222,ceo,census
809,,https://www.homedepot.com/l/Sylacauga/AL/Sylacauga/35150/809,Sylacauga#809,open,41310 Us Hwy 280,Sylacauga,,Alabama,AL,35150,US,33.172,-86.2885,America/Chicago,,,256-245-4953,01,01121,01121011900,011210119001034,45180,142,ceo,census
810,,https://www.homedepot.com/l/Jasper/AL/Jasper/35501/810,Jasper#810,open,1808 Hwy 78 E,Jasper,,Alabama,AL,35501,US,33.8451,-87.2537,America/Chicago,,,205-221-0367,01,01127,01127020301,011270203012034,13820,142,ceo,census
812,,https://www.homedepot.com/l/Scottsboro/AL/Scottsboro/35768/812,Scottsboro#812,open,24635 John T Reid Pkwy,Scottsboro,,Alabama,AL,35768,US,34.6646,-86.01,America/Chicago,,,256-575-2100,01,01071,01071950901,010719509012006,42460,174,ceo,census
813,,https://www.homedepot.com/l/East-Montgomery/AL/Montgomery/36117/813,East Montgomery#813,open,10655 Chantilly Pkwy,Montgomery,,Alabama,AL,36117,US,32.3582,-86.1314,America/Chicago,,,334-260-8702,01,01101,01101005503,011010055033042,33860,388,ceo,census
816,,https://www.homedepot.com/l/Auburn-Opelika/AL/Opelika/36801/816,Auburn (Opelika)#816,open,2190 Tigertown Parkway,Opelika,,Alabama,AL,36801,US,32.6198,-85.4063,America/Chicago,,,334-737-0136,01,01081,01081041101,010810411011023,12220,194,ceo,fcc
817,,https://www.homedepot.com/l/Phenix-City/AL/Phenix-City/36867/817,Phenix City#817,open,3784 Us Highway 431 N,Phenix City,,Alabama,AL,36867,US,32.5062,-85.0523,America/Chicago,,,334-297-2045,01,01113,01113030402,011130304021035,17980,194,ceo,census
818,,https://www.homedepot.com/l/Pell-City/AL/Pell-City/35125/818,Pell City#818,open,289 Vaughan Lane,Pell City,,Alabama,AL,35125,US,33.6087,-86.2793,America/Chicago,,,205-338-1070,01,01115,01115040207,011150402071055,13820,142,ceo,census
863,,https://www.homedepot.com/l/Daphne/AL/Daphne/36526/863,Daphne#863,open,7100 Hwy 90,Daphne,,Alabama,AL,36526,US,30.6536,-87.9014,America/Chicago,,,251-625-0890,01,01003,01003010704,010030107041009,19300,380,ceo,census
865,,https://www.homedepot.com/l/Mobile/AL/Mobile/36609/865,Mobile#865,open,851 Montlimar Dr,Mobile,,Alabama,AL,36609,US,30.6731,-88.1337,America/Chicago,,,251-380-0017,01,01097,01097003206,010970032061018,33660,380,ceo,fcc
866,,https://www.homedepot.com/l/Oxford/AL/Oxford/36203/866,Oxford#866,open,350 Crystal Water Drive,Oxford,,Alabama,AL,36203,US,33.6054,-85.7844,America/Chicago,,,256-832-2279,01,01015,01015001101,010150011012009,11500,,ceo,census
875,,https://www.homedepot.com/l/Inverness/AL/Birmingham/35242/875,Inverness#875,open,4995 Highway 280,Birmingham,,Alabama,AL,35242,US,33.4224,-86.6951,America/Chicago,,,205-995-9357,01,01073,01073012910,010730129102009,13820,142,ceo,census
877,,https://www.homedepot.com/l/Tuscaloosa/AL/Tuscaloosa/35404/877,Tuscaloosa#877,open,1601 13th Ave East,Tuscaloosa,,Alabama,AL,35404,US,33.1957,-87.5181,America/Chicago,,,205-633-2038,01,01125,01125012101,011250121012016,46220,,ceo,fcc
880,,https://www.homedepot.com/l/Eastwood/AL/Birmingham/35210/880,Eastwood#880,open,7001 Crestwood Blvd,Birmingham,,Alabama,AL,35210,US,33.5286,-86.7303,America/Chicago,,,205-595-7780,01,01073,01073005600,010730056004000,13820,142,ceo,census
881,,https://www.homedepot.com/l/Hoover/AL/Birmingham/35244/881,Hoover#881,open,3670 Galleria Circle,Birmingham,,Alabama,AL,35244,US,33.376,-86.8115,America/Chicago,,,205-988-8141,01,01073,01073014408,010730144082010,13820,142,ceo,census
882,,https://www.homedepot.com/l/Fairfield/AL/Fairfield/35064/882,Fairfield#882,open,6405 Flintridge Dr,Fairfield,,Alabama,AL,35064,US,33.478,-86.9206,America/Chicago,,,205-781-0110,01,01073,01073010604,010730106042001,13820,142,ceo,fcc
883,,https://www.homedepot.com/l/Montgomery/AL/Montgomery/36117/883,Montgomery#883,open,2312 Eastern Blvd,Montgomery,,Alabama,AL,36117,US,32.3511,-86.2232,America/Chicago,,,334-272-8552,01,01101,01101003304,011010033043001,33860,388,ceo,census
884,,https://www.homedepot.com/l/Decatur/AL/Decatur/35603/884,Decatur#884,open,1225 Wimberly Dr Sw,Decatur,,Alabama,AL,35603,US,34.5574,-87.0058,America/Chicago,,,256-353-2031,01,01103,01103005108,011030051083002,19460,290,ceo,fcc
887,,https://www.homedepot.com/l/Trussville/AL/Trussville/35173/887,Trussville#887,open,1600 Gadsden Hwy,Trussville,,Alabama,AL,35173,US,33.602,-86.6423,America/Chicago,,,205-661-9415,01,01073,01073011108,010730111081026,13820,142,ceo,census
888,,https://www.homedepot.com/l/South-Huntsville/AL/Huntsville/35803/888,South Huntsville#888,open,10012 Memorial Pkwy Sw,Huntsville,,Alabama,AL,35803,US,34.6463,-86.5671,America/Chicago,,,256-881-8270,01,01089,01089002801,010890028012011,26620,290,ceo,census
6889,,https://www.homedepot.com/l/Alexander-City/AL/Alexander-City/35010/6889,Alexander City#6889,open,1460 Hwy 280,Alexander City,,Alabama,AL,35010,US,32.9509,-85.9913,America/Chicago,,,256-234-6399,01,01123,01123962100,011239621002001,10760,194,ceo,census
8577,,https://www.homedepot.com/l/Florence/AL/Florence/35630/8577,Florence#8577,open,351 Seville St,Florence,,Alabama,AL,35630,US,34.8389,-87.6293,America/Chicago,,,256-764-5037,01,01077,01077010901,010770109012005,22520,250,ceo,fcc
1301,,https://www.homedepot.com/l/Anchorage/AK/Anchorage/99503/1301,Anchorage#1301,open,515 E Tudor Rd,Anchorage,,Alaska,AK,99503,US,61.1827,-149.8736,America/Anchorage,,,907-563-9800,02,02020,02020001900,020200019004027,11260,,ceo,census
1302,,https://www.homedepot.com/l/NE-Anchorage/AK/Anchorage/99508/1302,NE Anchorage#1302,open,400 Rodeo Place,Anchorage,,Alaska,AK,99508,US,61.2182,-149.8141,America/Anchorage,,,907-276-2006,02,02020,02020000901,020200009012006,11260,,ceo,census
1303,,https://www.homedepot.com/l/Fairbanks/AK/Fairbanks/99701/1303,Fairbanks#1303,open,1301 Old Steese Hwy,Fairbanks,,Alaska,AK,99701,US,64.8575,-147.6832,America/Anchorage,,,907-451-9003,02,02090,02090001300,020900013003047,21820,,ceo,census
1304,,https://www.homedepot.com/l/Wasilla/AK/Wasilla/99654/1304,Wasilla#1304,open,1255 E Palmer Wasilla Hwy,Wasilla,,Alaska,AK,99654,US,61.576,-149.4183,America/Anchorage,,,907-357-8181,02,02170,02170000900,021700009002021,11260,,ceo,census
8938,,https://www.homedepot.com/l/Kenai/AK/Kenai/99611/8938,Kenai#8938,open,10480 Spur Hwy,Kenai,,Alaska,AK,99611,US,60.5615,-151.2379,America/Anchorage,,,907-283-2228,02,02122,02122000600,021220006005029,,,ceo,fcc
8939,,https://www.homedepot.com/l/Juneau/AK/Juneau/99801/8939,Juneau#8939,open,5201 Commercial Blvd,Juneau,,Alaska,AK,99801,US,58.3591,-134.4789,America/Juneau,,,907-463-5034,02,02110,02110000400,021100004003000,27940,,ceo,census
8940,,https://www.homedepot.com/l/SE-Anchorage/AK/Anchorage/99507/8940,SE Anchorage#8940,open,1715 Abbott Road,Anchorage,,Alaska,AK,99507,US,61.1431,-149.846,America/Anchorage,,,907-644-5646,02,02020,02020002601,020200026013014,11260,,ceo,census
401,,https://www.homedepot.com/l/N-Phoenix/AZ/Phoenix/85022/401,N Phoenix#401,open,2217 East Bell Road,Phoenix,,Arizona,AZ,85022,US,33.6393,-112.0341,America/Phoenix,,,602-482-2430,04,04013,04013103606,040131036063000,38060,429,ceo,census
402,,https://www.homedepot.com/l/Yuma/AZ/Yuma/85365/402,Yuma#402,open,1111 S Redondo Center Dr,Yuma,,Arizona,AZ,85365,US,32.7075,-114.6121,America/Phoenix,,,928-373-9453,04,04027,04027000100,040270001001000,49740,,ceo,census
403,,https://www.homedepot.com/l/Lake-Havasu-City/AZ/Lake-Havasu-City/86404/403,Lake Havasu City#403,open,100 Retail Centre Blvd,Lake Havasu City,,Arizona,AZ,86404,US,34.5618,-114.3628,America/Phoenix,,,928-764-5111,04,04015,04015952400,040159524003034,29420,,ceo,census
404,,https://www.homedepot.com/l/Apache-Junction/AZ/Mesa/85209/404,Apache Junction#404,open,1545 S Crismon Rd,Mesa,,Arizona,AZ,85209,US,33.3887,-111.6134,America/Phoenix,,,480-380-1821,04,04013,04013422615,040134226154002,38060,429,ceo,census
405,,https://www.homedepot.com/l/Glendale-III/AZ/Glendale/85302/405,Glendale III#405,open,5902 W Peoria Ave,Glendale,,Arizona,AZ,85302,US,33.5832,-112.1878,America/Phoenix,,,623-487-7357,04,04013,04013104222,040131042224010,38060,429,ceo,census
406,,https://www.homedepot.com/l/NE-Mesa/AZ/Mesa/85215/406,NE Mesa#406,open,6708 E Mckellips Rd,Mesa,,Arizona,AZ,85215,US,33.4535,-111.6858,America/Phoenix,,,480-830-2463,04,04013,04013420212,040134202121028,38060,429,ceo,census
408,,https://www.homedepot.com/l/Casa-Grande/AZ/Casa-Grande/85122/408,Casa Grande#408,open,1546 E Florence Blvd,Casa Grande,,Arizona,AZ,85122,US,32.8814,-111.7211,America/Phoenix,,,520-836-1028,04,04021,04021001405,040210014051022,38060,429,ceo,census
410,,https://www.homedepot.com/l/Tucson/AZ/Tucson/85710/410,Tucson#410,open,7677 E Broadway Blvd,Tucson,,Arizona,AZ,85710,US,32.2234,-110.8279,America/Phoenix,,,520-722-6171,04,04019,04019004039,040190040392016,46060,536,ceo,census
411,,https://www.homedepot.com/l/Show-Low/AZ/Show-Low/85901/411,Show Low#411,open,5601 S White Mountain Rd,Show Low,,Arizona,AZ,85901,US,34.1989,-110.0162,America/Phoenix,,,928-532-1552,04,04017,04017961701,040179617012000,43320,,ceo,census
413,,https://www.homedepot.com/l/SW-Phoenix/AZ/Phoenix/85037/413,SW Phoenix#413,open,9969 W Camelback Road,Phoenix,,Arizona,AZ,85037,US,33.5071,-112.2744,America/Phoenix,,,623-772-1034,04,04013,04013082002,040130820021000,38060,429,ceo,census
414,,https://www.homedepot.com/l/Tucson-Oracle/AZ/Tucson/85705/414,Tucson / Oracle#414,open,4302 North Oracle Road,Tucson,,Arizona,AZ,85705,US,32.2844,-110.9775,America/Phoenix,,,520-408-7201,04,04019,04019004510,040190045102006,46060,536,ceo,census
415,,https://www.homedepot.com/l/Queen-Creek/AZ/Queen-Creek/85142/415,Queen Creek#415,open,7401 S Power Road,Queen Creek,,Arizona,AZ,85142,US,33.2814,-111.6831,America/Phoenix,,,480-988-6810,04,04013,04013816600,040138166002001,38060,429,ceo,census
416,,https://www.homedepot.com/l/Kingman/AZ/Kingman/86409/416,Kingman#416,open,3860 Stockton Hill Rd,Kingman,,Arizona,AZ,86409,US,35.2348,-114.035,America/Phoenix,,,928-681-5600,04,04015,04015953901,040159539012020,29420,,ceo,census
417,,https://www.homedepot.com/l/Ocotillo-S-Chandler/AZ/Chandler/85248/417,Ocotillo/S Chandler#417,open,4141 S Arizona Avenue,Chandler,,Arizona,AZ,85248,US,33.2453,-111.8394,America/Phoenix,,,480-802-7117,04,04013,04013813100,040138131002008,38060,429,ceo,census
419,,https://www.homedepot.com/l/San-Tan-Valley/AZ/San-Tan-Valley/85143/419,San Tan Valley#419,open,1400 W. Hunt Hwy,San Tan Valley,,Arizona,AZ,85143,US,33.1784,-111.5798,America/Phoenix,,,480-885-9200,04,04021,04021000225,040210002251022,38060,429,ceo,census
420,,https://www.homedepot.com/l/Scottsdale-Shea/AZ/Scottsdale/85258/420,Scottsdale-Shea#420,open,9890 N 90th St,Scottsdale,,Arizona,AZ,85258,US,33.5771,-111.8879,America/Phoenix,,,480-767-9294,04,04013,04013216810,040132168101008,38060,429,ceo,census
421,,https://www.homedepot.com/l/Flagstaff-East/AZ/Flagstaff/86004/421,Flagstaff East#421,open,5005 E Marketplace Dr Ste 110,Flagstaff,,Arizona,AZ,86004,US,35.2224,-111.5723,America/Phoenix,,,928-526-1692,04,04005,04005000500,040050005001036,22380,,ceo,census
422,,https://www.homedepot.com/l/Payson/AZ/Payson/85541/422,Payson#422,open,2000 North Beeline Hwy,Payson,,Arizona,AZ,85541,US,34.2672,-111.3241,America/Phoenix,,,928-468-0339,04,04007,04007000302,040070003023000,37740,429,ceo,census
423,,https://www.homedepot.com/l/Cottonwood/AZ/Cottonwood/86326/423,Cottonwood#423,open,1030 South State Route 260,Cottonwood,,Arizona,AZ,86326,US,34.7209,-112.0028,America/Phoenix,,,928-649-3758,04,04025,04025002007,040250020071026,39150,,ceo,census
424,,https://www.homedepot.com/l/Peoria-Happy-Valley/AZ/Peoria/85383/424,Peoria/Happy Valley#424,open,25650 North Lake Pleasant Pkwy,Peoria,,Arizona,AZ,85383,US,33.7168,-112.2731,America/Phoenix,,,623-376-6735,04,04013,04013610902,040136109022032,38060,429,ceo,census
431,,https://www.homedepot.com/l/Prasada-South/AZ/Surprise/85388/431,Prasada South#431,open,16601 Cactus Rd,Surprise,,Arizona,AZ,85388,US,33.5936,-112.4161,America/Phoenix,,,602-735-2501,04,04013,04013061031,040130610312008,38060,429,ceo,census
432,,https://www.homedepot.com/l/Maricopa-Stonegate/AZ/Maricopa/85138/432,Maricopa (Stonegate)#432,open,42410 W. Maricopa-casa Grande Hwy,Maricopa,,Arizona,AZ,85138,US,33.042,-112.0214,America/Phoenix,,,520-607-5500,04,04021,04021001714,040210017142032,38060,429,ceo,fcc
441,,https://www.homedepot.com/l/Avondale/AZ/Avondale/85323/441,Avondale#441,open,1489 N Dysart Rd,Avondale,,Arizona,AZ,85323,US,33.4559,-112.3391,America/Phoenix,,,623-925-2896,04,04013,04013061200,040130612005007,38060,429,ceo,census
442,,https://www.homedepot.com/l/Bullhead-City/AZ/Bullhead-City/86429/442,Bullhead City#442,open,660 Az 95,Bullhead City,,Arizona,AZ,86429,US,35.1639,-114.5647,America/Phoenix,,,928-754-5600,04,04015,04015951404,040159514041041,29420,,ceo,census
443,,https://www.homedepot.com/l/Sierra-Vista/AZ/Sierra-Vista/85635/443,Sierra Vista#443,open,3500 Avenida Cochise,Sierra Vista,,Arizona,AZ,85635,US,31.5302,-110.2622,America/Phoenix,,,520-439-2806,04,04003,04003001801,040030018012023,43420,,ceo,census
445,,https://www.homedepot.com/l/Thatcher/AZ/Thatcher/85552/445,Thatcher#445,open,750 S 20th Avenue,Thatcher,,Arizona,AZ,85552,US,32.8329,-109.7345,America/Phoenix,,,928-348-3287,04,04009,04009961201,040099612012041,40940,,ceo,census
446,,https://www.homedepot.com/l/Prescott-Valley/AZ/Prescott-Valley/86314/446,Prescott Valley#446,open,5500 E State Route 69,Prescott Valley,,Arizona,AZ,86314,US,34.5754,-112.3694,America/Phoenix,,,928-777-2400,04,04025,04025000501,040250005011033,39150,,ceo,census
447,,https://www.homedepot.com/l/Phoenix-51st-baseline/AZ/Laveen/85339/447,Phoenix (51st/baseline)#447,open,5230 W Baseline Road,Laveen,,Arizona,AZ,85339,US,33.3793,-112.1723,America/Phoenix,,,602-605-8690,04,04013,04013116621,040131166211017,38060,429,ceo,census
452,,https://www.homedepot.com/l/Prescott/AZ/Prescott/86301/452,Prescott#452,open,1941 E,Prescott,,Arizona,AZ,86301,US,34.5503,-112.4294,America/Phoenix,,,928-771-8467,04,04025,04025000502,040250005023023,39150,,ceo,fcc
453,,https://www.homedepot.com/l/Peoria/AZ/Peoria/85345/453,Peoria#453,open,9201 W Peoria Ave,Peoria,,Arizona,AZ,85345,US,33.5794,-112.2568,America/Phoenix,,,623-412-1750,04,04013,04013071906,040130719061012,38060,429,ceo,census
455,,https://www.homedepot.com/l/Mcdowell/AZ/Phoenix/85035/455,Mcdowell#455,open,7333 W Mcdowell Rd,Phoenix,,Arizona,AZ,85035,US,33.4647,-112.2185,America/Phoenix,,,623-849-1200,04,04013,04013112524,040131125242000,38060,429,ceo,census
456,,https://www.homedepot.com/l/Superstition/AZ/Mesa/85209/456,Superstition#456,open,6838 E Superstition Springs Blvd,Mesa,,Arizona,AZ,85209,US,33.3853,-111.6834,America/Phoenix,,,480-981-6405,04,04013,04013422633,040134226332002,38060,429,ceo,census
457,,https://www.homedepot.com/l/Scottsdale/AZ/Scottsdale/85250/457,Scottsdale#457,open,9170 E Talking Stick Way,Scottsdale,,Arizona,AZ,85250,US,33.5405,-111.8837,America/Phoenix,,,480-951-8211,04,04013,04013941300,040139413001011,38060,429,ceo,fcc
458,,https://www.homedepot.com/l/Tempe/AZ/Tempe/85284/458,Tempe#458,open,725 W Warner Rd,Tempe,,Arizona,AZ,85284,US,33.3335,-111.9485,America/Phoenix,,,480-496-9700,04,04013,04013810000,040138100001004,38060,429,ceo,census
459,,https://www.homedepot.com/l/West-Bell-Rd/AZ/Glendale/85308/459,West Bell Rd#459,open,6880 W Bell Rd,Glendale,,Arizona,AZ,85308,US,33.6392,-112.2067,America/Phoenix,,,623-486-1550,04,04013,04013617900,040136179002000,38060,429,ceo,census
464,,https://www.homedepot.com/l/Tatum-Bell/AZ/Phoenix/85032/464,Tatum & Bell#464,open,16803 N Tatum Blvd,Phoenix,,Arizona,AZ,85032,US,33.6392,-111.9764,America/Phoenix,,,602-493-9600,04,04013,04013103216,040131032164004,38060,429,ceo,census
467,,https://www.homedepot.com/l/Irvington/AZ/Tucson/85714/467,Irvington#467,open,1155 W Irvington Rd,Tucson,,Arizona,AZ,85714,US,32.1614,-110.9869,America/Phoenix,,,520-294-1233,04,04019,04019003901,040190039011004,46060,536,ceo,census
468,,https://www.homedepot.com/l/Thunderbird/AZ/Phoenix/85023/468,Thunderbird#468,open,2650 W Thunderbird Rd,Phoenix,,Arizona,AZ,85023,US,33.6125,-112.1146,America/Phoenix,,,602-548-9600,04,04013,04013103609,040131036091009,38060,429,ceo,census
469,,https://www.homedepot.com/l/Mesa/AZ/Mesa/85210/469,Mesa#469,open,1740 S Country Club Dr,Mesa,,Arizona,AZ,85210,US,33.3831,-111.842,America/Phoenix,,,480-644-9111,04,04013,04013422203,040134222033006,38060,429,ceo,census
470,,https://www.homedepot.com/l/Chandler/AZ/Chandler/85224/470,Chandler#470,open,1155 W Chandler Blvd,Chandler,,Arizona,AZ,85224,US,33.3041,-111.8615,America/Phoenix,,,480-899-5013,04,04013,04013523103,040135231033001,38060,429,ceo,census
471,,https://www.homedepot.com/l/Gilbert/AZ/Gilbert/85296/471,Gilbert#471,open,745 S Val Vista Dr,Gilbert,,Arizona,AZ,85296,US,33.337,-111.754,America/Phoenix,,,480-497-1466,04,04013,04013422512,040134225122012,38060,429,ceo,census
472,,https://www.homedepot.com/l/North-Scottsdale/AZ/Scottsdale/85260/472,North Scottsdale#472,open,15499 N Hayden Rd,Scottsdale,,Arizona,AZ,85260,US,33.6254,-111.8967,America/Phoenix,,,480-991-3738,04,04013,04013216816,040132168162002,38060,429,ceo,census
473,,https://www.homedepot.com/l/North-Mesa/AZ/Mesa/85204/473,North Mesa#473,open,425 S Val Vista Dr,Mesa,,Arizona,AZ,85204,US,33.4074,-111.7535,America/Phoenix,,,480-396-0227,04,04013,04013422513,040134225132014,38060,429,ceo,census
474,,https://www.homedepot.com/l/Rita-Ranch/AZ/Tucson/85747/474,Rita Ranch#474,open,10072 E. Old Vail Road,Tucson,,Arizona,AZ,85747,US,32.089,-110.7764,America/Phoenix,,,520-697-7600,04,04019,04019004074,040190040741017,46060,536,ceo,census
475,,https://www.homedepot.com/l/Arrowhead-Ranch/AZ/Glendale/85308/475,Arrowhead Ranch#475,open,6160 W Behrend Dr,Glendale,,Arizona,AZ,85308,US,33.6667,-112.1908,America/Phoenix,,,623-376-0278,04,04013,04013615900,040136159002002,38060,429,ceo,census
476,,https://www.homedepot.com/l/Ray-Road/AZ/Chandler/85226/476,Ray Road#476,open,650 N 54th St,Chandler,,Arizona,AZ,85226,US,33.3136,-111.9708,America/Phoenix,,,480-753-3320,04,04013,04013810400,040138104002013,38060,429,ceo,census
477,,https://www.homedepot.com/l/Thomas-Rd/AZ/Phoenix/85018/477,Thomas Rd#477,open,3609 E Thomas Rd,Phoenix,,Arizona,AZ,85018,US,33.479,-112.0037,America/Phoenix,,,602-225-0980,04,04013,04013111402,040131114021000,38060,429,ceo,census
478,,https://www.homedepot.com/l/Marana-NW-Tucson/AZ/Tucson/85741/478,Marana (NW Tucson)#478,open,3925 W Costco Dr,Tucson,,Arizona,AZ,85741,US,32.3285,-111.0505,America/Phoenix,,,520-575-8750,04,04019,04019004613,040190046131016,46060,536,ceo,census
480,,https://www.homedepot.com/l/Cave-Creek/AZ/Phoenix/85022/480,Cave Creek#480,open,12434 N Cave Creek Rd,Phoenix,,Arizona,AZ,85022,US,33.5994,-112.0389,America/Phoenix,,,602-404-0574,04,04013,04013103701,040131037011008,38060,429,ceo,census
481,,https://www.homedepot.com/l/North-Tucson-Oro-Valley/AZ/Oro-Valley/85737/481,North Tucson (Oro Valley)#481,open,10855 N Oracle Rd,Oro Valley,,Arizona,AZ,85737,US,32.4028,-110.954,America/Phoenix,,,520-877-3533,04,04019,04019004642,040190046421009,46060,536,ceo,census
482,,https://www.homedepot.com/l/Flagstaff/AZ/Flagstaff/86001/482,Flagstaff#482,open,1325 N Rte 66,Flagstaff,,Arizona,AZ,86001,US,35.1878,-111.6696,America/Phoenix,,,928-556-1529,04,04005,04005001104,040050011041001,22380,,ceo,fcc
483,,https://www.homedepot.com/l/Surprise/AZ/Surprise/85374/483,Surprise#483,open,13760 W Bell Rd,Surprise,,Arizona,AZ,85374,US,33.6399,-112.3566,America/Phoenix,,,623-544-1129,04,04013,04013040531,040130405314000,38060,429,ceo,census
485,,https://www.homedepot.com/l/Camelback/AZ/Phoenix/85031/485,Camelback#485,open,4848 N 43rd Ave,Phoenix,,Arizona,AZ,85031,US,33.5076,-112.153,America/Phoenix,,,623-849-0125,04,04013,04013109300,040131093001000,38060,429,ceo,census
486,,https://www.homedepot.com/l/Central-Tucson-El-Con/AZ/Tucson/85716/486,Central Tucson (El Con)#486,open,3689 E Broadway Blvd,Tucson,,Arizona,AZ,85716,US,32.2246,-110.9151,America/Phoenix,,,520-327-3050,04,04019,04019001900,040190019002004,46060,536,ceo,census
488,,https://www.homedepot.com/l/Carefree/AZ/Cave-Creek/85331/488,Carefree#488,open,4925 E Carefree Hwy,Cave Creek,,Arizona,AZ,85331,US,33.7972,-111.9748,America/Phoenix,,,480-488-0281,04,04013,04013612500,040136125002016,38060,429,ceo,census
489,,https://www.homedepot.com/l/Tempe-K/AZ/Tempe/85283/489,Tempe (K)#489,open,1330 West Baseline Road,Tempe,,Arizona,AZ,85283,US,33.3798,-111.9597,America/Phoenix,,,480-775-6404,04,04013,04013319706,040133197063003,38060,429,ceo,census
6862,,https://www.homedepot.com/l/Mesa/AZ/Mesa/85201/6862,Mesa#6862,open,853 N Dobson Road,Mesa,,Arizona,AZ,85201,US,33.4308,-111.8678,America/Phoenix,,,480-461-0251,04,04013,04013421201,040134212011025,38060,429,ceo,census
6948,,https://www.homedepot.com/l/Tramonto/AZ/Phoenix/85086/6948,Tramonto#6948,open,35050 N North Valley Parkway,Phoenix,,Arizona,AZ,85086,US,33.8023,-112.1338,America/Phoenix,,,623-587-9222,04,04013,04013610600,040136106002018,38060,429,ceo,census
8488,,https://www.homedepot.com/l/Nogales/AZ/Nogales/85621/8488,Nogales#8488,open,430 White Park Drive,Nogales,,Arizona,AZ,85621,US,31.3593,-110.9382,America/Phoenix,,,520-375-6545,04,04023,04023966401,040239664012008,35700,536,ceo,fcc
8582,,https://www.homedepot.com/l/Chandler-Germann-Rd/AZ/Chandler/85286/8582,Chandler/Germann Rd#8582,open,2530 E Germann Rd,Chandler,,Arizona,AZ,85286,US,33.2818,-111.797,America/Phoenix,,,480-786-5402,04,04013,04013812400,040138124005005,38060,429,ceo,census
1401,,https://www.homedepot.com/l/West-Little-Rock/AR/Little-Rock/72211/1401,West Little Rock#1401,open,12610 Chenal Pkwy,Little Rock,,Arkansas,AR,72211,US,34.7561,-92.413,America/Chicago,,,501-219-9600,05,05119,05119004222,051190042222002,30780,340,ceo,census
1402,,https://www.homedepot.com/l/North-Little-Rock/AR/North-Little-Rock/72117/1402,North Little Rock#1402,open,4325 E Mccain Blvd,North Little Rock,,Arkansas,AR,72117,US,34.7906,-92.2173,America/Chicago,,,501-945-3500,05,05119,05119003800,051190038003045,30780,340,ceo,fcc
1403,,https://www.homedepot.com/l/Fayetteville/AR/Fayetteville/72703/1403,Fayetteville#1403,open,675 E Joyce Blvd,Fayetteville,,Arkansas,AR,72703,US,36.121,-94.1482,America/Chicago,,,479-571-4700,05,05143,05143010511,051430105112008,22220,,ceo,census
1404,,https://www.homedepot.com/l/Fort-Smith/AR/Fort-Smith/72903/1404,Fort Smith#1404,open,5101 Phoenix Avenue,Fort Smith,,Arkansas,AR,72903,US,35.3399,-94.3781,America/Chicago,,,479-649-5888,05,05131,05131001102,051310011023004,22900,,ceo,census
1405,,https://www.homedepot.com/l/Benton/AR/Benton/72019/1405,Benton#1405,open,17060 Interstate 30,Benton,,Arkansas,AR,72019,US,34.5782,-92.5859,America/Chicago,,,501-860-6288,05,05125,05125010302,051250103022029,30780,340,ceo,census
1406,,https://www.homedepot.com/l/Jonesboro/AR/Jonesboro/72404/1406,Jonesboro#1406,open,711 E Parker Rd,Jonesboro,,Arkansas,AR,72404,US,35.8058,-90.7037,America/Chicago,,,870-268-0619,05,05031,05031000805,050310008051007,27860,308,ceo,census
1407,,https://www.homedepot.com/l/Conway/AR/Conway/72032/1407,Conway#1407,open,500 Elsinger Blvd,Conway,,Arkansas,AR,72032,US,35.0853,-92.4111,America/Chicago,,,501-329-6763,05,05045,05045030404,050450304041014,30780,340,ceo,census
1409,,https://www.homedepot.com/l/Harrison/AR/Harrison/72601/1409,Harrison#1409,open,312 Hester Drive,Harrison,,Arkansas,AR,72601,US,36.2604,-93.1358,America/Chicago,,,870-741-2900,05,05009,05009790501,050097905013012,25460,,ceo,census
1410,,https://www.homedepot.com/l/Mountain-Home/AR/Mountain-Home/72653/1410,Mountain Home#1410,open,100 Pendella Drive,Mountain Home,,Arkansas,AR,72653,US,36.3524,-92.3367,America/Chicago,,,870-492-2270,05,05005,05005950200,050059502002039,34260,,ceo,census
1411,,https://www.homedepot.com/l/Batesville/AR/Batesville/72501/1411,Batesville#1411,open,3000 E Harrison St,Batesville,,Arkansas,AR,72501,US,35.7627,-91.6176,America/Chicago,,,870-307-0300,05,05063,05063490500,050634905001010,12900,,ceo,census
1412,,https://www.homedepot.com/l/Cabot/AR/Cabot/72023/1412,Cabot#1412,open,555 Going Road,Cabot,,Arkansas,AR,72023,US,34.9764,-92.0346,America/Chicago,,,501-941-4350,05,05085,05085020204,050850202042006,30780,340,ceo,census
8445,,https://www.homedepot.com/l/Rogers/AR/Rogers/72758/8445,Rogers#8445,open,1701 S 46th Street,Rogers,,Arkansas,AR,72758,US,36.318,-94.1829,America/Chicago,,,479-619-2730,05,05007,05007020401,050070204012053,22220,,ceo,census
8537,,https://www.homedepot.com/l/El-Dorado/AR/El-Dorado/71730/8537,El Dorado#8537,open,507 West 19th St,El Dorado,,Arkansas,AR,71730,US,33.2353,-92.6686,America/Chicago,,,870-875-1427,05,05139,05139950700,051399507002015,20980,,ceo,census
8919,,https://www.homedepot.com/l/S-Little-Rock/AR/Little-Rock/72209/8919,S Little Rock#8919,open,11 Mabelvale Plaza Lane,Little Rock,,Arkansas,AR,72209,US,34.6654,-92.3836,America/Chicago,,,501-565-7168,05,05119,05119004105,051190041052006,30780,340,ceo,census
601,,https://www.homedepot.com/l/Corona/CA/Corona/92879/601,Corona#601,open,490 Mckinley St,Corona,,California,CA,92879,US,33.8854,-117.525,America/Los_Angeles,,,951-278-9600,06,06065,06065040821,060650408214000,40140,348,ceo,census
603,,https://www.homedepot.com/l/Tustin/CA/Tustin/92782/603,Tustin#603,open,2782 El Camino Real,Tustin,,California,CA,92782,US,33.7244,-117.7964,America/Los_Angeles,,,714-838-9200,06,06059,06059052524,060590525245027,31080,348,ceo,census
606,,https://www.homedepot.com/l/Santa-Ana/CA/Santa-Ana/92704/606,Santa Ana#606,open,3500 W Macarthur Blvd,Santa Ana,,California,CA,92704,US,33.7006,-117.9165,America/Los_Angeles,,,714-966-8551,06,06059,06059074106,060590741063011,31080,348,ceo,census
607,,https://www.homedepot.com/l/Industry/CA/City-Of-Industry/91748/607,Industry#607,open,18131 Gale Ave,City of Industry,,California,CA,91748,US,33.9959,-117.9081,America/Los_Angeles,,,626-965-5317,06,06037,06037980035,060379800351152,31080,348,ceo,census
608,,https://www.homedepot.com/l/Cerritos/CA/Cerritos/90703/608,Cerritos#608,open,10930 Alondra Blvd,Cerritos,,California,CA,90703,US,33.8859,-118.1011,America/Los_Angeles,,,562-809-1966,06,06037,06037554521,060375545213001,31080,348,ceo,fcc
609,,https://www.homedepot.com/l/San-Fernando/CA/San-Fernando/91340/609,San Fernando#609,open,12960 Foothill Blvd,San Fernando,,California,CA,91340,US,34.2942,-118.4188,America/Los_Angeles,,,818-365-7662,06,06037,06037320102,060373201022001,31080,348,ceo,fcc
610,,https://www.homedepot.com/l/South-San-Bernardino/CA/San-Bernardino/92408/610,South San Bernardino#610,open,695 E Hospitality Ln,San Bernardino,,California,CA,92408,US,34.0649,-117.2708,America/Los_Angeles,,,909-884-4055,06,06071,06071007202,060710072022042,40140,348,ceo,census
611,,https://www.homedepot.com/l/Gardena/CA/Gardena/90248/611,Gardena#611,open,740 182nd St,Gardena,,California,CA,90248,US,33.8683,-118.2868,America/Los_Angeles,,,310-324-7100,06,06037,06037291300,060372913002007,31080,348,ceo,census
612,,https://www.homedepot.com/l/Canoga-Park/CA/Canoga-Park/91304/612,Canoga Park#612,open,21218 Roscoe Blvd,Canoga Park,,California,CA,91304,US,34.2188,-118.5942,America/Los_Angeles,,,818-348-9400,06,06037,06037134201,060371342013005,31080,348,ceo,census
614,,https://www.homedepot.com/l/Mission-Viejo/CA/Mission-Viejo/92692/614,Mission Viejo#614,open,27952 Hillcrest,Mission Viejo,,California,CA,92692,US,33.5569,-117.6601,America/Los_Angeles,,,949-364-1900,06,06059,06059032022,060590320224003,31080,348,ceo,census
615,,https://www.homedepot.com/l/Orange/CA/Orange/92867/615,Orange#615,open,435 W Katella Ave,Orange,,California,CA,92867,US,33.8107,-117.8568,America/Los_Angeles,,,714-538-9600,06,06059,06059076204,060590762043008,31080,348,ceo,census
616,,https://www.homedepot.com/l/Moreno-Valley/CA/Moreno-Valley/92557/616,Moreno Valley#616,open,12255 Pigeon Pass Rd,Moreno Valley,,California,CA,92557,US,33.9429,-117.2626,America/Los_Angeles,,,951-242-7055,06,06065,06065042212,060650422121009,40140,348,ceo,census
618,,https://www.homedepot.com/l/Torrance/CA/Torrance/90505/618,Torrance#618,open,24451 Crenshaw Blvd,Torrance,,California,CA,90505,US,33.8033,-118.3304,America/Los_Angeles,,,310-325-9600,06,06037,06037651101,060376511012044,31080,348,ceo,census
620,,https://www.homedepot.com/l/Hawthorne/CA/Hawthorne/90250/620,Hawthorne#620,open,14603 Ocean Gate Ave,Hawthorne,,California,CA,90250,US,33.8987,-118.369,America/Los_Angeles,,,310-644-9600,06,06037,06037602301,060376023015003,31080,348,ceo,census
625,,https://www.homedepot.com/l/San-Leandro/CA/San-Leandro/94577/625,San Leandro#625,open,1933 Davis St,San Leandro,,California,CA,94577,US,37.7165,-122.1792,America/Los_Angeles,,,510-636-9600,06,06001,06001432400,060014324001012,41860,488,ceo,census
627,,https://www.homedepot.com/l/Emeryville/CA/Emeryville/94608/627,Emeryville#627,open,3838 Hollis Ave,Emeryville,,California,CA,94608,US,37.8285,-122.284,America/Los_Angeles,,,510-601-9400,06,06001,06001425104,060014251043001,41860,488,ceo,fcc
628,,https://www.homedepot.com/l/San-Carlos/CA/San-Carlos/94070/628,San Carlos#628,open,1125 Old Cty Rd,San Carlos,,California,CA,94070,US,37.5011,-122.2502,America/Los_Angeles,,,650-592-9200,06,06081,06081609100,060816091002022,41860,488,ceo,census
629,,https://www.homedepot.com/l/Pleasanton/CA/Pleasanton/94588/629,Pleasanton#629,open,6000 Johnson Dr,Pleasanton,,California,CA,94588,US,37.699,-121.9085,America/Los_Angeles,,,925-847-9200,06,06001,06001450603,060014506034007,41860,488,ceo,census
630,,https://www.homedepot.com/l/Santa-Clara/CA/Santa-Clara/95050/630,Santa Clara#630,open,2435 Lafayette St,Santa Clara,,California,CA,95050,US,37.3653,-121.9482,America/Los_Angeles,,,408-492-9600,06,06085,06085505202,060855052022060,41940,488,ceo,fcc
632,,https://www.homedepot.com/l/San-Mateo/CA/San-Mateo/94404/632,San Mateo#632,open,2001 Chess Dr,San Mateo,,California,CA,94404,US,37.5638,-122.2808,America/Los_Angeles,,,650-525-9343,06,06081,06081607900,060816079003007,41860,488,ceo,census
633,,https://www.homedepot.com/l/Vallejo/CA/Vallejo/94591/633,Vallejo#633,open,1175 Admiral Callaghan Ln,Vallejo,,California,CA,94591,US,38.1365,-122.2171,America/Los_Angeles,,,707-552-9600,06,06095,06095250105,060952501052012,46700,488,ceo,census
634,,https://www.homedepot.com/l/Concord/CA/Concord/94520/634,Concord#634,open,2090 Meridan Park Blvd,Concord,,California,CA,94520,US,37.9754,-122.0545,America/Los_Angeles,,,925-798-9600,06,06013,06013327001,060133270012035,41860,488,ceo,census
635,,https://www.homedepot.com/l/Union-City/CA/Union-City/94587/635,Union City#635,open,30055 Industrial Pkwy,Union City,,California,CA,94587,US,37.6038,-122.0824,America/Los_Angeles,,,510-489-9400,06,06001,06001440333,060014403331001,41860,488,ceo,census
636,,https://www.homedepot.com/l/Roseville/CA/Roseville/95661/636,Roseville#636,open,324 N Sunrise Ave,Roseville,,California,CA,95661,US,38.7535,-121.2632,America/Los_Angeles,,,916-782-9600,06,06061,06061020717,060610207171018,40900,472,ceo,census
637,,https://www.homedepot.com/l/Fairfield/CA/Fairfield/94533/637,Fairfield#637,open,2121 Cadenasso Dr,Fairfield,,California,CA,94533,US,38.2472,-122.0701,America/Los_Angeles,,,707-426-9600,06,06095,06095252402,060952524022007,46700,488,ceo,census
638,,https://www.homedepot.com/l/Palmdale/CA/Palmdale/93551/638,Palmdale#638,open,340 W Avenue P,Palmdale,,California,CA,93551,US,34.6016,-118.1349,America/Los_Angeles,,,661-266-9600,06,06037,06037910218,060379102182008,31080,348,ceo,census
639,,https://www.homedepot.com/l/Colma-II/CA/Colma/94014/639,Colma II#639,open,2 Colma Blvd,Colma,,California,CA,94014,US,37.6754,-122.4669,America/Los_Angeles,,,650-755-9600,06,06081,06081601601,060816016011011,41860,488,ceo,census
640,,https://www.homedepot.com/l/Kifer-Rd/CA/Sunnyvale/94086/640,Kifer Rd#640,open,680 Kifer Rd,Sunnyvale,,California,CA,94086,US,37.3757,-122.0162,America/Los_Angeles,,,408-245-3686,06,06085,06085508708,060855087081068,41940,488,ceo,fcc
641,,https://www.homedepot.com/l/Rohnert-Park/CA/Rohnert-Park/94928/641,Rohnert Park#641,open,4825 Redwood Dr,Rohnert Park,,California,CA,94928,US,38.3652,-122.7161,America/Los_Angeles,,,707-585-9200,06,06097,06097153202,060971532023008,42220,,ceo,census
642,,https://www.homedepot.com/l/Campbell/CA/Campbell/95008/642,Campbell#642,open,480 E Hamilton Ave,Campbell,,California,CA,95008,US,37.2924,-121.9413,America/Los_Angeles,,,408-866-1900,06,06085,06085506502,060855065021004,41940,488,ceo,census
643,,https://www.homedepot.com/l/El-Cerrito/CA/El-Cerrito/94530/643,El Cerrito#643,open,11939 San Pablo Ave,El Cerrito,,California,CA,94530,US,37.9297,-122.3229,America/Los_Angeles,,,510-235-0800,06,06013,06013386000,060133860001003,41860,488,ceo,census
644,,https://www.homedepot.com/l/Pittsburg/CA/Pittsburg/94565/644,Pittsburg#644,open,2300 N Park Blvd,Pittsburg,,California,CA,94565,US,38.0115,-121.8591,America/Los_Angeles,,,925-473-1900,06,06013,06013312000,060133120001022,41860,488,ceo,census
645,,https://www.homedepot.com/l/Rancho-Cucamonga/CA/Rancho-Cucamonga/91730/645,Rancho Cucamonga#645,open,11884 Foothill Blvd,Rancho Cucamonga,,California,CA,91730,US,34.1089,-117.5466,America/Los_Angeles,,,909-948-9200,06,06071,06071002050,060710020501003,40140,348,ceo,census
647,,https://www.homedepot.com/l/Westminster/CA/Westminster/92683/647,Westminster#647,open,6633 Westminister Blvd,Westminster,,California,CA,92683,US,33.7612,-118.0128,America/Los_Angeles,,,714-373-5333,06,06059,06059099903,060590999032007,31080,348,ceo,census
648,,https://www.homedepot.com/l/Signal-Hill/CA/Signal-Hill/90755/648,Signal Hill#648,open,2450 Cherry Ave,Signal Hill,,California,CA,90755,US,33.8018,-118.1659,America/Los_Angeles,,,562-595-9200,06,06037,06037573403,060375734031002,31080,348,ceo,census
649,,https://www.homedepot.com/l/Glendale/CA/Glendale/91204/649,Glendale#649,open,5040 San Fernando Rd,Glendale,,California,CA,91204,US,34.143,-118.2679,America/Los_Angeles,,,818-246-9600,06,06037,06037302301,060373023011004,31080,348,ceo,census
650,,https://www.homedepot.com/l/Carmichael/CA/Carmichael/95608/650,Carmichael#650,open,6001 Madison Ave,Carmichael,,California,CA,95608,US,38.663,-121.3262,America/Los_Angeles,,,916-344-9600,06,06067,06067008117,060670081172015,40900,472,ceo,census
651,,https://www.homedepot.com/l/Florin-Rd/CA/Sacramento/95823/651,Florin Rd#651,open,4641 Florin Rd,Sacramento,,California,CA,95823,US,38.4977,-121.4525,America/Los_Angeles,,,916-393-9500,06,06067,06067004502,060670045023006,40900,472,ceo,census
652,,https://www.homedepot.com/l/Rancho-Cordova/CA/Rancho-Cordova/95742/652,Rancho Cordova#652,open,2756 Sunrise Blvd,Rancho Cordova,,California,CA,95742,US,38.6005,-121.2681,America/Los_Angeles,,,916-852-0900,06,06067,06067009010,060670090104002,40900,472,ceo,census
653,,https://www.homedepot.com/l/Santa-Clarita/CA/Santa-Clarita/91351/653,Santa Clarita#653,open,20642 Golden Triangle Rd,Santa Clarita,,California,CA,91351,US,34.4192,-118.497,America/Los_Angeles,,,661-252-7800,06,06037,06037920030,060379200301003,31080,348,ceo,census
654,,https://www.homedepot.com/l/Commerce/CA/Commerce/90040/654,Commerce#654,open,7015 Telegraph Rd,Commerce,,California,CA,90040,US,33.9867,-118.1349,America/Los_Angeles,,,323-727-9600,06,06037,06037532304,060375323042000,31080,348,ceo,census
657,,https://www.homedepot.com/l/San-Rafael/CA/San-Rafael/94901/657,San Rafael#657,open,111 Shoreline Pkwy,San Rafael,,California,CA,94901,US,37.9533,-122.4927,America/Los_Angeles,,,415-458-8675,06,06041,06041112202,060411122022001,41860,488,ceo,census
658,,https://www.homedepot.com/l/Chula-Vista/CA/Chula-Vista/91910/658,Chula Vista#658,open,725 Plz Court,Chula Vista,,California,CA,91910,US,32.6375,-117.032,America/Los_Angeles,,,619-421-6200,06,06073,06073013420,060730134202006,41740,,ceo,census
659,,https://www.homedepot.com/l/Lemon-Grove/CA/Lemon-Grove/91945/659,Lemon Grove#659,open,7530 Broadway,Lemon Grove,,California,CA,91945,US,32.7434,-117.0358,America/Los_Angeles,,,619-589-2999,06,06073,06073014400,060730144002008,41740,,ceo,census
660,,https://www.homedepot.com/l/Encinitas/CA/Encinitas/92024/660,Encinitas#660,open,1001 N El Camino Real,Encinitas,,California,CA,92024,US,33.0647,-117.2611,America/Los_Angeles,,,760-943-9600,06,06073,06073017107,060730171072003,41740,,ceo,census
662,,https://www.homedepot.com/l/Stockton/CA/Stockton/95212/662,Stockton#662,open,3818 E Hammer Ln,Stockton,,California,CA,95212,US,38.0201,-121.266,America/Los_Angeles,,,209-476-9600,06,06077,06077003504,060770035043011,44700,488,ceo,census
663,,https://www.homedepot.com/l/Fresno/CA/Fresno/93711/663,Fresno#663,open,3272 W Shaw Ave,Fresno,,California,CA,93711,US,36.8098,-119.8505,America/Los_Angeles,,,559-277-9600,06,06019,06019004212,060190042125002,23420,260,ceo,census
664,,https://www.homedepot.com/l/Clovis/CA/Clovis/93612/664,Clovis#664,open,845 W Shaw Avenue,Clovis,,California,CA,93612,US,36.8101,-119.7283,America/Los_Angeles,,,559-294-9600,06,06019,06019005608,060190056082013,23420,260,ceo,census
665,,https://www.homedepot.com/l/Victorville/CA/Victorville/92395/665,Victorville#665,open,15150 Bear Valley Rd,Victorville,,California,CA,92395,US,34.4729,-117.333,America/Los_Angeles,,,760-955-2999,06,06071,06071010036,060710100361021,40140,348,ceo,census
667,,https://www.homedepot.com/l/Rancho-Mirage/CA/Rancho-Mirage/92270/667,Rancho Mirage#667,open,34249 Monterey Ave,Rancho Mirage,,California,CA,92270,US,33.7988,-116.3891,America/Los_Angeles,,,760-324-0100,06,06065,06065044921,060650449212018,40140,348,ceo,census
668,,https://www.homedepot.com/l/Murrieta/CA/Murrieta/92562/668,Murrieta#668,open,25100 Madison Ave,Murrieta,,California,CA,92562,US,33.5568,-117.1979,America/Los_Angeles,,,951-698-1555,06,06065,06065049800,060650498002000,40140,348,ceo,census
669,,https://www.homedepot.com/l/Carmel-Mtn/CA/San-Diego/92128/669,Carmel Mtn#669,open,12185 Carmel Mountain Rd,San Diego,,California,CA,92128,US,32.9847,-117.0747,America/Los_Angeles,,,858-592-9600,06,06073,06073017055,060730170553001,41740,,ceo,census
671,,https://www.homedepot.com/l/Imperial-Beach/CA/San-Diego/92154/671,Imperial Beach#671,open,525 Saturn Blvd,San Diego,,California,CA,92154,US,32.587,-117.0917,America/Los_Angeles,,,619-575-1900,06,06073,06073010103,060730101031032,41740,,ceo,census
673,,https://www.homedepot.com/l/Santee/CA/Santee/92071/673,Santee#673,open,255 Town Ctr  Pky,Santee,,California,CA,92071,US,32.841,-116.9848,America/Los_Angeles,,,619-258-9600,06,06073,06073016614,060730166141009,41740,,ceo,census
674,,https://www.homedepot.com/l/Sports-Arena/CA/San-Diego/92110/674,Sports Arena#674,open,3555 Sports Arena Blvd,San Diego,,California,CA,92110,US,32.7526,-117.2134,America/Los_Angeles,,,619-224-9200,06,06073,06073006500,060730065001022,41740,,ceo,census
679,,https://www.homedepot.com/l/Oceanside/CA/Oceanside/92056/679,Oceanside#679,open,3838 W Vista Way,Oceanside,,California,CA,92056,US,33.185,-117.2952,America/Los_Angeles,,,760-941-5990,06,06073,06073018517,060730185173000,41740,,ceo,census
680,,https://www.homedepot.com/l/Genesee/CA/San-Diego/92117/680,Genesee#680,open,4255 Genesee Ave,San Diego,,California,CA,92117,US,32.8228,-117.1816,America/Los_Angeles,,,858-277-8910,06,06073,06073008507,060730085074001,41740,,ceo,census
683,,https://www.homedepot.com/l/San-Bernardino/CA/San-Bernardino/92405/683,San Bernardino#683,open,1055 W 21st St,San Bernardino,,California,CA,92405,US,34.133,-117.307,America/Los_Angeles,,,909-881-1851,06,06071,06071004604,060710046041012,40140,348,ceo,census
684,,https://www.homedepot.com/l/La-Mirada/CA/La-Mirada/90638/684,La Mirada#684,open,12300 La Mirada Blvd,La Mirada,,California,CA,90638,US,33.9186,-118.0096,America/Los_Angeles,,,562-947-3742,06,06037,06037503601,060375036011009,31080,348,ceo,census
687,,https://www.homedepot.com/l/Upland/CA/Upland/91786/687,Upland#687,open,250 S Mountain Ave,Upland,,California,CA,91786,US,34.0912,-117.67,America/Los_Angeles,,,909-949-4119,06,06071,06071000826,060710008262002,40140,348,ceo,census
1001,,https://www.homedepot.com/l/Turlock/CA/Turlock/95380/1001,Turlock#1001,open,2800 Countryside Dr,Turlock,,California,CA,95380,US,37.5189,-120.8776,America/Los_Angeles,,,209-656-1911,06,06099,06099003805,060990038051011,33700,488,ceo,census
1002,,https://www.homedepot.com/l/Huntington-Park/CA/Huntington-Park/90255/1002,Huntington Park#1002,open,3040 Slauson Ave,Huntington Park,,California,CA,90255,US,33.9878,-118.2147,America/Los_Angeles,,,323-587-5520,06,06037,06037532500,060375325003002,31080,348,ceo,census
1003,,https://www.homedepot.com/l/Meadowview/CA/Sacramento/95832/1003,Meadowview#1003,open,1461 Meadowview Rd,Sacramento,,California,CA,95832,US,38.4828,-121.5028,America/Los_Angeles,,,916-399-9905,06,06067,06067004201,060670042012005,40900,472,ceo,census
1005,,https://www.homedepot.com/l/San-Pedro/CA/San-Pedro/90731/1005,San Pedro#1005,open,2115 N Gaffey St,San Pedro,,California,CA,90731,US,33.7651,-118.2946,America/Los_Angeles,,,310-221-0257,06,06037,06037295103,060372951031002,31080,348,ceo,census
1006,,https://www.homedepot.com/l/Manteca/CA/Manteca/95336/1006,Manteca#1006,open,250 Commerce Ave,Manteca,,California,CA,95336,US,37.7946,-121.1923,America/Los_Angeles,,,209-825-9139,06,06077,06077005140,060770051403001,44700,488,ceo,census
1007,,https://www.homedepot.com/l/Oakland/CA/Oakland/94601/1007,Oakland#1007,open,4000 Alameda Ave,Oakland,,California,CA,94601,US,37.7694,-122.2236,America/Los_Angeles,,,510-533-7379,06,06001,06001406100,060014061002019,41860,488,ceo,census
1009,,https://www.homedepot.com/l/Hillsdale/CA/San-Jose/95124/1009,Hillsdale#1009,open,1855 Hillsdale Ave,San Jose,,California,CA,95124,US,37.2632,-121.9209,America/Los_Angeles,,,408-978-6807,06,06085,06085502902,060855029023023,41940,488,ceo,census
1010,,https://www.homedepot.com/l/Inglewood/CA/Inglewood/90303/1010,Inglewood#1010,open,3363 Century Blvd,Inglewood,,California,CA,90303,US,33.9473,-118.3305,America/Los_Angeles,,,310-677-1944,06,06037,06037600702,060376007023000,31080,348,ceo,census
1012,,https://www.homedepot.com/l/Camarillo/CA/Camarillo/93010/1012,Camarillo#1012,open,401 W Ventura Blvd,Camarillo,,California,CA,93010,US,34.2179,-119.0787,America/Los_Angeles,,,805-389-9918,06,06111,06111005602,061110056023017,37100,348,ceo,census
1013,,https://www.homedepot.com/l/Redlands/CA/Redlands/92374/1013,Redlands#1013,open,1151 W Lugoina Ave,Redlands,,California,CA,92374,US,34.0687,-117.198,America/Los_Angeles,,,909-748-0505,06,06071,06071008004,060710080042021,40140,348,ceo,census
1014,,https://www.homedepot.com/l/N-Fresno/CA/Fresno/93720/1014,N Fresno#1014,open,7150 N Abbey St,Fresno,,California,CA,93720,US,36.8406,-119.7867,America/Los_Angeles,,,559-431-9860,06,06019,06019004404,060190044042003,23420,260,ceo,census
1017,,https://www.homedepot.com/l/Hayward/CA/Hayward/94541/1017,Hayward#1017,open,21787 Hesperian Blvd,Hayward,,California,CA,94541,US,37.6632,-122.1179,America/Los_Angeles,,,510-887-8544,06,06001,06001437101,060014371014004,41860,488,ceo,census
1018,,https://www.homedepot.com/l/North-Oceanside/CA/Oceanside/92057/1018,North Oceanside#1018,open,5755 Mission Ave,Oceanside,,California,CA,92057,US,33.2501,-117.2656,America/Los_Angeles,,,760-945-8686,06,06073,06073019303,060730193032000,41740,,ceo,fcc
1019,,https://www.homedepot.com/l/Yuba-City/CA/Yuba-City/95993/1019,Yuba City#1019,open,1100 Tharp Rd,Yuba City,,California,CA,95993,US,39.1439,-121.6504,America/Los_Angeles,,,530-755-1715,06,06101,06101050601,061010506014002,49700,472,ceo,census
1020,,https://www.homedepot.com/l/Tracy/CA/Tracy/95304/1020,Tracy#1020,open,2461 Naglee Rd,Tracy,,California,CA,95304,US,37.7564,-121.4681,America/Los_Angeles,,,209-834-8975,06,06077,06077005225,060770052252002,44700,488,ceo,census
1022,,https://www.homedepot.com/l/West-Stockton/CA/Stockton/95219/1022,West Stockton#1022,open,5010 Feather River Dr,Stockton,,California,CA,95219,US,37.987,-121.3471,America/Los_Angeles,,,209-474-8285,06,06077,06077003118,060770031182002,44700,488,ceo,census
1028,,https://www.homedepot.com/l/Temecula/CA/Temecula/92592/1028,Temecula#1028,open,32020 Temecula Parkway,Temecula,,California,CA,92592,US,33.4828,-117.0987,America/Los_Angeles,,,951-303-6768,06,06065,06065043265,060650432654013,40140,348,ceo,census
1030,,https://www.homedepot.com/l/Eastlake/CA/Chula-Vista/91915/1030,Eastlake#1030,open,1320 Eastlake Parkway,Chula Vista,,California,CA,91915,US,32.6333,-116.9698,America/Los_Angeles,,,619-421-0639,06,06073,06073013316,060730133164001,41740,,ceo,census
1031,,https://www.homedepot.com/l/Atascadero/CA/Atascadero/93422/1031,Atascadero#1031,open,905 El Camino Real,Atascadero,,California,CA,93422,US,35.5263,-120.7007,America/Los_Angeles,,,805-464-0960,06,06079,06079012505,060790125051011,42020,,ceo,census
1032,,https://www.homedepot.com/l/Imperial-Marketplace/CA/San-Diego/92113/1032,Imperial Marketplace#1032,open,355 Marketplace Ave,San Diego,,California,CA,92113,US,32.7023,-117.1013,America/Los_Angeles,,,619-263-1533,06,06073,06073003301,060730033012003,41740,,ceo,census
1034,,https://www.homedepot.com/l/Otay-Mesa/CA/San-Diego/92154/1034,Otay Mesa#1034,open,950 Dennery Rd,San Diego,,California,CA,92154,US,32.5765,-117.0372,America/Los_Angeles,,,619-428-8662,06,06073,06073010017,060730100172001,41740,,ceo,census
1037,,https://www.homedepot.com/l/Paramount/CA/Paramount/90723/1037,Paramount#1037,open,6400 Alondra Blvd,Paramount,,California,CA,90723,US,33.8882,-118.1852,America/Los_Angeles,,,562-272-8055,06,06037,06037553802,060375538023003,31080,348,ceo,census
1039,,https://www.homedepot.com/l/Hyde-Park/CA/Los-Angeles/90047/1039,Hyde Park#1039,open,1830 W Slauson Ave,Los Angeles,,California,CA,90047,US,33.9875,-118.3121,America/Los_Angeles,,,323-292-1397,06,06037,06037237202,060372372022001,31080,348,ceo,census
1040,,https://www.homedepot.com/l/Oxnard/CA/Oxnard/93036/1040,Oxnard#1040,open,401 W Esplandade Dr,Oxnard,,California,CA,93036,US,34.2355,-119.178,America/Los_Angeles,,,805-983-0653,06,06111,06111009200,061110092002000,37100,348,ceo,census
1041,,https://www.homedepot.com/l/West-Milpitas/CA/Milpitas/95035/1041,West Milpitas#1041,open,1177 Great Mall Dr,Milpitas,,California,CA,95035,US,37.4154,-121.9012,America/Los_Angeles,,,408-942-7301,06,06085,06085504510,060855045101014,41940,488,ceo,fcc
1043,,https://www.homedepot.com/l/Vacaville/CA/Vacaville/95687/1043,Vacaville#1043,open,510 Orange Dr,Vacaville,,California,CA,95687,US,38.3746,-121.9484,America/Los_Angeles,,,707-454-0714,06,06095,06095252911,060952529112018,46700,488,ceo,fcc
1044,,https://www.homedepot.com/l/Hercules/CA/Hercules/94547/1044,Hercules#1044,open,1625 Sycamore Ave,Hercules,,California,CA,94547,US,38.0108,-122.2684,America/Los_Angeles,,,510-245-9572,06,06013,06013359203,060133592032018,41860,488,ceo,census
1048,,https://www.homedepot.com/l/Wilshire-Union/CA/Los-Angeles/90017/1048,Wilshire/Union#1048,open,1675 Wilshire Blvd,Los Angeles,,California,CA,90017,US,34.0569,-118.2707,America/Los_Angeles,,,213-273-8464,06,06037,06037208902,060372089022001,31080,348,ceo,census
1050,,https://www.homedepot.com/l/Bakersfield-Central/CA/Bakersfield/93309/1050,Bakersfield Central#1050,open,4001 Ming Ave,Bakersfield,,California,CA,93309,US,35.3385,-119.0489,America/Los_Angeles,,,661-837-4860,06,06029,06029002814,060290028142000,12540,,ceo,census
1052,,https://www.homedepot.com/l/San-Luis-Obispo/CA/San-Luis-Obispo/93405/1052,San Luis Obispo#1052,open,1551 Froom Ranch Way,San Luis Obispo,,California,CA,93405,US,35.2503,-120.6896,America/Los_Angeles,,,805-596-0857,06,06079,06079011300,060790113001013,42020,,ceo,census
1053,,https://www.homedepot.com/l/Escondido-II/CA/Escondido/92027/1053,Escondido II#1053,open,1475 E Valley Pkwy,Escondido,,California,CA,92027,US,33.1307,-117.0612,America/Los_Angeles,,,760-233-1285,06,06073,06073020211,060730202112019,41740,,ceo,census
1055,,https://www.homedepot.com/l/Newhall/CA/Santa-Clarita/91355/1055,Newhall#1055,open,28033 Newhall Ranch Rd,Santa Clarita,,California,CA,91355,US,34.4408,-118.5737,America/Los_Angeles,,,661-702-9925,06,06037,06037920121,060379201212024,31080,348,ceo,census
1059,,https://www.homedepot.com/l/El-Centro/CA/El-Centro/92243/1059,El Centro#1059,open,320 Wake Ave,El Centro,,California,CA,92243,US,32.7724,-115.5491,America/Los_Angeles,,,760-353-0362,06,06025,06025011803,060250118031001,20940,,ceo,census
1060,,https://www.homedepot.com/l/NE-Bakersfield/CA/Bakersfield/93306/1060,NE Bakersfield#1060,open,2655 Mt Vernon Ave,Bakersfield,,California,CA,93306,US,35.3926,-118.9642,America/Los_Angeles,,,661-872-2041,06,06029,06029000904,060290009041001,12540,,ceo,census
1061,,https://www.homedepot.com/l/Ladera-Heights/CA/Los-Angeles/90056/1061,Ladera Heights#1061,open,4925 W Slauson Ave,Los Angeles,,California,CA,90056,US,33.9886,-118.3648,America/Los_Angeles,,,323-298-4610,06,06037,06037703002,060377030024004,31080,348,ceo,census
1062,,https://www.homedepot.com/l/Long-Beach/CA/Signal-Hill/90755/1062,Long Beach#1062,open,751 E Spring Street,Signal Hill,,California,CA,90755,US,33.8135,-118.1835,America/Los_Angeles,,,562-426-4667,06,06037,06037573401,060375734011035,31080,348,ceo,census
1064,,https://www.homedepot.com/l/NW-Bakersfield/CA/Bakersfield/93312/1064,NW Bakersfield#1064,open,8700 Rosedale Hwy,Bakersfield,,California,CA,93312,US,35.3852,-119.0996,America/Los_Angeles,,,661-587-1545,06,06029,06029003808,060290038083023,12540,,ceo,census
1068,,https://www.homedepot.com/l/Woodland/CA/Woodland/95776/1068,Woodland#1068,open,1860 E Main St,Woodland,,California,CA,95776,US,38.6752,-121.736,America/Los_Angeles,,,530-661-1201,06,06113,06113011209,061130112091001,40900,472,ceo,census
1069,,https://www.homedepot.com/l/Watsonville/CA/Watsonville/95076/1069,Watsonville#1069,open,355 S Green Valley Rd,Watsonville,,California,CA,95076,US,36.9323,-121.7776,America/Los_Angeles,,,831-786-9877,06,06087,06087110601,060871106012012,42100,488,ceo,census
1070,,https://www.homedepot.com/l/West-Hills/CA/West-Hills/91307/1070,West Hills#1070,open,22855 Victory Blvd,West Hills,,California,CA,91307,US,34.1891,-118.6269,America/Los_Angeles,,,818-887-7083,06,06037,06037135201,060371352011005,31080,348,ceo,census
1072,,https://www.homedepot.com/l/East-Brea/CA/Brea/92821/1072,East Brea#1072,open,2455 E Imperial Hwy,Brea,,California,CA,92821,US,33.9134,-117.8691,America/Los_Angeles,,,714-990-8493,06,06059,06059021814,060590218144004,31080,348,ceo,census
1073,,https://www.homedepot.com/l/Hanford/CA/Hanford/93230/1073,Hanford#1073,open,501 N 12th Ave,Hanford,,California,CA,93230,US,36.3297,-119.6715,America/Los_Angeles,,,559-582-9120,06,06031,06031001001,060310010012001,25260,260,ceo,fcc
1074,,https://www.homedepot.com/l/Vista/CA/Vista/92081/1074,Vista#1074,open,2430 S Melrose Dr,Vista,,California,CA,92081,US,33.1406,-117.2427,America/Los_Angeles,,,760-599-4080,06,06073,06073019811,060730198111008,41740,,ceo,census
1076,,https://www.homedepot.com/l/Brentwood/CA/Brentwood/94513/1076,Brentwood#1076,open,5631 Lone Tree Way,Brentwood,,California,CA,94513,US,37.9594,-121.7457,America/Los_Angeles,,,925-513-6060,06,06013,06013303207,060133032072001,41860,488,ceo,fcc
1077,,https://www.homedepot.com/l/Laguna-Niguel/CA/Laguna-Niguel/92677/1077,Laguna Niguel#1077,open,27401 La Paz Rd,Laguna Niguel,,California,CA,92677,US,33.565,-117.7093,America/Los_Angeles,,,949-831-3698,06,06059,06059042320,060590423204024,31080,348,ceo,census
1080,,https://www.homedepot.com/l/Porterville/CA/Porterville/93257/1080,Porterville#1080,open,750 S Jaye St,Porterville,,California,CA,93257,US,36.0525,-119.0236,America/Los_Angeles,,,559-782-4611,06,06107,06107004104,061070041041022,47300,,ceo,census
1083,,https://www.homedepot.com/l/North-Upland/CA/Upland/91784/1083,North Upland#1083,open,1401 East 19th Street,Upland,,California,CA,91784,US,34.1336,-117.6295,America/Los_Angeles,,,909-982-2311,06,06071,06071000819,060710008192003,40140,348,ceo,census
1084,,https://www.homedepot.com/l/Eastvale/CA/Mira-Loma/91752/1084,Eastvale#1084,open,6140 Hamner Ave,Mira Loma,,California,CA,91752,US,33.9783,-117.556,America/Los_Angeles,,,951-727-0324,06,06065,06065040618,060650406181000,40140,348,ceo,fcc
1085,,https://www.homedepot.com/l/Placerville/CA/Placerville/95667/1085,Placerville#1085,open,600 Placerville Drive,Placerville,,California,CA,95667,US,38.7311,-120.8248,America/Los_Angeles,,,530-626-9751,06,06017,06017031000,060170310004039,40900,472,ceo,census
1086,,https://www.homedepot.com/l/South-Fresno/CA/Fresno/93727/1086,South Fresno#1086,open,4864 East Cesar Chavez Boulevard,Fresno,,California,CA,93727,US,36.7339,-119.7333,America/Los_Angeles,,,559-455-9124,06,06019,06019001407,060190014074001,23420,260,ceo,fcc
1087,,https://www.homedepot.com/l/Moreno-Valley-II/CA/Moreno-Valley/92551/1087,Moreno Valley II#1087,open,15975 Perris Blvd,Moreno Valley,,California,CA,92551,US,33.8893,-117.2264,America/Los_Angeles,,,951-485-5400,06,06065,06065042507,060650425072007,40140,348,ceo,census
1088,,https://www.homedepot.com/l/Madera/CA/Madera/93637/1088,Madera#1088,open,2155 N Schnoor St,Madera,,California,CA,93637,US,36.9804,-120.085,America/Los_Angeles,,,559-675-0127,06,06039,06039000513,060390005133020,23420,260,ceo,census
1089,,https://www.homedepot.com/l/Ridgecrest/CA/Ridgecrest/93555/1089,Ridgecrest#1089,open,575 N China Lake Blvd,Ridgecrest,,California,CA,93555,US,35.6309,-117.6713,America/Los_Angeles,,,760-375-4614,06,06029,06029005402,060290054021016,12540,,ceo,census
1092,,https://www.homedepot.com/l/Daly-City/CA/Daly-City/94015/1092,Daly City#1092,open,303 E Lake Merced Blvd,Daly City,,California,CA,94015,US,37.6994,-122.4838,America/Los_Angeles,,,650-755-0178,06,06081,06081600800,060816008002001,41860,488,ceo,census
1379,,https://www.homedepot.com/l/Santa-Rosa/CA/Santa-Rosa/95403/1379,Santa Rosa#1379,open,100 Bicentennial Way,Santa Rosa,,California,CA,95403,US,38.4691,-122.7197,America/Los_Angeles,,,707-544-2130,06,06097,06097152402,060971524023001,42220,,ceo,census
1380,,https://www.homedepot.com/l/Martinez/CA/Martinez/94553/1380,Martinez#1380,open,1037 Arnold Drive,Martinez,,California,CA,94553,US,37.9955,-122.107,America/Los_Angeles,,,925-335-0223,06,06013,06013320003,060133200031000,41860,488,ceo,census
1840,,https://www.homedepot.com/l/El-Toro/CA/Lake-Forest/92630/1840,El Toro#1840,open,23651 El Toro Road,Lake Forest,,California,CA,92630,US,33.6182,-117.7038,America/Los_Angeles,,,949-206-0113,06,06059,06059052411,060590524111005,31080,348,ceo,census
1842,,https://www.homedepot.com/l/Riverbank/CA/Riverbank/95367/1842,Riverbank#1842,open,5230 Squire Wells Road,Riverbank,,California,CA,95367,US,37.7131,-120.95,America/Los_Angeles,,,209-863-1370,06,06099,06099000407,060990004072025,33700,488,ceo,census
1843,,https://www.homedepot.com/l/Salinas/CA/Salinas/93907/1843,Salinas#1843,open,1890 N Davis Road,Salinas,,California,CA,93907,US,36.7174,-121.665,America/Los_Angeles,,,831-444-9814,06,06053,06053010504,060530105042002,41500,,ceo,census
1844,,https://www.homedepot.com/l/NW-Victorville/CA/Victorville/92394/1844,NW Victorville#1844,open,15655 Roy Roger Drive,Victorville,,California,CA,92394,US,34.5191,-117.325,America/Los_Angeles,,,760-241-1175,06,06071,06071009917,060710099171002,40140,348,ceo,census
1845,,https://www.homedepot.com/l/Covina/CA/Covina/91722/1845,Covina#1845,open,963 W Badillo Street,Covina,,California,CA,91722,US,34.0882,-117.9098,America/Los_Angeles,,,626-967-0204,06,06037,06037405702,060374057022008,31080,348,ceo,census
1846,,https://www.homedepot.com/l/W-Sacramento/CA/West-Sacramento/95605/1846,W Sacramento#1846,open,690 Riverpoint Ct,West Sacramento,,California,CA,95605,US,38.5905,-121.5465,America/Los_Angeles,,,916-617-2128,06,06113,06113010102,061130101021056,40900,472,ceo,fcc
1848,,https://www.homedepot.com/l/El-Cajon/CA/El-Cajon/92020/1848,El Cajon#1848,open,298 Fletcher Parkway,El Cajon,,California,CA,92020,US,32.8092,-116.9647,America/Los_Angeles,,,619-401-6610,06,06073,06073016202,060730162021063,41740,,ceo,census
1857,,https://www.homedepot.com/l/South-Fontana/CA/Fontana/92337/1857,South Fontana#1857,open,16783 Santa Ana Avenue,Fontana,,California,CA,92337,US,34.0549,-117.4382,America/Los_Angeles,,,909-357-2337,06,06071,06071002609,060710026091021,40140,348,ceo,census
1858,,https://www.homedepot.com/l/Compton/CA/Compton/90220/1858,Compton#1858,open,101 Towne Center Drive,Compton,,California,CA,90220,US,33.8796,-118.2218,America/Los_Angeles,,,310-886-0886,06,06037,06037543203,060375432034006,31080,348,ceo,fcc
1861,,https://www.homedepot.com/l/San-Jose-Ge/CA/San-Jose/95125/1861,San Jose (Ge)#1861,open,2181 Monterey Hwy,San Jose,,California,CA,95125,US,37.3044,-121.8623,America/Los_Angeles,,,408-971-4890,06,06085,06085503121,060855031211002,41940,488,ceo,census
2304,,https://www.homedepot.com/l/Monterey-Park/CA/Monterey-Park/91755/2304,Monterey Park#2304,open,3500 Market Place,Monterey Park,,California,CA,91755,US,34.0372,-118.1015,America/Los_Angeles,,,323-914-6400,06,06037,06037482801,060374828012002,31080,348,ceo,fcc
6037,,https://www.homedepot.com/l/Pasadena/CA/Pasadena/91107/6037,Pasadena#6037,open,2881 E. Walnut Street,Pasadena,,California,CA,91107,US,34.1482,-118.0909,America/Los_Angeles,,,626-517-4600,06,06037,06037462900,060374629003039,31080,348,ceo,census
6113,,https://www.homedepot.com/l/Murrieta-North/CA/Murrieta/92562/6113,Murrieta North#6113,open,27738 Clinton Keith Rd.,Murrieta,,California,CA,92562,US,33.5992,-117.1765,America/Los_Angeles,,,951-821-2000,06,06065,06065043278,060650432784015,40140,348,ceo,census
6601,,https://www.homedepot.com/l/Modesto/CA/Modesto/95351/6601,Modesto#6601,open,1617 N Carpenter Rd,Modesto,,California,CA,95351,US,37.6593,-121.033,America/Los_Angeles,,,209-491-0200,06,06099,06099000602,060990006021008,33700,488,ceo,census
6603,,https://www.homedepot.com/l/East-Palo-Alto/CA/East-Palo-Alto/94303/6603,East Palo Alto#6603,open,1781 E Bayshore Rd,East Palo Alto,,California,CA,94303,US,37.4589,-122.1358,America/Los_Angeles,,,650-462-6800,06,06081,06081611901,060816119013003,41860,488,ceo,census
6604,,https://www.homedepot.com/l/San-Ramon/CA/San-Ramon/94583/6604,San Ramon#6604,open,2750 Crow Canyon Rd,San Ramon,,California,CA,94583,US,37.7755,-121.984,America/Los_Angeles,,,925-838-0194,06,06013,06013345205,060133452052003,41860,488,ceo,census
6609,,https://www.homedepot.com/l/Chico/CA/Chico/95928/6609,Chico#6609,open,2580 Notre Dame Blvd,Chico,,California,CA,95928,US,39.7127,-121.7962,America/Los_Angeles,,,530-342-0477,06,06007,06007000903,060070009031009,17020,,ceo,census
6610,,https://www.homedepot.com/l/Alhambra/CA/Alhambra/91803/6610,Alhambra#6610,open,500 S Marengo Ave,Alhambra,,California,CA,91803,US,34.0853,-118.141,America/Los_Angeles,,,626-458-9800,06,06037,06037480901,060374809012003,31080,348,ceo,census
6611,,https://www.homedepot.com/l/Marina-Del-Rey/CA/Los-Angeles/90066/6611,Marina Del Rey#6611,open,12975 W Jefferson Blvd,Los Angeles,,California,CA,90066,US,33.9766,-118.4239,America/Los_Angeles,,,310-822-3330,06,06037,06037275605,060372756052002,31080,348,ceo,census
6612,,https://www.homedepot.com/l/Escondido/CA/Escondido/92029/6612,Escondido#6612,open,1550 W Valley Pkwy,Escondido,,California,CA,92029,US,33.1106,-117.1062,America/Los_Angeles,,,760-432-9600,06,06073,06073020313,060730203132005,41740,,ceo,census
6613,,https://www.homedepot.com/l/North-Hollywood/CA/North-Hollywood/91605/6613,North Hollywood#6613,open,11600 Sherman Way,North Hollywood,,California,CA,91605,US,34.201,-118.3844,America/Los_Angeles,,,818-764-9600,06,06037,06037122420,060371224203001,31080,348,ceo,census
6614,,https://www.homedepot.com/l/Lakewood/CA/Lakewood/90712/6614,Lakewood#6614,open,5000 Hardwick St,Lakewood,,California,CA,90712,US,33.8493,-118.1348,America/Los_Angeles,,,562-529-3500,06,06037,06037570800,060375708005028,31080,348,ceo,census
6615,,https://www.homedepot.com/l/Visalia/CA/Visalia/93277/6615,Visalia#6615,open,3500 S Demaree St,Visalia,,California,CA,93277,US,36.2996,-119.3295,America/Los_Angeles,,,559-636-3600,06,06107,06107002003,061070020034006,47300,,ceo,census
6616,,https://www.homedepot.com/l/Sunset/CA/Hollywood/90028/6616,Sunset#6616,open,5600 Sunset Blvd,Los Angeles,,California,CA,90028,US,34.0976,-118.3128,America/Los_Angeles,,,323-461-3303,06,06037,06037190901,060371909013001,31080,348,ceo,census
6617,,https://www.homedepot.com/l/Glendora/CA/Glendora/91740/6617,Glendora#6617,open,1305 S Lone Hill Ave,Glendora,,California,CA,91740,US,34.115,-117.8309,America/Los_Angeles,,,909-592-0691,06,06037,06037401202,060374012022005,31080,348,ceo,census
6618,,https://www.homedepot.com/l/Merced/CA/Merced/95341/6618,Merced#6618,open,1735 Hwy 140,Merced,,California,CA,95341,US,37.3038,-120.5065,America/Los_Angeles,,,209-722-2600,06,06047,06047001501,060470015011005,32900,488,ceo,census
6619,,https://www.homedepot.com/l/Riverside/CA/Riverside/92504/6619,Riverside#6619,open,3323 Madison St,Riverside,,California,CA,92504,US,33.9356,-117.4017,America/Los_Angeles,,,951-358-1370,06,06065,06065031300,060650313001002,40140,348,ceo,census
6620,,https://www.homedepot.com/l/Power-Inn/CA/Sacramento/95826/6620,Power Inn#6620,open,8000 Folsom Blvd,Sacramento,,California,CA,95826,US,38.549,-121.4108,America/Los_Angeles,,,916-381-3181,06,06067,06067005205,060670052051013,40900,472,ceo,census
6621,,https://www.homedepot.com/l/Capitol-Expressway/CA/San-Jose/95136/6621,Capitol Expressway#6621,open,635 W Capitol Expy,San Jose,,California,CA,95136,US,37.2757,-121.8585,America/Los_Angeles,,,408-978-1099,06,06085,06085503213,060855032131005,41940,488,ceo,census
6623,,https://www.homedepot.com/l/Goleta/CA/Goleta/93117/6623,Goleta#6623,open,6975 Market Place Dr,Goleta,,California,CA,93117,US,34.4276,-119.8716,America/Los_Angeles,,,805-961-4746,06,06083,06083002935,060830029352008,42200,,ceo,census
6627,,https://www.homedepot.com/l/Downey/CA/Downey/90241/6627,Downey#6627,open,7121 Firestone Blvd,Downey,,California,CA,90241,US,33.9498,-118.1558,America/Los_Angeles,,,562-776-2200,06,06037,06037550802,060375508021012,31080,348,ceo,census
6628,,https://www.homedepot.com/l/Laguna-Hills/CA/Laguna-Hills/92637/6628,Laguna Hills#6628,open,24332 El Toro Rd,Laguna Woods,,California,CA,92637,US,33.6066,-117.7305,America/Los_Angeles,,,949-598-9171,06,06059,06059062641,060590626411001,31080,348,ceo,census
6629,,https://www.homedepot.com/l/Monrovia/CA/Monrovia/91016/6629,Monrovia#6629,open,1625 S Mountain Ave,Monrovia,,California,CA,91016,US,34.1337,-117.9898,America/Los_Angeles,,,626-256-0580,06,06037,06037431100,060374311001023,31080,348,ceo,census
6630,,https://www.homedepot.com/l/La-Quinta/CA/La-Quinta/92253/6630,La Quinta#6630,open,79900 Hwy 111,La Quinta,,California,CA,92253,US,33.7087,-116.2702,America/Los_Angeles,,,760-347-8722,06,06065,06065045235,060650452352017,40140,348,ceo,census
6632,,https://www.homedepot.com/l/Woodland-Hills/CA/Woodland-Hills/91367/6632,Woodland Hills#6632,open,6345 Variel Ave,Woodland Hills,,California,CA,91367,US,34.1857,-118.594,America/Los_Angeles,,,818-716-9141,06,06037,06037134905,060371349051001,31080,348,ceo,census
6634,,https://www.homedepot.com/l/Fairmount-Ave/CA/San-Diego/92120/6634,Fairmount Ave#6634,open,5920 Fairmount Ave,San Diego,,California,CA,92120,US,32.782,-117.1024,America/Los_Angeles,,,619-280-0230,06,06073,06073009603,060730096034006,41740,,ceo,census
6635,,https://www.homedepot.com/l/Bollinger/CA/San-Jose/95129/6635,Bollinger#6635,open,975 De Anza Blvd,San Jose,,California,CA,95129,US,37.3109,-122.0336,America/Los_Angeles,,,408-253-3537,06,06085,06085507807,060855078071013,41940,488,ceo,fcc
6636,,https://www.homedepot.com/l/Fremont/CA/Fremont/94538/6636,Fremont#6636,open,43900 Ice House Ter,Fremont,,California,CA,94538,US,37.5113,-121.946,America/Los_Angeles,,,510-490-0191,06,06001,06001441525,060014415252017,41860,488,ceo,census
6637,,https://www.homedepot.com/l/Hemet/CA/Hemet/92545/6637,Hemet#6637,open,3400 W Florida Ave,Hemet,,California,CA,92545,US,33.7491,-117.0078,America/Los_Angeles,,,951-929-9742,06,06065,06065043520,060650435201000,40140,348,ceo,census
6638,,https://www.homedepot.com/l/Santa-Maria/CA/Santa-Maria/93455/6638,Santa Maria#6638,open,2120 S Bradley Rd,Santa Maria,,California,CA,93455,US,34.9219,-120.4192,America/Los_Angeles,,,805-739-1141,06,06083,06083002014,060830020141001,42200,,ceo,census
6639,,https://www.homedepot.com/l/Garden-Grove/CA/Garden-Grove/92843/6639,Garden Grove#6639,open,10801 Garden Grove Blvd,Garden Grove,,California,CA,92843,US,33.7749,-117.9443,America/Los_Angeles,,,714-539-0319,06,06059,06059088601,060590886012004,31080,348,ceo,census
6640,,https://www.homedepot.com/l/Simi-Valley/CA/Simi-Valley/93065/6640,Simi Valley#6640,open,575 Cochran St,Simi Valley,,California,CA,93065,US,34.2812,-118.7869,America/Los_Angeles,,,805-577-1825,06,06111,06111007700,061110077001051,37100,348,ceo,census
6643,,https://www.homedepot.com/l/Anaheim-Hills/CA/Anaheim/92807/6643,Anaheim Hills#6643,open,1095 N Pullman St,Anaheim,,California,CA,92807,US,33.8713,-117.7495,America/Los_Angeles,,,714-921-1215,06,06059,06059021905,060590219052005,31080,348,ceo,census
6644,,https://www.homedepot.com/l/Panorama-City/CA/Panorama-City/91402/6644,Panorama City#6644,open,7870 Van Nuys Blvd,Panorama City,,California,CA,91402,US,34.2139,-118.4457,America/Los_Angeles,,,818-373-0046,06,06037,06037120300,060371203003006,31080,348,ceo,census
6646,,https://www.homedepot.com/l/Huntington-Beach-II/CA/Huntington-Beach/92647/6646,Huntington Beach II#6646,open,7100 Warner Ave,Huntington Beach,,California,CA,92647,US,33.7145,-118.0053,America/Los_Angeles,,,714-596-2944,06,06059,06059099402,060590994023005,31080,348,ceo,census
6647,,https://www.homedepot.com/l/Anaheim/CA/Anaheim/92801/6647,Anaheim#6647,open,800 N Brookhurst St,Anaheim,,California,CA,92801,US,33.8413,-117.9587,America/Los_Angeles,,,714-533-9930,06,06059,06059087102,060590871025002,31080,348,ceo,census
6649,,https://www.homedepot.com/l/Truxel-Rd/CA/Sacramento/95834/6649,Truxel Rd#6649,open,3611 Truxel Rd,Sacramento,,California,CA,95834,US,38.6328,-121.5062,America/Los_Angeles,,,916-928-0722,06,06067,06067007019,060670070192066,40900,472,ceo,census
6650,,https://www.homedepot.com/l/Cypress/CA/Cypress/90630/6650,Cypress#6650,open,5800 Lincoln Ave,Cypress,,California,CA,90630,US,33.8305,-118.031,America/Los_Angeles,,,714-816-0624,06,06059,06059110110,060591101102021,31080,348,ceo,census
6651,,https://www.homedepot.com/l/Lancaster/CA/Lancaster/93534/6651,Lancaster#6651,open,44226 20th St West,Lancaster,,California,CA,93534,US,34.6865,-118.1645,America/Los_Angeles,,,661-951-3669,06,06037,06037900703,060379007031000,31080,348,ceo,census
6652,,https://www.homedepot.com/l/Napa/CA/Napa/94559/6652,Napa#6652,open,225 Soscol Ave,Napa,,California,CA,94559,US,38.2844,-122.2773,America/Los_Angeles,,,707-251-0162,06,06055,06055200301,060552003012014,34900,488,ceo,census
6654,,https://www.homedepot.com/l/Burbank/CA/Burbank/91502/6654,Burbank#6654,open,1200 Flower Street,Burbank,,California,CA,91502,US,34.1695,-118.2998,America/Los_Angeles,,,818-556-1512,06,06037,06037310703,060373107032022,31080,348,ceo,census
6655,,https://www.homedepot.com/l/The-Home-Depot-Pro/CA/Colma/94014/6655,The Home Depot Pro#6655,open,91 Colma Blvd,Colma,,California,CA,94014,US,37.6784,-122.4645,America/Los_Angeles,,,650-757-9360,06,06081,06081601601,060816016011010,41860,488,ceo,census
6656,,https://www.homedepot.com/l/San-Marcos/CA/San-Marcos/92069/6656,San Marcos#6656,open,550 San Marcos Blvd,San Marcos,,California,CA,92069,US,33.1399,-117.1733,America/Los_Angeles,,,760-510-2623,06,06073,06073020028,060730200281002,41740,,ceo,census
6657,,https://www.homedepot.com/l/La-Habra/CA/La-Habra/90631/6657,La Habra#6657,open,600 S Harbor Blvd,La Habra,,California,CA,90631,US,33.926,-117.9318,America/Los_Angeles,,,562-690-6006,06,06059,06059001404,060590014041019,31080,348,ceo,census
6660,,https://www.homedepot.com/l/Lodi/CA/Lodi/95240/6660,Lodi#6660,open,2960 Reynolds Ranch Parkway,Lodi,,California,CA,95240,US,38.0977,-121.2626,America/Los_Angeles,,,209-263-6017,06,06077,06077004107,060770041071021,44700,488,ceo,census
6661,,https://www.homedepot.com/l/Van-Nuys/CA/Van-Nuys/91406/6661,Van Nuys#6661,open,16800 Roscoe Blvd,Van Nuys,,California,CA,91406,US,34.2204,-118.4981,America/Los_Angeles,,,818-780-5448,06,06037,06037980008,060379800081002,31080,348,ceo,census
6662,,https://www.homedepot.com/l/Thousand-Oaks/CA/Thousand-Oaks/91320/6662,Thousand Oaks#6662,open,2745 Teller Rd,Thousand Oaks,,California,CA,91320,US,34.1927,-118.9346,America/Los_Angeles,,,805-375-6680,06,06111,06111006102,061110061022001,37100,348,ceo,fcc
6663,,https://www.homedepot.com/l/Baldwin-Park/CA/Baldwin-Park/91706/6663,Baldwin Park#6663,open,3200 Puente Ave,Baldwin Park,,California,CA,91706,US,34.0725,-117.9578,America/Los_Angeles,,,626-813-7131,06,06037,06037405203,060374052031004,31080,348,ceo,census
6664,,https://www.homedepot.com/l/Costa-Mesa/CA/Costa-Mesa/92626/6664,Costa Mesa#6664,open,2300 Harbor Blvd,Costa Mesa,,California,CA,92626,US,33.6583,-117.9186,America/Los_Angeles,,,949-646-4220,06,06059,06059063905,060590639052000,31080,348,ceo,census
6665,,https://www.homedepot.com/l/South-Corona/CA/Corona/92881/6665,South Corona#6665,open,1355 E Ontario Ave,Corona,,California,CA,92881,US,33.8487,-117.5386,America/Los_Angeles,,,951-808-0327,06,06065,06065041809,060650418092012,40140,348,ceo,census
6667,,https://www.homedepot.com/l/Windsor/CA/Windsor/95492/6667,Windsor#6667,open,6280 Hembree Ln,Windsor,,California,CA,95492,US,38.5273,-122.7864,America/Los_Angeles,,,707-836-0377,06,06097,06097153809,060971538091003,42220,,ceo,census
6668,,https://www.homedepot.com/l/Lake-Forest/CA/Lake-Forest/92630/6668,Lake Forest#6668,open,20021 Lake Forest Dr,Lake Forest,,California,CA,92630,US,33.6711,-117.6627,America/Los_Angeles,,,949-609-0221,06,06059,06059052422,060590524225013,31080,348,ceo,census
6669,,https://www.homedepot.com/l/Antelope/CA/Sacramento/95842/6669,Antelope#6669,open,5859 Antelope Rd,Sacramento,,California,CA,95842,US,38.7052,-121.3291,America/Los_Angeles,,,916-726-0620,06,06067,06067008127,060670081271005,40900,472,ceo,census
6670,,https://www.homedepot.com/l/Carson/CA/Carson/90745/6670,Carson#6670,open,110 E Sepulveda Blvd,Carson,,California,CA,90745,US,33.8067,-118.2744,America/Los_Angeles,,,310-835-7547,06,06037,06037543703,060375437031001,31080,348,ceo,fcc
6672,,https://www.homedepot.com/l/East-San-Jose/CA/San-Jose/95127/6672,East San Jose#6672,open,2855 Story Road,San Jose,,California,CA,95127,US,37.3545,-121.8246,America/Los_Angeles,,,408-926-1468,06,06085,06085504001,060855040012008,41940,488,ceo,census
6673,,https://www.homedepot.com/l/El-Monte/CA/El-Monte/91731/6673,El Monte#6673,open,9700 Lower Azusa Rd,El Monte,,California,CA,91731,US,34.0886,-118.0543,America/Los_Angeles,,,626-443-2100,06,06037,06037432300,060374323003015,31080,348,ceo,census
6674,,https://www.homedepot.com/l/Elk-Grove/CA/Elk-Grove/95758/6674,Elk Grove#6674,open,9150 W Stockton Blvd,Elk Grove,,California,CA,95758,US,38.4248,-121.4024,America/Los_Angeles,,,916-478-2388,06,06067,06067009639,060670096391000,40900,472,ceo,census
6675,,https://www.homedepot.com/l/Folsom/CA/Folsom/95630/6675,Folsom#6675,open,2675 E Bidwell St,Folsom,,California,CA,95630,US,38.6561,-121.1283,America/Los_Angeles,,,916-983-0401,06,06067,06067008507,060670085072001,40900,472,ceo,census
6677,,https://www.homedepot.com/l/Gilroy/CA/Gilroy/95020/6677,Gilroy#6677,open,8850 San Ysidro Ave,Gilroy,,California,CA,95020,US,37.0283,-121.5659,America/Los_Angeles,,,408-847-7712,06,06085,06085512602,060855126021020,41940,488,ceo,census
6678,,https://www.homedepot.com/l/Livermore/CA/Livermore/94551/6678,Livermore#6678,open,2500 Las Positas Rd,Livermore,,California,CA,94551,US,37.6992,-121.7695,America/Los_Angeles,,,925-243-1212,06,06001,06001451401,060014514012008,41860,488,ceo,census
6679,,https://www.homedepot.com/l/Mira-Mesa/CA/San-Diego/92126/6679,Mira Mesa#6679,open,10604 Westview Pky,San Diego,,California,CA,92126,US,32.9136,-117.1212,America/Los_Angeles,,,858-653-6761,06,06073,06073008359,060730083591001,41740,,ceo,census
6680,,https://www.homedepot.com/l/North-Santa-Ana/CA/Santa-Ana/92705/6680,North Santa Ana#6680,open,1750 E Edinger Ave,Santa Ana,,California,CA,92705,US,33.7256,-117.8436,America/Los_Angeles,,,714-259-1030,06,06059,06059074403,060590744031048,31080,348,ceo,census
6681,,https://www.homedepot.com/l/Lompoc/CA/Lompoc/93436/6681,Lompoc#6681,open,1701 East Ocean Avenue,Lompoc,,California,CA,93436,US,34.6412,-120.4378,America/Los_Angeles,,,805-737-0314,06,06083,06083002703,060830027031058,42200,,ceo,census
6682,,https://www.homedepot.com/l/Redding/CA/Redding/96003/6682,Redding#6682,open,1200 Churn Creek Rd,Redding,,California,CA,96003,US,40.5912,-122.3522,America/Los_Angeles,,,530-222-1313,06,06089,06089010803,060890108033033,39820,454,ceo,census
6683,,https://www.homedepot.com/l/Rialto/CA/Rialto/92376/6683,Rialto#6683,open,1451 West Foothill Blvd,Rialto,,California,CA,92376,US,34.1059,-117.3998,America/Los_Angeles,,,909-877-0248,06,06071,06071003510,060710035101003,40140,348,ceo,census
6684,,https://www.homedepot.com/l/Whittier/CA/Whittier/90606/6684,Whittier#6684,open,12322 Washington Blvd,Whittier,,California,CA,90606,US,33.9653,-118.0493,America/Los_Angeles,,,562-789-4121,06,06037,06037502004,060375020042000,31080,348,ceo,census
6687,,https://www.homedepot.com/l/SW-Bakersfield/CA/Bakersfield/93313/6687,SW Bakersfield#6687,open,4700 Gosford Rd,Bakersfield,,California,CA,93313,US,35.3121,-119.0903,America/Los_Angeles,,,661-835-1133,06,06029,06029003131,060290031312005,12540,,ceo,census
6688,,https://www.homedepot.com/l/Stanford-Ranch/CA/Roseville/95678/6688,Stanford Ranch#6688,open,10001 Fairway Dr,Roseville,,California,CA,95678,US,38.783,-121.2744,America/Los_Angeles,,,916-787-0201,06,06061,06061022800,060610228002029,40900,472,ceo,census
6689,,https://www.homedepot.com/l/Cypress-Park/CA/Los-Angeles/90065/6689,Cypress Park#6689,open,2055 N Figueroa St,Los Angeles,,California,CA,90065,US,34.0837,-118.225,America/Los_Angeles,,,323-342-9495,06,06037,06037185320,060371853202013,31080,348,ceo,census
6834,,https://www.homedepot.com/l/Apple-Valley/CA/Apple-Valley/92308/6834,Apple Valley#6834,open,12218 Apple Valley Road,Apple Valley,,California,CA,92308,US,34.4728,-117.2428,America/Los_Angeles,,,760-961-9046,06,06071,06071009725,060710097251018,40140,348,ceo,census
6835,,https://www.homedepot.com/l/Tehachapi/CA/Tehachapi/93561/6835,Tehachapi#6835,open,507 North Mill Street,Tehachapi,,California,CA,93561,US,35.1365,-118.4517,America/Los_Angeles,,,661-823-5434,06,06029,06029006101,060290061013012,12540,,ceo,census
6855,,https://www.homedepot.com/l/West-Inglewood/CA/Inglewood/90301/6855,West Inglewood#6855,open,8801 S La Cienega Blvd,Inglewood,,California,CA,90301,US,33.9577,-118.3708,America/Los_Angeles,,,310-417-9051,06,06037,06037601401,060376014013021,31080,348,ceo,census
6874,,https://www.homedepot.com/l/Indio/CA/Indio/92203/6874,Indio#6874,open,42100 Jackson Street,Indio,,California,CA,92203,US,33.7427,-116.213,America/Los_Angeles,,,760-347-7410,06,06065,06065045306,060650453063004,40140,348,ceo,census
6875,,https://www.homedepot.com/l/Perris/CA/Perris/92570/6875,Perris#6875,open,3150 Case Road - Bldg P,Perris,,California,CA,92570,US,33.7443,-117.1919,America/Los_Angeles,,,951-928-0252,06,06065,06065042731,060650427311003,40140,348,ceo,census
6876,,https://www.homedepot.com/l/South-Chino/CA/Chino/91710/6876,South Chino#6876,open,14549 Ramona Avenue,Chino,,California,CA,91710,US,33.9889,-117.7045,America/Los_Angeles,,,909-393-5205,06,06071,06071000504,060710005043025,40140,348,ceo,census
6883,,https://www.homedepot.com/l/East-Palmdale/CA/Palmdale/93552/6883,East Palmdale#6883,open,38215 47th St East,Palmdale,,California,CA,93552,US,34.5767,-118.0482,America/Los_Angeles,,,661-285-3252,06,06037,06037910721,060379107212001,31080,348,ceo,census
6884,,https://www.homedepot.com/l/Ontario/CA/Ontario/91762/6884,Ontario#6884,open,2980 S Euclid Avenue,Ontario,,California,CA,91762,US,34.0203,-117.6521,America/Los_Angeles,,,909-460-4240,06,06071,06071001804,060710018041017,40140,348,ceo,census
6893,,https://www.homedepot.com/l/Fullerton-Relo-682/CA/Fullerton/92831/6893,Fullerton (Relo 682)#6893,open,625 South Placentia Avenue,Fullerton,,California,CA,92831,US,33.8658,-117.8863,America/Los_Angeles,,,714-459-4909,06,06059,06059011602,060590116021000,31080,348,ceo,census
6946,,https://www.homedepot.com/l/Tulare/CA/Tulare/93274/6946,Tulare#6946,open,1600 E Prosperity Avenue,Tulare,,California,CA,93274,US,36.2272,-119.3233,America/Los_Angeles,,,559-684-7043,06,06107,06107002100,061070021002039,47300,,ceo,census
6947,,https://www.homedepot.com/l/Ceres/CA/Modesto/95351/6947,Ceres#6947,open,1415 E Hatch Rd,Modesto,,California,CA,95351,US,37.6095,-120.9716,America/Los_Angeles,,,209-538-1820,06,06099,06099002702,060990027021003,33700,488,ceo,census
6952,,https://www.homedepot.com/l/Stanton/CA/Stanton/90680/6952,Stanton#6952,open,12131 Beach Blvd,Stanton,,California,CA,90680,US,33.7868,-117.994,America/Los_Angeles,,,714-892-9714,06,06059,06059088104,060590881042002,31080,348,ceo,census
6960,,https://www.homedepot.com/l/North-Fontana/CA/Fontana/92336/6960,North Fontana#6960,open,16005 Sierra Lakes Pkwy,Fontana,,California,CA,92336,US,34.1385,-117.4568,America/Los_Angeles,,,909-350-3476,06,06071,06071002315,060710023152009,40140,348,ceo,fcc
6963,,https://www.homedepot.com/l/Huntington-Beach/CA/Huntington-Beach/92646/6963,Huntington Beach#6963,open,19101 Magnolia Street,Huntington Beach,,California,CA,92646,US,33.6853,-117.9729,America/Los_Angeles,,,714-965-4049,06,06059,06059099246,060590992462005,31080,348,ceo,census
6964,,https://www.homedepot.com/l/Newark/CA/Newark/94560/6964,Newark#6964,open,5401 Thornton Avenue,Newark,,California,CA,94560,US,37.5441,-122.0265,America/Los_Angeles,,,510-494-1205,06,06001,06001444100,060014441001000,41860,488,ceo,census
6965,,https://www.homedepot.com/l/Orange-K/CA/Orange/92865/6965,Orange (K)#6965,open,1855 N Tustin Street,Orange,,California,CA,92865,US,33.8184,-117.8357,America/Los_Angeles,,,714-685-9360,06,06059,06059075811,060590758112003,31080,348,ceo,fcc
6966,,https://www.homedepot.com/l/Arden-Arcade/CA/Sacramento/95825/6966,Arden Arcade#6966,open,2000 Howe Avenue,Sacramento,,California,CA,95825,US,38.6025,-121.4142,America/Los_Angeles,,,916-643-2098,06,06067,06067005505,060670055052010,40900,472,ceo,census
6967,,https://www.homedepot.com/l/Seaside/CA/Seaside/93955/6967,Seaside#6967,open,1590 Canyon Del Rey Blvd,Seaside,,California,CA,93955,US,36.6101,-121.8556,America/Los_Angeles,,,831-583-0778,06,06053,06053014000,060530140001027,41500,,ceo,census
6968,,https://www.homedepot.com/l/Soquel/CA/Soquel/95073/6968,Soquel#6968,open,2600 41st Avenue,Soquel,,California,CA,95073,US,36.9847,-121.9634,America/Los_Angeles,,,831-462-5650,06,06087,06087122005,060871220052006,42100,488,ceo,census
6971,,https://www.homedepot.com/l/Yucca-Valley/CA/Yucca-Valley/92284/6971,Yucca Valley#6971,open,58705 29 Palms Hwy,Yucca Valley,,California,CA,92284,US,34.1327,-116.3817,America/Los_Angeles,,,760-365-9202,06,06071,06071010429,060710104291000,40140,348,ceo,census
6972,,https://www.homedepot.com/l/Barstow/CA/Barstow/92311/6972,Barstow#6972,open,1100 L. Avenue,Barstow,,California,CA,92311,US,34.883,-117.0565,America/Los_Angeles,,,760-256-3018,06,06071,06071011801,060710118011000,40140,348,ceo,census
8408,,https://www.homedepot.com/l/Ukiah/CA/Ukiah/95482/8408,Ukiah#8408,open,350 North Orchard Avenue,Ukiah,,California,CA,95482,US,39.1542,-123.2006,America/Los_Angeles,,,707-462-3009,06,06045,06045011502,060450115021031,46380,,ceo,census
8426,,https://www.homedepot.com/l/Delano/CA/Delano/93215/8426,Delano#8426,open,601 Woollomes Ave,Delano,,California,CA,93215,US,35.748,-119.2466,America/Los_Angeles,,,661-720-0926,06,06029,06029004802,060290048022000,12540,,ceo,census
8427,,https://www.homedepot.com/l/Los-Banos/CA/Los-Banos/93635/8427,Los Banos#8427,open,1955 E Pacheco Blvd,Los Banos,,California,CA,93635,US,37.0552,-120.8248,America/Los_Angeles,,,209-509-3940,06,06047,06047002303,060470023032003,32900,488,ceo,census
8463,,https://www.homedepot.com/l/West-Covina/CA/West-Covina/91792/8463,West Covina#8463,open,2220 S Azusa Avenue,West Covina,,California,CA,91792,US,34.0368,-117.9111,America/Los_Angeles,,,626-965-1013,06,06037,06037408006,060374080061000,31080,348,ceo,census
8492,,https://www.homedepot.com/l/Red-Bluff/CA/Red-Bluff/96080/8492,Red Bluff#8492,open,2650 Main Street,Red Bluff,,California,CA,96080,US,40.1943,-122.2389,America/Los_Angeles,,,530-528-8579,06,06103,06103000400,061030004001048,39780,454,ceo,census
8524,,https://www.homedepot.com/l/Crescent-City/CA/Crescent-City/95531/8524,Crescent City#8524,open,520 Highway Us 101 North,Crescent City,,California,CA,95531,US,41.763,-124.1989,America/Los_Angeles,,,707-464-9463,06,06015,06015000101,060150001011029,18860,152,ceo,census
8525,,https://www.homedepot.com/l/East-Irvine/CA/Irvine/92620/8525,East Irvine#8525,open,6200 Irvine Blvd,Irvine,,California,CA,92620,US,33.7,-117.7412,America/Los_Angeles,,,949-262-0685,06,06059,06059052432,060590524321002,31080,348,ceo,census
8526,,https://www.homedepot.com/l/Palm-Springs/CA/Palm-Springs/92264/8526,Palm Springs#8526,open,5200 East Ramon Road,Palm Springs,,California,CA,92264,US,33.8165,-116.4901,America/Los_Angeles,,,760-322-0424,06,06065,06065044702,060650447021015,40140,348,ceo,census
8529,,https://www.homedepot.com/l/Selma/CA/Selma/93662/8529,Selma#8529,open,3175 Highland Ave,Selma,,California,CA,93662,US,36.5797,-119.6304,America/Los_Angeles,,,559-891-0506,06,06019,06019007102,060190071021014,23420,260,ceo,census
8571,,https://www.homedepot.com/l/Lincoln/CA/Lincoln/95648/8571,Lincoln#8571,open,1000 Groveland Lane,Lincoln,,California,CA,95648,US,38.8684,-121.3026,America/Los_Angeles,,,916-434-7337,06,06061,06061023200,060610232002000,40900,472,ceo,census
8572,,https://www.homedepot.com/l/Morgan-Hill/CA/Morgan-Hill/95037/8572,Morgan Hill#8572,open,860 E Dunne Ave,Morgan Hill,,California,CA,95037,US,37.1296,-121.635,America/Los_Angeles,,,408-779-9755,06,06085,06085512310,060855123101002,41940,488,ceo,census
8597,,https://www.homedepot.com/l/Auburn/CA/Auburn/95603/8597,Auburn#8597,open,11755 Willow Creek Drive,Auburn,,California,CA,95603,US,38.9391,-121.0996,America/Los_Angeles,,,530-889-9810,06,06061,06061021501,060610215014000,40900,472,ceo,census
8949,,https://www.homedepot.com/l/Poway/CA/Poway/92064/8949,Poway#8949,open,12175 Tech Center Drive,Poway,,California,CA,92064,US,32.9374,-117.0351,America/Los_Angeles,,,858-513-0080,06,06073,06073017049,060730170492024,41740,,ceo,census
8975,,https://www.homedepot.com/l/Oroville/CA/Oroville/95965/8975,Oroville#8975,open,2150 3rd Street,Oroville,,California,CA,95965,US,39.5231,-121.5706,America/Los_Angeles,,,530-538-0521,06,06007,06007002500,060070025001004,17020,,ceo,census
8987,,https://www.homedepot.com/l/Beaumont/CA/Beaumont/92223/8987,Beaumont#8987,open,1480 E 2nd Street,Beaumont,,California,CA,92223,US,33.9254,-116.9553,America/Los_Angeles,,,951-769-0301,06,06065,06065043820,060650438201002,40140,348,ceo,census
8988,,https://www.homedepot.com/l/Lake-Elsinore/CA/Lake-Elsinore/92530/8988,Lake Elsinore#8988,open,18282 Collier Avenue,Lake Elsinore,,California,CA,92530,US,33.6929,-117.341,America/Los_Angeles,,,951-245-9055,06,06065,06065043006,060650430063000,40140,348,ceo,census
1501,,https://www.homedepot.com/l/Aurora/CO/Aurora/80012/1501,Aurora#1501,open,14001 E Mississippi Ave,Aurora,,Colorado,CO,80012,US,39.6983,-104.8249,America/Denver,,,303-743-7557,08,08005,08005081101,080050811011002,19740,216,ceo,census
1502,,https://www.homedepot.com/l/Arvada/CO/Arvada/80002/1502,Arvada#1502,open,5215 Wadsworth Blvd,Arvada,,Colorado,CO,80002,US,39.7924,-105.0829,America/Denver,,,303-456-4000,08,08059,08059010405,080590104051009,19740,216,ceo,census
1503,,https://www.homedepot.com/l/Thornton/CO/Thornton/80229/1503,Thornton#1503,open,10003 Grant Street,Thornton,,Colorado,CO,80229,US,39.8804,-104.986,America/Denver,,,303-255-8000,08,08001,08001009203,080010092032002,19740,216,ceo,census
1504,,https://www.homedepot.com/l/Colorado-Springs/CO/Colorado-Springs/80909/1504,Colorado Springs#1504,open,102 N Academy Blvd,Colorado Springs,,Colorado,CO,80909,US,38.8343,-104.7601,America/Denver,,,719-573-7000,08,08041,08041002102,080410021021008,17820,,ceo,census
1505,,https://www.homedepot.com/l/Santa-Fe/CO/Denver/80223/1505,Santa Fe#1505,open,500 S Sante Fe Dr,Denver,,Colorado,CO,80223,US,39.707,-104.9941,America/Denver,,,303-765-0400,08,08031,08031002102,080310021024007,19740,216,ceo,census
1506,,https://www.homedepot.com/l/Louisville/CO/Louisville/80027/1506,Louisville#1506,open,1200 W Dillon Rd,Louisville,,Colorado,CO,80027,US,39.9611,-105.1693,America/Denver,,,303-661-9600,08,08013,08013012710,080130127103054,14500,216,ceo,census
1507,,https://www.homedepot.com/l/Denver-Sw/CO/Denver/80123/1507,Denver Sw#1507,open,7990 W Crestline Ave,Denver,,Colorado,CO,80123,US,39.6175,-105.0855,America/Denver,,,303-973-5100,08,08031,08031012010,080310120104000,19740,216,ceo,census
1508,,https://www.homedepot.com/l/Park-Meadows/CO/Lone-Tree/80124/1508,Park Meadows#1508,open,8477 S Yosemite Ave,Lone Tree,,Colorado,CO,80124,US,39.5624,-104.8838,America/Denver,,,303-706-1500,08,08035,08035014114,080350141141003,19740,216,ceo,census
1509,,https://www.homedepot.com/l/Greenwood-Village/CO/Greenwood-Village/80112/1509,Greenwood Village#1509,open,9401 E Arapahoe Rd,Greenwood Village,,Colorado,CO,80112,US,39.5975,-104.8791,America/Denver,,,303-799-9071,08,08005,08005006860,080050068601010,19740,216,ceo,census
1510,,https://www.homedepot.com/l/Academy-Blvd/CO/Colorado-Springs/80920/1510,Academy Blvd#1510,open,7120 N Academy Blvd,Colorado Springs,,Colorado,CO,80920,US,38.9346,-104.7988,America/Denver,,,719-531-6400,08,08041,08041003905,080410039051033,17820,,ceo,fcc
1511,,https://www.homedepot.com/l/Pueblo/CO/Pueblo/81008/1511,Pueblo#1511,open,4450 N Freeway Rd,Pueblo,,Colorado,CO,81008,US,38.3156,-104.6133,America/Denver,,,719-545-5400,08,08101,08101002920,081010029201006,39380,444,ceo,fcc
1512,,https://www.homedepot.com/l/Fort-Collins/CO/Fort-Collins/80525/1512,Fort Collins#1512,open,4502 John F Kennedy P,Fort Collins,,Colorado,CO,80525,US,40.5248,-105.0697,America/Denver,,,970-206-0774,08,08069,08069001007,080690010074000,22660,,ceo,census
1513,,https://www.homedepot.com/l/Grand-Junction/CO/Grand-Junction/81505/1513,Grand Junction#1513,open,2436 F Road,Grand Junction,,Colorado,CO,81505,US,39.09563463,-108.60086615,America/Denver,,,970-244-8577,08,08077,08077000900,080770009002016,24300,,audit-website,census
1514,,https://www.homedepot.com/l/Lakewood/CO/Lakewood/80226/1514,Lakewood#1514,open,6701 W Alameda Ave,Lakewood,,Colorado,CO,80226,US,39.712,-105.07,America/Denver,,,303-232-6303,08,08059,08059011602,080590116022015,19740,216,ceo,census
1515,,https://www.homedepot.com/l/Greeley/CO/Greeley/80634/1515,Greeley#1515,open,2815 35th Ave,Greeley,,Colorado,CO,80634,US,40.3902,-104.738,America/Denver,,,970-506-0662,08,08123,08123001406,081230014061001,24540,216,ceo,census
1516,,https://www.homedepot.com/l/Parker/CO/Parker/80134/1516,Parker#1516,open,11111 South Parker Road,Parker,,Colorado,CO,80134,US,39.5144,-104.7659,America/Denver,,,303-805-9991,08,08035,08035013905,080350139051004,19740,216,ceo,census
1517,,https://www.homedepot.com/l/Westminster/CO/Westminster/80021/1517,Westminster#1517,open,7125 W 88th Ave,Westminster,,Colorado,CO,80021,US,39.8582,-105.0766,America/Denver,,,303-420-2498,08,08059,08059009831,080590098312004,19740,216,ceo,census
1518,,https://www.homedepot.com/l/SW-Colorado-Springs/CO/Colorado-Springs/80906/1518,SW Colorado Springs#1518,open,2250 Southgate Rd,Colorado Springs,,Colorado,CO,80906,US,38.7991,-104.82,America/Denver,,,719-471-0054,08,08041,08041002901,080410029012011,17820,,ceo,census
1519,,https://www.homedepot.com/l/Littleton/CO/Littleton/80123/1519,Littleton#1519,open,3000 W Belleview Ave,Littleton,,Colorado,CO,80123,US,39.6231,-105.0246,America/Denver,,,303-794-0352,08,08005,08005005620,080050056201002,19740,216,ceo,census
1520,,https://www.homedepot.com/l/Bear-Valley/CO/Denver/80227/1520,Bear Valley#1520,open,3130 S Sheridan Blvd,Denver,,Colorado,CO,80227,US,39.6547,-105.0493,America/Denver,,,303-922-0444,08,08031,08031004801,080310048013006,19740,216,ceo,census
1521,,https://www.homedepot.com/l/Longmont/CO/Longmont/80501/1521,Longmont#1521,open,393 S Hover Rd,Longmont,,Colorado,CO,80501,US,40.1553,-105.1336,America/Denver,,,720-494-0319,08,08013,08013013212,080130132121006,14500,216,ceo,census
1522,,https://www.homedepot.com/l/Golden/CO/Golden/80401/1522,Golden#1522,open,16900 W Colfax Ave,Golden,,Colorado,CO,80401,US,39.7225,-105.1901,America/Denver,,,303-384-0875,08,08059,08059009856,080590098561001,19740,216,ceo,census
1523,,https://www.homedepot.com/l/Pioneer-Hills/CO/Aurora/80015/1523,Pioneer Hills#1523,open,5600 S Chambers Rd,Aurora,,Colorado,CO,80015,US,39.6164,-104.8117,America/Denver,,,303-699-5006,08,08005,08005084900,080050849002007,19740,216,ceo,census
1524,,https://www.homedepot.com/l/Broomfield/CO/Broomfield/80020/1524,Broomfield#1524,open,12171 Sheridan Blvd,Broomfield,,Colorado,CO,80020,US,39.9166,-105.0569,America/Denver,,,303-410-0861,08,08014,08014030300,080140303002038,19740,216,ceo,census
1525,,https://www.homedepot.com/l/Avon-Vail/CO/Avon/81620/1525,Avon/Vail#1525,open,295 Yoder Ave,Avon,,Colorado,CO,81620,US,39.6263,-106.4981,America/Denver,,,970-748-9483,08,08037,08037000504,080370005041006,20780,233,ceo,fcc
1526,,https://www.homedepot.com/l/Glendale/CO/Glendale/80246/1526,Glendale#1526,open,860 S Colorado Blvd,Glendale,,Colorado,CO,80246,US,39.7011,-104.9372,America/Denver,,,720-524-2480,08,08005,08005004952,080050049522011,19740,216,ceo,census
1528,,https://www.homedepot.com/l/Saddlerock/CO/Aurora/80016/1528,Saddlerock#1528,open,6000 S Gun Club Rd,Aurora,,Colorado,CO,80016,US,39.6069,-104.7158,America/Denver,,,720-870-8839,08,08005,08005007112,080050071121022,19740,216,ceo,census
1529,,https://www.homedepot.com/l/Loveland/CO/Loveland/80537/1529,Loveland#1529,open,1100 Nickel Dr,Loveland,,Colorado,CO,80537,US,40.4047,-105.0609,America/Denver,,,970-461-9406,08,08069,08069001711,080690017113009,22660,,ceo,census
1531,,https://www.homedepot.com/l/Castle-Rock/CO/Castle-Rock/80108/1531,Castle Rock#1531,open,333 W Allen St,Castle Rock,,Colorado,CO,80108,US,39.4156,-104.8656,America/Denver,,,303-688-8790,08,08035,08035014017,080350140171031,19740,216,ceo,census
1532,,https://www.homedepot.com/l/Stapleton/CO/Denver/80207/1532,Stapleton#1532,open,3870 Quebec St,Denver,,Colorado,CO,80207,US,39.7704,-104.9012,America/Denver,,,303-320-3738,08,08031,08031004113,080310041131014,19740,216,ceo,census
1534,,https://www.homedepot.com/l/Durango/CO/Durango/81303/1534,Durango#1534,open,1301 S Camino Del Rio,Durango,,Colorado,CO,81303,US,37.2221,-107.8563,America/Denver,,,970-259-7954,08,08067,08067971100,080679711001071,20420,,ceo,fcc
1535,,https://www.homedepot.com/l/Evergreen/CO/Evergreen/80439/1535,Evergreen#1535,open,1014 El Rancho Rd,Evergreen,,Colorado,CO,80439,US,39.6991,-105.3264,America/Denver,,,303-526-4347,08,08059,08059009846,080590098461011,19740,216,ceo,census
1537,,https://www.homedepot.com/l/Montrose/CO/Montrose/81401/1537,Montrose#1537,open,1401 Ogden Rd,Montrose,,Colorado,CO,81401,US,38.4523,-107.868,America/Denver,,,970-252-0272,08,08085,08085966501,080859665012014,33940,,ceo,census
1538,,https://www.homedepot.com/l/NE-Colorado-Springs/CO/Colorado-Springs/80920/1538,NE Colorado Springs#1538,open,5660 E Woodmen Rd,Colorado Springs,,Colorado,CO,80920,US,38.9404,-104.7241,America/Denver,,,719-266-5165,08,08041,08041006901,080410069012000,17820,,ceo,census
1540,,https://www.homedepot.com/l/Highlands-Ranch/CO/Highlands-Ranch/80129/1540,Highlands Ranch#1540,open,1200 Mayberry Dr,Littleton,,Colorado,CO,80129,US,39.5453,-105.001,America/Denver,,,720-344-7645,08,08035,08035014126,080350141261007,19740,216,ceo,census
1541,,https://www.homedepot.com/l/Monument/CO/Monument/80132/1541,Monument#1541,open,15888 Jackson Creek Pkwy,Monument,,Colorado,CO,80132,US,39.0636,-104.8528,America/Denver,,,719-484-0900,08,08041,08041007301,080410073012000,17820,,ceo,census
1542,,https://www.homedepot.com/l/Canon-City/CO/Canon-City/81212/1542,Canon City#1542,open,141 Mackenzie Avenue,Canon City,,Colorado,CO,81212,US,38.4459,-105.1795,America/Denver,,,719-276-2452,08,08043,08043978400,080439784001003,15860,444,ceo,fcc
1544,,https://www.homedepot.com/l/North-Fort-Collins/CO/Fort-Collins/80524/1544,North Fort Collins#1544,open,1251 E Magnolia Street,Fort Collins,,Colorado,CO,80524,US,40.5833,-105.0548,America/Denver,,,970-224-1239,08,08069,08069001306,080690013062032,22660,,ceo,census
1545,,https://www.homedepot.com/l/Sterling/CO/Sterling/80751/1545,Sterling#1545,open,1614 W Main Street,Sterling,,Colorado,CO,80751,US,40.625,-103.2396,America/Denver,,,970-522-1599,08,08075,08075966101,080759661012042,44540,,ceo,census
1546,,https://www.homedepot.com/l/Boulder/CO/Boulder/80301/1546,Boulder#1546,open,1600 29th Street,Boulder,,Colorado,CO,80301,US,40.016,-105.2549,America/Denver,,,303-449-4221,08,08013,08013012208,080130122081032,14500,216,ceo,census
1547,,https://www.homedepot.com/l/Brighton/CO/Brighton/80601/1547,Brighton#1547,open,2440 Buckley Road,Brighton,,Colorado,CO,80601,US,39.9517,-104.7872,America/Denver,,,303-655-1686,08,08001,08001008553,080010085532099,19740,216,ceo,census
1548,,https://www.homedepot.com/l/North-Thornton/CO/Thornton/80023/1548,North Thornton#1548,open,16420 Washington Street,Thornton,,Colorado,CO,80023,US,39.9948,-104.9741,America/Denver,,,303-450-3274,08,08001,08001061200,080010612002018,19740,216,ceo,census
1549,,https://www.homedepot.com/l/Jefferson-County/CO/Morrison/80465/1549,Jefferson County#1549,open,4277 S Eldridge Street,Morrison,,Colorado,CO,80465,US,39.6363,-105.1604,America/Denver,,,303-697-6619,08,08059,08059012038,080590120381014,19740,216,ceo,census
1550,,https://www.homedepot.com/l/Lakewood-North/CO/Lakewood/80214/1550,Lakewood-North#1550,open,7200 West Colfax Avenue,Lakewood,,Colorado,CO,80214,US,39.7393,-105.0778,America/Denver,,,303-205-5141,08,08059,08059011551,080590115511005,19740,216,ceo,census
1551,,https://www.homedepot.com/l/North-Aurora/CO/Aurora/80011/1551,North Aurora#1551,open,3475 North Salida Court,Aurora,,Colorado,CO,80011,US,39.7622,-104.7774,America/Denver,,,720-374-3110,08,08001,08001008309,080010083092023,19740,216,ceo,fcc
1552,,https://www.homedepot.com/l/Firestone/CO/Firestone/80504/1552,Firestone#1552,open,10858 Jake Jabs Blvd,Firestone,,Colorado,CO,80504,US,40.1582,-104.9687,America/Denver,,,303-678-1100,08,08123,08123002019,081230020191042,24540,216,ceo,census
4878,,https://www.homedepot.com/l/New-Milford/CT/New-Milford/06776/4878,New Milford#4878,open,104 Danbury Road,New Milford,,Connecticut,CT,06776,US,41.5597,-73.4175,America/New_York,,,860-350-0304,09,09005,09005425700,090054257001021,,,ceo,census
6201,,https://www.homedepot.com/l/North-Haven/CT/North-Haven/06473/6201,North Haven#6201,open,111 Universal Drive N,North Haven,,Connecticut,CT,06473,US,41.3538,-72.87,America/New_York,,,203-234-1300,09,09009,09009167201,090091672012012,,,ceo,census
6202,,https://www.homedepot.com/l/Orange/CT/Orange/06477/6202,Orange#6202,open,440 Boston Post Rd,Orange,,Connecticut,CT,06477,US,41.2571,-73.0114,America/New_York,,,203-799-1900,09,09009,09009157100,090091571001010,,,ceo,fcc
6203,,https://www.homedepot.com/l/Berlin/CT/Berlin/06037/6203,Berlin#6203,open,225 Berlin Turnpike,Berlin,,Connecticut,CT,06037,US,41.6447,-72.7288,America/New_York,,,860-828-9440,09,09003,09003400101,090034001012019,,,ceo,census
6204,,https://www.homedepot.com/l/Norwalk/CT/Norwalk/06854/6204,Norwalk#6204,open,600 Connecticut Ave,Norwalk,,Connecticut,CT,06854,US,41.0973,-73.4472,America/New_York,,,203-854-9111,09,09001,09001043100,090010431004012,,,ceo,census
6206,,https://www.homedepot.com/l/Fairfield/CT/Fairfield/06824/6206,Fairfield#6206,open,541 Kings Hwy Cut-off,Fairfield,,Connecticut,CT,06824,US,41.1588,-73.2415,America/New_York,,,203-254-3888,09,09001,09001061400,090010614001034,,,ceo,census
6207,,https://www.homedepot.com/l/Manchester/CT/Manchester/06042/6207,Manchester#6207,open,80 Buckland Hills Dr,Manchester,,Connecticut,CT,06042,US,41.8066,-72.5528,America/New_York,,,860-644-5588,09,09003,09003514103,090035141031003,,,ceo,census
6208,,https://www.homedepot.com/l/Southington/CT/Southington/06489/6208,Southington#6208,open,89 Interstate Park Drive,Southington,,Connecticut,CT,06489,US,41.6375,-72.8692,America/New_York,,,860-621-6770,09,09003,09003430201,090034302011007,,,ceo,census
6209,,https://www.homedepot.com/l/Danbury/CT/Danbury/06811/6209,Danbury#6209,open,114 Federal Rd,Danbury,,Connecticut,CT,06811,US,41.4261,-73.4212,America/New_York,,,203-730-9600,09,09001,09001211400,090012114004002,,,ceo,census
6210,,https://www.homedepot.com/l/West-Hartford/CT/West-Hartford/06110/6210,West Hartford#6210,open,503 New Park Ave,West Hartford,,Connecticut,CT,06110,US,41.7414,-72.7235,America/New_York,,,860-231-1919,09,09003,09003496100,090034961002003,,,ceo,census
6212,,https://www.homedepot.com/l/Waterbury/CT/Waterbury/06708/6212,Waterbury#6212,open,575 Bank St,Waterbury,,Connecticut,CT,06708,US,41.5484,-73.0422,America/New_York,,,203-757-7206,09,09009,09009351900,090093519002011,,,ceo,census
6213,,https://www.homedepot.com/l/Bridgeport/CT/Bridgeport/06606/6213,Bridgeport#6213,open,656 Reservoir Ave,Bridgeport,,Connecticut,CT,06606,US,41.2107,-73.1906,America/New_York,,,203-372-7299,09,09001,09001072900,090010729001009,,,ceo,census
6214,,https://www.homedepot.com/l/Enfield/CT/Enfield/06082/6214,Enfield#6214,open,136 Elm Street,Enfield,,Connecticut,CT,06082,US,41.9977,-72.5769,America/New_York,,,860-745-1900,09,09003,09003480800,090034808004000,,,ceo,census
6215,,https://www.homedepot.com/l/Waterford/CT/Waterford/06385/6215,Waterford#6215,open,816 Hartford Turnpike,Waterford,,Connecticut,CT,06385,US,41.3719,-72.1385,America/New_York,,,860-437-1900,09,09011,09011693700,090116937001032,,,ceo,census
