store_number,slug,url,location_name,status,address_line1,city,county,state,region,postal_code,country_code,latitude,longitude,time_zone,format,total_building_area_sqft,main_voice_phone_number,state_fips,county_fips,tract_fips,block_fips,cbsa_fips,csa_fips,coord_source,fips_source
34,,https://www.kohls.com/stores/az/yuma-34.shtml,Kohl's Yuma,open,1350 S CASTLE DOME AVE,Yuma,,Arizona,AZ,85365,US,32.7039,-114.6087,America/Phoenix,,,928-783-0224,04,04027,04027010913,040270109131033,49740,,ceo,census
1445,,https://www.kohls.com/stores/fl/yulee-1445.shtml,Kohl's Yulee,open,463893 STATE ROAD 200,Yulee,,Florida,FL,32097,US,30.6276,-81.544,America/New_York,,,904-491-8805,12,12089,12089050306,120890503064020,27260,300,ceo,census
1020,,https://www.kohls.com/stores/ca/yubacity-1020.shtml,Kohl's Yuba City,open,1480 SUNSWEET BLVD,Yuba City,,California,CA,95993,US,39.1351,-121.6385,America/Los_Angeles,,,530-751-0441,06,06101,06101050501,061010505013004,49700,472,ceo,census
755,,https://www.kohls.com/stores/ca/yorbalinda-755.shtml,Kohl's Yorba Linda-savi Ranch,open,23001 SAVI RANCH PKWY,Yorba Linda,,California,CA,92887,US,33.8742,-88.3439,America/Chicago,,,714-998-8480,06,06059,06059021924,060590219243015,31080,348,ceo,census
443,,https://www.kohls.com/stores/ga/woodstock-443.shtml,Kohl's Woodstock,open,120 WOODSTOCK SQUARE AVE,Woodstock,,Georgia,GA,30189,US,34.0828,-84.5449,America/New_York,,,678-445-6079,13,13057,13057091013,130570910131002,12060,122,ceo,census
271,,https://www.kohls.com/stores/de/wilmington-271.shtml,Kohl's Brandywine,open,401 ROCKY RUN PKWY,Wilmington,,Delaware,DE,19803,US,39.8209,-75.5493,America/New_York,,,302-477-9780,10,10003,10003011700,100030117004017,37980,428,ceo,census
272,,https://www.kohls.com/stores/de/wilmington-272.shtml,Kohl's Kirkwood,open,4437 KIRKWOOD HWY,Wilmington,,Delaware,DE,19808,US,39.7268,-75.6545,America/New_York,,,302-633-9960,10,10003,10003013300,100030133001004,37980,428,ceo,census
165,,https://www.kohls.com/stores/ct/willimantic-165.shtml,Kohl's Willimantic,open,95 STORRES RD,Willimantic,,Connecticut,CT,06226,US,41.7347,-72.2009,America/New_York,,,860-456-4700,09,09013,09013881500,090138815003013,,,ceo,fcc
1386,,https://www.kohls.com/stores/ca/whittier-1386.shtml,Kohl's Whittier,open,15602 E WHITTWOOD LN,Whittier,,California,CA,90603,US,33.9435,-117.9981,America/Los_Angeles,,,562-943-9287,06,06037,06037503402,060375034021000,31080,348,ceo,census
344,,https://www.kohls.com/stores/co/westminster-344.shtml,Kohl's Westminster-co,open,11875 SHERIDAN BLVD,Westminster,,Colorado,CO,80020,US,39.9122,-105.0545,America/Denver,,,303-466-4900,08,08059,08059060300,080590603002000,19740,216,ceo,census
1327,,https://www.kohls.com/stores/fl/westmelbourne-1327.shtml,Kohl's West Melbourne,open,205 PALM BAY RD NE,West Melbourne,,Florida,FL,32904,US,28.0378,-80.6651,America/New_York,,,321-952-8480,12,12009,12009071335,120090713351004,37340,,ceo,fcc
969,,https://www.kohls.com/stores/ct/waterbury-969.shtml,Kohl's Waterbury,open,3776 E MAIN ST,Waterbury,,Connecticut,CT,06705,US,41.5403,-72.9654,America/New_York,,,203-575-9238,09,09009,09009352701,090093527013008,,,ceo,census
1164,,https://www.kohls.com/stores/ga/warnerrobins-1164.shtml,Kohl's Warner Robins,open,3050 WATSON BLVD,Warner Robins,,Georgia,GA,31093,US,32.6191,-83.6935,America/New_York,,,478-953-5432,13,13153,13153020112,131530201122008,47580,356,ceo,census
407,,https://www.kohls.com/stores/ct/wallingford-407.shtml,Kohl's Wallingford,open,1248 S BROAD ST,Wallingford,,Connecticut,CT,06492,US,41.5052,-72.8089,America/New_York,,,203-284-2144,09,09009,09009175400,090091754002009,,,ceo,census
701,,https://www.kohls.com/stores/ca/visalia-701.shtml,Kohl's Visalia,open,2208 S MOONEY BLVD,Visalia,,California,CA,93277,US,36.3118,-119.3108,America/Los_Angeles,,,559-738-8760,06,06107,06107001901,061070019011001,47300,,ceo,census
953,,https://www.kohls.com/stores/fl/viera-953.shtml,Kohl's Viera,open,6729 COLONNADE AVE,Viera,,Florida,FL,32940,US,28.2398,-80.7254,America/New_York,,,321-631-3970,12,12009,12009071201,120090712011026,37340,,ceo,census
636,,https://www.kohls.com/stores/ca/victorville-636.shtml,Kohl's Victorville,open,14305 BEAR VALLEY RD,Victorville,,California,CA,92392,US,34.4682,-117.3534,America/Los_Angeles,,,760-949-8717,06,06071,06071010009,060710100091003,40140,348,ceo,census
583,,https://www.kohls.com/stores/ca/ventura-583.shtml,Kohl's Ventura,open,4950 TELEPHONE RD,Ventura,,California,CA,93003,US,34.2608,-119.2257,America/Los_Angeles,,,805-642-0474,06,06111,06111001509,061110015091001,37100,348,ceo,census
763,,https://www.kohls.com/stores/ca/vallejo-763.shtml,Kohl's Vallejo,open,1190 ADMIRAL CALLAGHAN LN,Vallejo,,California,CA,94591,US,38.1347,-122.213,America/Los_Angeles,,,707-649-9851,06,06095,06095250105,060952501052017,46700,488,ceo,census
608,,https://www.kohls.com/stores/ca/valencia-608.shtml,Kohl's Valencia,open,24200 VALENCIA BLVD,Valencia,,California,CA,91355,US,34.4114,-118.5576,America/Los_Angeles,,,661-260-1205,06,06037,06037920329,060379203291000,31080,348,ceo,census
1070,,https://www.kohls.com/stores/ga/valdosta-1070.shtml,Kohl's Valdosta,open,1511 BAYTREE RD,Valdosta,,Georgia,GA,31602,US,30.8458,-83.3149,America/New_York,,,229-219-7321,13,13185,13185011301,131850113012003,46660,,ceo,census
757,,https://www.kohls.com/stores/ca/vacaville-757.shtml,Kohl's Vacaville,open,570 ORANGE DR,Vacaville,,California,CA,95687,US,38.3759,-121.9466,America/Los_Angeles,,,707-451-0622,06,06095,06095252911,060952529112018,46700,488,ceo,fcc
607,,https://www.kohls.com/stores/ca/upland-607.shtml,Kohl's Upland,open,1923 N CAMPUS AVE,Upland,,California,CA,91784,US,34.1335,-117.6422,America/Los_Angeles,,,909-931-2103,06,06071,06071000819,060710008192002,40140,348,ceo,census
1142,,https://www.kohls.com/stores/fl/universitypark-1142.shtml,Kohl's Sarasota,open,5205 UNIVERSITY PKWY,University Park,,Florida,FL,34201,US,27.3895,-82.4674,America/New_York,,,941-355-9074,12,12081,12081000810,120810008103000,35840,412,ceo,census
1383,,https://www.kohls.com/stores/ca/ukiah-1383.shtml,Kohl's Ukiah,open,437 N ORCHARD AVE,Ukiah,,California,CA,95482,US,39.1555,-123.1986,America/Los_Angeles,,,707-462-2694,06,06045,06045011502,060450115021013,46380,,ceo,census
1569,,https://www.kohls.com/stores/id/twinfalls-1569.shtml,Kohl's Twin Falls,open,1543 POLELINE RD EAST TWIN FAL,Twin Falls,,Idaho,ID,83301,US,42.5932,-114.4549,America/Boise,,,208-732-8322,16,16083,16083000900,160830009003007,46300,,ceo,census
1382,,https://www.kohls.com/stores/ca/tustin-1382.shtml,Kohl's Tustin,open,18182 IRVINE BLVD,Tustin,,California,CA,92780,US,33.7474,-117.8157,America/Los_Angeles,,,714-544-4910,06,06059,06059075505,060590755053019,31080,348,ceo,census
715,,https://www.kohls.com/stores/ca/turlock-715.shtml,Kohl's Turlock,open,2751 COUNTRYSIDE DR,Turlock,,California,CA,95380,US,37.5175,-120.8822,America/Los_Angeles,,,209-656-0430,06,06099,06099003805,060990038051002,33700,488,ceo,census
685,,https://www.kohls.com/stores/az/tucson-685.shtml,Kohl's Marana,open,5850 ARIZONA PAVILLIONS DR,Tucson,,Arizona,AZ,85743,US,32.3546,-111.09,America/Phoenix,,,520-572-6890,04,04019,04019004426,040190044262002,46060,536,ceo,fcc
688,,https://www.kohls.com/stores/az/tucson-688.shtml,Kohl's Southeast Tucson,open,199 N PANTANO RD,Tucson,,Arizona,AZ,85710,US,32.2237,-110.8264,America/Phoenix,,,520-886-0848,04,04019,04019004039,040190040392016,46060,536,ceo,census
403,,https://www.kohls.com/stores/ct/trumbull-403.shtml,Kohl's Trumbull,open,100 HAWLEY LN,Trumbull,,Connecticut,CT,06611,US,41.2331,-73.1519,America/New_York,,,203-378-8199,09,09001,09001090500,090010905002016,,,ceo,census
632,,https://www.kohls.com/stores/ca/torrance-632.shtml,Kohl's Torrance,open,25375 CRENSHAW BLVD,Torrance,,California,CA,90505,US,33.7943,-118.3326,America/Los_Angeles,,,310-530-3079,06,06037,06037651101,060376511012039,31080,348,ceo,census
1240,,https://www.kohls.com/stores/az/tolleson-1240.shtml,Kohl's Tolleson,open,3000 S 99TH AVE,Tolleson,,Arizona,AZ,85353,US,33.4194,-112.2744,America/Phoenix,,,623-936-0248,04,04013,04013082212,040130822122000,38060,429,ceo,census
345,,https://www.kohls.com/stores/co/thornton-345.shtml,Kohl's Thornton,open,12090 COLORADO BLVD,Thornton,,Colorado,CO,80241,US,39.9162,-104.9383,America/Denver,,,303-255-9700,08,08001,08001008547,080010085472010,19740,216,ceo,census
606,,https://www.kohls.com/stores/ca/temecula-606.shtml,Kohl's Temecula,open,32085 TEMECULA PKWY,Temecula,,California,CA,92592,US,33.4787,-117.0991,America/Los_Angeles,,,951-302-2112,06,06065,06065043256,060650432563013,40140,348,ceo,census
1226,,https://www.kohls.com/stores/fl/tallahassee-1226.shtml,Kohl's Tallahassee South,open,2010 APALACHEE PKWY,Tallahassee,,Florida,FL,32301,US,30.4333,-84.2485,America/New_York,,,850-656-1985,12,12073,12073000903,120730009032000,45220,533,ceo,census
447,,https://www.kohls.com/stores/ga/suwanee-447.shtml,Kohl's Johns Creek,open,3620 PEACHTREE PKWY,Suwanee,,Georgia,GA,30024,US,34.0713,-84.1704,America/New_York,,,678-474-4993,13,13117,13117130606,131171306061022,12060,122,ceo,census
622,,https://www.kohls.com/stores/az/surprise-622.shtml,Kohl's Surprise,open,14020 W BELL RD,Surprise,,Arizona,AZ,85374,US,33.6395,-112.3623,America/Phoenix,,,623-544-6330,04,04013,04013040531,040130405314002,38060,429,ceo,census
1593,,https://www.kohls.com/stores/az/surprise-1593.shtml,Kohl's Surprise Prasada,open,13320 N PRASADA PARKWAY,Surprise,,Arizona,AZ,85388,US,33.6055,-112.4136,America/Phoenix,,,623-352-4260,04,04013,04013061031,040130610312005,38060,429,ceo,fcc
1381,,https://www.kohls.com/stores/ca/sunvalley-1381.shtml,Kohl's Sun Valley,open,8501 LAUREL CANYON BLVD,Sun Valley,,California,CA,91352,US,34.2248,-118.3975,America/Los_Angeles,,,818-767-8917,06,06037,06037121010,060371210102000,31080,348,ceo,census
708,,https://www.kohls.com/stores/ca/stockton-708.shtml,Kohl's Stockton,open,10850 TRINITY PKWY,Stockton,,California,CA,95219,US,38.0555,-121.3732,America/Los_Angeles,,,209-954-1820,06,06077,06077004004,060770040042004,44700,488,ceo,census
437,,https://www.kohls.com/stores/ga/stockbridge-437.shtml,Kohl's Stockbridge,open,5005 MT ZION PKWY,Stockbridge,,Georgia,GA,30281,US,33.5435,-84.2856,America/New_York,,,678-289-6326,13,13151,13151070115,131510701151000,12060,122,ceo,census
1404,,https://www.kohls.com/stores/ca/sonora-1404.shtml,Kohl's Sonora,open,13777 MONO WAY,Sonora,,California,CA,95370,US,37.9759,-120.3418,America/Los_Angeles,,,209-532-2805,06,06109,06109004102,061090041022019,43760,,ceo,census
450,,https://www.kohls.com/stores/ga/snellville-450.shtml,Kohl's Snellville,open,2059 SCENIC HWY N,Snellville,,Georgia,GA,30078,US,33.8667,-84.0176,America/New_York,,,678-344-2126,13,13135,13135050762,131350507622001,12060,122,ceo,census
605,,https://www.kohls.com/stores/ca/simivalley-605.shtml,Kohl's Simi Valley,open,2950 TAPO CANYON RD,Simi Valley,,California,CA,93063,US,34.2886,-118.7156,America/Los_Angeles,,,805-526-8580,06,06111,06111008401,061110084011011,37100,348,ceo,census
697,,https://www.kohls.com/stores/ar/sherwood-697.shtml,Kohl's Sherwood,open,7600 WARDEN RD,Sherwood,,Arkansas,AR,72120,US,34.8281,-92.1922,America/Chicago,,,501-835-2920,05,05119,05119003704,051190037042005,30780,340,ceo,fcc
604,,https://www.kohls.com/stores/ca/sealbeach-604.shtml,Kohl's Seal Beach,open,12345 SEAL BEACH BLVD,Seal Beach,,California,CA,90740,US,33.7824,-118.0748,America/Los_Angeles,,,562-594-3831,06,06059,06059110008,060591100081003,31080,348,ceo,census
620,,https://www.kohls.com/stores/az/scottsdale-620.shtml,Kohl's North Scottsdale,open,8680 E RAINTREE DR,Scottsdale,,Arizona,AZ,85260,US,33.6191,-111.8951,America/Phoenix,,,480-609-9830,04,04013,04013216816,040132168162001,38060,429,ceo,census
1456,,https://www.kohls.com/stores/ga/savannah-1456.shtml,Kohl's Savannah,open,7939 ABERCORN STREET,Savannah,,Georgia,GA,31406,US,32.0045,-81.1246,America/New_York,,,912-921-4603,13,13051,13051004002,130510040024004,42340,496,ceo,census
1430,,https://www.kohls.com/stores/fl/sarasota-1430.shtml,Kohl's South Sarasota,open,3950 CENTRAL SARASOTA PARKWAY,Sarasota,,Florida,FL,34238,US,27.2245,-82.4901,America/New_York,,,941-966-3231,12,12115,12115002007,121150020071001,35840,412,ceo,census
756,,https://www.kohls.com/stores/ca/santee-756.shtml,Kohl's Santee,open,9412 MISSION GORGE RD,Santee,,California,CA,92071,US,32.8403,-116.9943,America/Los_Angeles,,,619-258-4270,06,06073,06073016614,060730166141008,41740,,ceo,census
980,,https://www.kohls.com/stores/ca/santarosa-980.shtml,Kohl's Santa Rosa,open,3746 AIRWAY DR,Santa Rosa,,California,CA,95403,US,38.4809,-122.7375,America/Los_Angeles,,,707-566-9880,06,06097,06097152801,060971528011014,42220,,ceo,census
477,,https://www.kohls.com/stores/ca/santamaria-477.shtml,Kohl's Santa Maria,open,2501 S BROADWAY,Santa Maria,,California,CA,93454,US,34.9149,-120.437,America/Los_Angeles,,,805-937-3941,06,06083,06083002011,060830020111011,42200,,ceo,census
752,,https://www.kohls.com/stores/ca/santaclarita-752.shtml,Kohl's Santa Clarita At Golden Valley,open,19307 GOLDEN VALLEY RD,Santa Clarita,,California,CA,91387,US,34.3927,-118.4686,America/Los_Angeles,,,661-252-1006,06,06037,06037920043,060379200431029,31080,348,ceo,census
1202,,https://www.kohls.com/stores/fl/sanford-1202.shtml,Kohl's Sanford,open,1371 RINEHART RD,Sanford,,Florida,FL,32771,US,28.7946,-81.3333,America/New_York,,,407-322-9848,12,12117,12117020602,121170206021032,36740,422,ceo,census
707,,https://www.kohls.com/stores/ca/sanmarcos-707.shtml,Kohl's San Marcos,open,720 CENTER DR,San Marcos,,California,CA,92069,US,33.1347,-117.1237,America/Los_Angeles,,,760-741-1480,06,06073,06073020025,060730200253006,41740,,ceo,census
762,,https://www.kohls.com/stores/ca/sanleandro-762.shtml,Kohl's San Leandro,open,15555 E 14TH ST,San Leandro,,California,CA,94578,US,37.7003,-122.1262,America/Los_Angeles,,,510-317-6420,06,06001,06001433102,060014331021021,41860,488,ceo,census
983,,https://www.kohls.com/stores/ca/sanjose-983.shtml,Kohl's San Jose South,open,890 BLOSSOM HILL RD,San Jose,,California,CA,95123,US,37.2487,-121.8604,America/Los_Angeles,,,408-224-7010,06,06085,06085512052,060855120522002,41940,488,ceo,census
1359,,https://www.kohls.com/stores/ca/sandiego-1359.shtml,Kohl's College Grove,open,3450 COLLEGE AVE,San Diego,,California,CA,92115,US,32.7419,-117.0548,America/Los_Angeles,,,619-265-8566,06,06073,06073002703,060730027034020,41740,,ceo,census
163,,https://www.kohls.com/stores/ca/salinas-163.shtml,Kohl's Salinas,open,1950 N DAVIS RD,Salinas,,California,CA,93907,US,36.719,-121.6641,America/Los_Angeles,,,831-444-9730,06,06053,06053010504,060530105044000,41500,,ceo,census
1149,,https://www.kohls.com/stores/fl/saintpetersburg-1149.shtml,Kohl's St Petersburg,open,4820 PARK ST N,Saint Petersburg,,Florida,FL,33709,US,27.8157,-82.7561,America/New_York,,,727-545-1531,12,12103,12103025019,121030250191000,45300,,ceo,census
683,,https://www.kohls.com/stores/ca/sacramento-683.shtml,Kohl's Natomas,open,4700 NATOMAS BLVD,Sacramento,,California,CA,95835,US,38.659,-121.5083,America/Los_Angeles,,,916-928-4260,06,06067,06067007103,060670071032007,40900,472,ceo,census
1316,,https://www.kohls.com/stores/fl/royalpalmbeach-1316.shtml,Kohl's Royal Palm Beach,open,8751 SOUTHERN RD S,Royal Palm Beach,,Florida,FL,33411,US,26.6815,-80.1818,America/New_York,,,561-784-9887,12,12099,12099007833,120990078333011,33100,370,ceo,census
445,,https://www.kohls.com/stores/ga/roswell-445.shtml,Kohl's Roswell,open,620 W CROSSVILLE RD,Roswell,,Georgia,GA,30075,US,34.0558,-84.3807,America/New_York,,,678-352-9536,13,13121,13121011419,131210114192001,12060,122,ceo,census
680,,https://www.kohls.com/stores/ca/roseville-680.shtml,Kohl's Roseville West,open,10375 FAIRWAY DR,Roseville,,California,CA,95678,US,38.7891,-121.2868,America/Los_Angeles,,,916-352-0678,06,06061,06061022800,060610228001009,40900,472,ceo,fcc
1575,,https://www.kohls.com/stores/ga/rome-1575.shtml,Kohl's Rome,open,86 HICKS DRIVE,Rome,,Georgia,GA,30161,US,34.2523,-85.1633,America/New_York,,,706-528-9158,13,13115,13115000900,131150009002004,40660,122,ceo,census
457,,https://www.kohls.com/stores/ar/rogers-457.shtml,Kohl's Rogers-ar,open,301 N 46TH ST,Rogers,,Arkansas,AR,72756,US,36.3375,-94.1768,America/Chicago,,,479-636-8809,05,05007,05007020305,050070203052014,22220,,ceo,census
640,,https://www.kohls.com/stores/ct/rockyhill-640.shtml,Kohl's Rocky Hill,open,1899 SILAS DEANE HWY,Rocky Hill,,Connecticut,CT,06067,US,41.6746,-72.6542,America/New_York,,,860-721-0777,09,09003,09003490100,090034901004010,,,ceo,census
548,,https://www.kohls.com/stores/ca/rnchosntamargarita-548.shtml,Kohl's Rncho Snta Margarita,open,22215 EL PASEO,Rncho Snta Margarita,,California,CA,92688,US,33.64,-117.5948,America/Los_Angeles,,,949-635-9314,06,06059,06059032054,060590320541016,31080,348,ceo,census
603,,https://www.kohls.com/stores/ca/riverside-603.shtml,Kohl's Riverside Van Buren,open,19260 VAN BUREN BOULEVARD,Riverside,,California,CA,92508,US,33.8893,-117.3273,America/Los_Angeles,,,951-780-0785,06,06065,06065042018,060650420182016,40140,348,ceo,fcc
1390,,https://www.kohls.com/stores/ca/riverside-1390.shtml,Kohl's Riverside At Tyler,open,3520 TYLER STREET,Riverside,,California,CA,92503,US,33.9065,-117.4599,America/Los_Angeles,,,951-353-2413,06,06065,06065041408,060650414082000,40140,348,ceo,census
1077,,https://www.kohls.com/stores/ca/riverbank-1077.shtml,Kohl's Riverbank,open,2351 CLARIBEL RD,Riverbank,,California,CA,95367,US,37.7139,-120.9545,America/Los_Angeles,,,209-863-1350,06,06099,06099000407,060990004072026,33700,488,ceo,census
1389,,https://www.kohls.com/stores/ca/redwoodcity-1389.shtml,Kohl's Redwood City,open,250 WALNUT ST,Redwood City,,California,CA,94063,US,37.4918,-122.2242,America/Los_Angeles,,,650-599-9149,06,06081,06081610202,060816102022013,41860,488,ceo,census
1376,,https://www.kohls.com/stores/ca/redondobeach-1376.shtml,Kohl's Redondo Beach,open,1799 HAWTHORNE BLVD,Redondo Beach,,California,CA,90278,US,33.8701,-118.3549,America/Los_Angeles,,,310-542-9601,06,06037,06037620601,060376206011002,31080,348,ceo,census
631,,https://www.kohls.com/stores/ca/redlands-631.shtml,Kohl's Redlands,open,27540 W LUGONIA AVE,Redlands,,California,CA,92374,US,34.0733,-117.2027,America/Los_Angeles,,,909-307-2056,06,06071,06071007800,060710078001019,40140,348,ceo,census
1069,,https://www.kohls.com/stores/ca/redding-1069.shtml,Kohl's Redding,open,895 BROWNING ST,Redding,,California,CA,96003,US,40.5923,-122.3543,America/Los_Angeles,,,530-221-5227,06,06089,06089010803,060890108033018,39820,454,ceo,census
1207,,https://www.kohls.com/stores/az/queencreek-1207.shtml,Kohl's Queen Creek,open,21058 S ELLSWORTH LOOP RD,Queen Creek,,Arizona,AZ,85142,US,33.2572,-111.6428,America/Phoenix,,,480-987-6232,04,04013,04013816904,040138169042017,38060,429,ceo,census
586,,https://www.kohls.com/stores/co/pueblo-586.shtml,Kohl's Pueblo,open,5627 N ELIZABETH ST,Pueblo,,Colorado,CO,81008,US,38.3315,-104.6222,America/Denver,,,719-545-6588,08,08101,08101002920,081010029202020,39380,444,ceo,census
1089,,https://www.kohls.com/stores/az/prescottvalley-1089.shtml,Kohl's Prescott Valley,open,3280 N GLASFORD HILL RD,Prescott Valley,,Arizona,AZ,86314,US,34.5898,-112.3416,America/Phoenix,,,928-772-0989,04,04025,04025000615,040250006152000,39150,,ceo,census
1334,,https://www.kohls.com/stores/al/prattville-1334.shtml,Kohl's Prattville,open,1460 COTTON EXCHANGE,Prattville,,Alabama,AL,36066,US,32.4581,-86.4078,America/Chicago,,,334-285-2491,01,01051,01051031300,010510313001038,33860,388,ceo,census
710,,https://www.kohls.com/stores/ca/poway-710.shtml,Kohl's Poway,open,12880 GREGG CT,Poway,,California,CA,92064,US,32.9386,-117.0487,America/Los_Angeles,,,858-668-2860,06,06073,06073017049,060730170492029,41740,,ceo,census
1403,,https://www.kohls.com/stores/ca/porterville-1403.shtml,Kohl's Porterville,open,1275 WEST HENDERSON AVENUE,Porterville,,California,CA,93257,US,36.0786,-119.0451,America/Los_Angeles,,,559-789-0149,06,06107,06107003602,061070036021009,47300,,ceo,census
1290,,https://www.kohls.com/stores/fl/portorange-1290.shtml,Kohl's Port Orange,open,1682 TAYLOR RD,Port Orange,,Florida,FL,32128,US,29.1055,-81.0353,America/New_York,,,386-761-5085,12,12127,12127083207,121270832073002,19660,422,ceo,census
1209,,https://www.kohls.com/stores/fl/portcharlotte-1209.shtml,Kohl's Port Charlotte,open,19600 COCHRAN BLVD,Port Charlotte,,Florida,FL,33948,US,27.0135,-82.1352,America/New_York,,,941-629-1287,12,12015,12015020301,120150203011090,39460,412,ceo,census
978,,https://www.kohls.com/stores/ca/pleasanthill-978.shtml,Kohl's Pleasant Hill,open,2302 MONUMENT BLVD,Pleasant Hill,,California,CA,94523,US,37.9437,-122.0576,America/Los_Angeles,,,925-691-9650,06,06013,06013324004,060133240042008,41860,488,ceo,census
1249,,https://www.kohls.com/stores/fl/plantation-1249.shtml,Kohl's Plantation,open,821 S UNIVERSITY DR,Plantation,,Florida,FL,33324,US,26.113,-80.2524,America/New_York,,,954-382-3313,12,12011,12011061004,120110610043001,33100,370,ceo,census
461,,https://www.kohls.com/stores/ct/plainville-461.shtml,Kohl's Plainville,open,200 NEW BRITAIN AVE,Plainville,,Connecticut,CT,06062,US,41.6763,-72.8443,America/New_York,,,860-747-9667,09,09003,09003420602,090034206023012,,,ceo,census
613,,https://www.kohls.com/stores/az/phoenix-613.shtml,Kohl's Ahwatukee,open,4637 E CHANDLER BLVD,Phoenix,,Arizona,AZ,85048,US,33.3029,-111.9826,America/Phoenix,,,480-785-7561,04,04013,04013116712,040131167121010,38060,429,ceo,census
615,,https://www.kohls.com/stores/az/phoenix-615.shtml,Kohl's Desert Ridge,open,21001 N TATUM BLVD,Phoenix,,Arizona,AZ,85050,US,33.6743,-111.9745,America/Phoenix,,,480-538-1750,04,04013,04013615202,040136152022007,38060,429,ceo,census
638,,https://www.kohls.com/stores/az/phoenix-638.shtml,Kohl's North Phoenix,open,17232 N 19TH AVE,Phoenix,,Arizona,AZ,85023,US,33.6417,-112.1019,America/Phoenix,,,602-298-1893,04,04013,04013618600,040136186003018,38060,429,ceo,census
1102,,https://www.kohls.com/stores/az/phoenix-1102.shtml,Kohl's Tramonto,open,34860 N NORTH VLY PKWY,Phoenix,,Arizona,AZ,85086,US,33.8,-112.1323,America/Phoenix,,,623-780-7600,04,04013,04013610600,040136106002018,38060,429,ceo,census
760,,https://www.kohls.com/stores/ca/petaluma-760.shtml,Kohl's Petaluma,open,1363 N MCDOWELL BLVD,Petaluma,,California,CA,94954,US,38.272,-122.6661,America/Los_Angeles,,,707-782-9849,06,06097,06097150607,060971506072015,42220,,ceo,census
1084,,https://www.kohls.com/stores/az/peoria-1084.shtml,Kohl's Lake Pleasant,open,10072 W HAPPY VALLEY RD,Peoria,,Arizona,AZ,85383,US,33.7129,-112.2782,America/Phoenix,,,623-376-9240,04,04013,04013610902,040136109022002,38060,429,ceo,fcc
1092,,https://www.kohls.com/stores/fl/pensacola-1092.shtml,Kohl's Pensacola,open,9300 BALDRIDGE DR,Pensacola,,Florida,FL,32514,US,30.53,-87.2272,America/Chicago,,,850-478-3250,12,12033,12033003507,120330035071007,37860,,ceo,census
960,,https://www.kohls.com/stores/ca/pasorobles-960.shtml,Kohl's Paso Robles,open,100 NIBLICK RD,Paso Robles,,California,CA,93446,US,35.6141,-120.6848,America/Los_Angeles,,,805-226-7570,06,06079,06079010204,060790102041006,42020,,ceo,census
570,,https://www.kohls.com/stores/co/parker-570.shtml,Kohl's Parker,open,11485 S TWENTY MILE RD,Parker,,Colorado,CO,80134,US,39.5085,-104.7653,America/Denver,,,303-805-5538,08,08035,08035013907,080350139072005,19740,216,ceo,census
1568,,https://www.kohls.com/stores/fl/panamacity-1568.shtml,Kohl's Panama City,open,2610 HIGHWAY 77,Panama City,,Florida,FL,32405,US,30.195,-85.6488,America/Chicago,,,850-522-5866,12,12005,12005001302,120050013023020,37460,,ceo,fcc
753,,https://www.kohls.com/stores/ca/palmdale-753.shtml,Kohl's Palmdale,open,39850 10TH ST W,Palmdale,,California,CA,93551,US,34.6067,-118.1444,America/Los_Angeles,,,661-265-7885,06,06037,06037910218,060379102181020,31080,348,ceo,census
1187,,https://www.kohls.com/stores/ca/palmdesert-1187.shtml,Kohl's Palm Desert,open,34940 MONTEREY AVE,Palm Desert,,California,CA,92211,US,33.7955,-116.3849,America/Los_Angeles,,,760-328-0128,06,06065,06065044922,060650449223004,40140,348,ceo,census
1288,,https://www.kohls.com/stores/fl/palmcoast-1288.shtml,Kohl's Palm Coast,open,665 PALM COAST PKWY SW,Palm Coast,,Florida,FL,32137,US,29.5507,-81.2387,America/New_York,,,386-446-5147,12,12035,12035060211,120350602112001,19660,422,ceo,census
1286,,https://www.kohls.com/stores/al/oxford-1286.shtml,Kohl's Oxford,open,1600 OXFORD EXCHANGE BLVD,Oxford,,Alabama,AL,36203,US,33.6093,-85.7782,America/Chicago,,,256-832-8886,01,01015,01015001101,010150011012004,11500,,ceo,fcc
1162,,https://www.kohls.com/stores/fl/oviedo-1162.shtml,Kohl's Oviedo,open,5521 DEEP LAKE RD,Oviedo,,Florida,FL,32765,US,28.6162,-81.2603,America/New_York,,,407-657-0190,12,12117,12117021318,121170213181011,36740,422,ceo,census
1028,,https://www.kohls.com/stores/az/orovalley-1028.shtml,Kohl's Oro Valley,open,7785 N ORACLE RD,Oro Valley,,Arizona,AZ,85704,US,32.3486,-110.9777,America/Phoenix,,,520-297-7130,04,04019,04019004614,040190046141001,46060,536,ceo,census
954,,https://www.kohls.com/stores/fl/orlando-954.shtml,Kohl's Waterford Lakes,open,422 N ALAFAYA TRAIL,Orlando,,Florida,FL,32828,US,28.5524,-81.2083,America/New_York,,,407-282-0169,12,12095,12095016740,120950167402006,36740,422,ceo,census
1230,,https://www.kohls.com/stores/fl/orlando-1230.shtml,Kohl's Narcoossee,open,7143 NARCOOSSEE RD,Orlando,,Florida,FL,32822,US,28.4616,-81.2696,America/New_York,,,407-382-8558,12,12095,12095016756,120950167561046,36740,422,ceo,census
68,,https://www.kohls.com/stores/il/orlandpark-68.shtml,Kohl's Orland Park,open,3 ORLAND PARK PL,Orland Park,,Illinois,IL,60462,US,41.6109,-87.8505,America/Chicago,,,708-460-7800,17,17031,17031824106,170318241063014,16980,176,ceo,census
952,,https://www.kohls.com/stores/fl/orangecity-952.shtml,Kohl's Orange City,open,1065 HARLEY STRICKLAND BLVD,Orange City,,Florida,FL,32763,US,28.9188,-81.2837,America/New_York,,,386-456-1001,12,12127,12127090806,121270908062041,19660,422,ceo,census
968,,https://www.kohls.com/stores/ct/orange-968.shtml,Kohl's Orange,open,250 BULL HILL LN,Orange,,Connecticut,CT,06477,US,41.2723,-72.9883,America/New_York,,,203-795-0515,09,09009,09009157100,090091571001001,,,ceo,census
1284,,https://www.kohls.com/stores/al/opelika-1284.shtml,Kohl's Opelika,open,2774 ENTERPRISE DR,Opelika,,Alabama,AL,36801,US,32.6154,-85.4099,America/Chicago,,,334-745-2259,01,01081,01081041101,010810411011022,12220,194,ceo,census
601,,https://www.kohls.com/stores/ca/ontario-601.shtml,Kohl's Ontario,open,1051 N MILLIKEN AVE,Ontario,,California,CA,91764,US,34.0758,-117.5597,America/Los_Angeles,,,909-484-7805,06,06071,06071002109,060710021092004,40140,348,ceo,census
1507,,https://www.kohls.com/stores/ct/oldsaybrook-1507.shtml,Kohl's Old Saybrook,open,40 SPENCER PLAIN ROAD,Old Saybrook,,Connecticut,CT,06475,US,41.2888,-72.416,America/New_York,,,860-388-8032,09,09007,09007670100,090076701002023,,,ceo,census
700,,https://www.kohls.com/stores/ca/oceanside-700.shtml,Kohl's Oceanside-ca,open,3410 MARRON RD,Oceanside,,California,CA,92056,US,33.1792,-117.2983,America/Los_Angeles,,,760-730-3520,06,06073,06073019803,060730198031017,41740,,ceo,census
1211,,https://www.kohls.com/stores/fl/ocala-1211.shtml,Kohl's Ocala,open,4465 SW 40TH AVE,Ocala,,Florida,FL,34474,US,29.1434,-82.1861,America/New_York,,,352-291-0004,12,12083,12083002505,120830025053000,36100,,ceo,census
398,,https://www.kohls.com/stores/ct/norwalk-398.shtml,Kohl's West Norwalk,open,500 CONNECTICUT AVE,Norwalk,,Connecticut,CT,06854,US,41.0996,-73.4443,America/New_York,,,203-838-8996,09,09001,09001043100,090010431004011,,,ceo,census
1373,,https://www.kohls.com/stores/ca/northridge-1373.shtml,Kohl's Northridge,open,8800 CORBIN AVE,Northridge,,California,CA,91324,US,34.2302,-118.5603,America/Los_Angeles,,,818-885-9022,06,06037,06037113424,060371134241000,31080,348,ceo,census
57,,https://www.kohls.com/stores/il/norridge-57.shtml,Kohl's Harlem-irving,open,4220 N HARLEM AVE,Norridge,,Illinois,IL,60706,US,41.9569,-87.8079,America/Chicago,,,708-452-8200,17,17031,17031810502,170318105024000,16980,176,ceo,census
439,,https://www.kohls.com/stores/ga/newnan-439.shtml,Kohl's Newnan,open,1140 BULLSBORO DR,Newnan,,Georgia,GA,30265,US,33.3992,-84.74,America/New_York,,,770-251-1807,13,13077,13077170310,130771703101008,12060,122,ceo,fcc
630,,https://www.kohls.com/stores/ca/newburypark-630.shtml,Kohl's Thousand Oaks,open,1960 NEWBURY RD,Newbury Park,,California,CA,91320,US,34.1821,-118.9225,America/Los_Angeles,,,805-499-8061,06,06111,06111005908,061110059081002,37100,348,ceo,census
504,,https://www.kohls.com/stores/de/newark-504.shtml,Kohl's Newark-de,open,2800 PULASKI HWY,Newark,,Delaware,DE,19702,US,39.603,-75.7656,America/New_York,,,302-834-7300,10,10003,10003014812,100030148123017,37980,428,ceo,fcc
1128,,https://www.kohls.com/stores/fl/newportrichey-1128.shtml,Kohl's New Port Richey,open,8333 LITTLE RD,New Port Richey,,Florida,FL,34654,US,28.2779,-82.6765,America/New_York,,,727-845-8789,12,12101,12101030906,121010309061000,45300,,ceo,census
1452,,https://www.kohls.com/stores/ct/newmilford-1452.shtml,Kohl's New Milford,open,169 DANBURY ROAD,New Milford,,Connecticut,CT,06776,US,41.5514,-73.4154,America/New_York,,,860-210-8105,09,09005,09005425700,090054257001030,,,ceo,census
1127,,https://www.kohls.com/stores/fl/naples-1127.shtml,Kohl's Naples,open,6381 NAPLES BLVD,Naples,,Florida,FL,34109,US,26.2219,-81.7727,America/New_York,,,239-514-0184,12,12021,12021010216,120210102163009,34940,163,ceo,census
1095,,https://www.kohls.com/stores/id/nampa-1095.shtml,Kohl's Nampa,open,16566 N MARKETPLACE BLVD,Nampa,,Idaho,ID,83687,US,43.6131,-116.5889,America/Boise,,,208-442-8091,16,16027,16027021008,160270210082043,14260,147,ceo,census
585,,https://www.kohls.com/stores/ca/murrieta-585.shtml,Kohl's Murrieta,open,24661 MADISON AVE,Murrieta,,California,CA,92562,US,33.5619,-117.2079,America/Los_Angeles,,,951-461-7512,06,06065,06065049800,060650498001001,40140,348,ceo,census
177,,https://www.kohls.com/stores/il/mountprospect-177.shtml,Kohl's Mt Prospect,open,1500 S ELMHURST RD,Mount Prospect,,Illinois,IL,60056,US,42.0385,-87.943,America/Chicago,,,847-437-4080,17,17031,17031805002,170318050024004,16980,176,ceo,census
1571,,https://www.kohls.com/stores/il/mortongrove-1571.shtml,Kohl's Morton Grove,open,6931 DEMPSTER STREET,Morton Grove,,Illinois,IL,60053,US,42.0406,-87.7986,America/Chicago,,,847-779-1864,17,17031,17031808301,170318083011006,16980,176,ceo,census
1125,,https://www.kohls.com/stores/ca/morenovalley-1125.shtml,Kohl's Moreno Valley,open,27200 EUCALYPTUS AVE,Moreno Valley,,California,CA,92555,US,33.9384,-117.1877,America/Los_Angeles,,,951-243-3591,06,06065,06065042622,060650426221001,40140,348,ceo,census
600,,https://www.kohls.com/stores/ca/moorpark-600.shtml,Kohl's Moorpark,open,872 LOS ANGELES AVE,Moorpark,,California,CA,93021,US,34.2799,-118.8639,America/Los_Angeles,,,805-531-0151,06,06111,06111007613,061110076132006,37100,348,ceo,census
1064,,https://www.kohls.com/stores/co/monument-1064.shtml,Kohl's Monument,open,15866 JACKSON CREEK PKWY,Monument,,Colorado,CO,80132,US,39.0639,-104.8506,America/Denver,,,719-488-4531,08,08041,08041007301,080410073012000,17820,,ceo,census
784,,https://www.kohls.com/stores/al/montgomery-784.shtml,Kohl's Montgomery East,open,2430 BERRYHILL RD,Montgomery,,Alabama,AL,36117,US,32.3572,-86.1611,America/Chicago,,,334-215-0211,01,01101,01101005412,011010054124026,33860,388,ceo,census
1555,,https://www.kohls.com/stores/ca/montebello-1555.shtml,Kohl's Montebello,open,2441 VIA CAMPO,Montebello,,California,CA,90640,US,34.0316,-118.1222,America/Los_Angeles,,,323-726-6265,06,06037,06037530005,060375300052010,31080,348,ceo,census
1370,,https://www.kohls.com/stores/ca/monrovia-1370.shtml,Kohl's Monrovia,open,504 W HUNTINGTON DR,Monrovia,,California,CA,91016,US,34.139,-118.0103,America/Los_Angeles,,,626-301-9261,06,06037,06037430901,060374309012009,31080,348,ceo,census
256,,https://www.kohls.com/stores/il/moline-256.shtml,Kohl's Moline,open,800 42ND AVENUE DR,Moline,,Illinois,IL,61265,US,41.469,-90.5256,America/Chicago,,,309-762-9930,17,17161,17161021900,171610219001066,19340,209,ceo,census
714,,https://www.kohls.com/stores/ca/modesto-714.shtml,Kohl's Modesto,open,2225 PLAZA PKWY,Modesto,,California,CA,95350,US,37.6727,-121.0368,America/Los_Angeles,,,209-557-9870,06,06099,06099000803,060990008031003,33700,488,ceo,census
1023,,https://www.kohls.com/stores/al/mobile-1023.shtml,Kohl's Mobile,open,845 SCHILLINGER RD S,Mobile,,Alabama,AL,36695,US,30.6727,-88.2242,America/Chicago,,,251-633-6882,01,01097,01097006411,010970064111007,33660,380,ceo,census
1248,,https://www.kohls.com/stores/fl/miramar-1248.shtml,Kohl's Miramar,open,12200 MIRAMAR PKWY,Miramar,,Florida,FL,33025,US,25.9767,-80.3088,America/New_York,,,954-431-1560,12,12011,12011110321,120111103211044,33100,370,ceo,census
1032,,https://www.kohls.com/stores/ca/miraloma-1032.shtml,Kohl's Mira Loma,open,12315 LIMONITE AVE,Mira Loma,,California,CA,91752,US,33.9782,-117.551,America/Los_Angeles,,,951-685-0860,06,06065,06065040618,060650406181000,40140,348,ceo,census
1264,,https://www.kohls.com/stores/ga/milton-1264.shtml,Kohl's Milton,open,13097 HWY 9 NORTH,Milton,,Georgia,GA,30004,US,34.1052,-84.2688,America/New_York,,,678-624-0164,13,13121,13121011645,131210116451000,12060,122,ceo,census
994,,https://www.kohls.com/stores/ca/milpitas-994.shtml,Kohl's Milpitas,open,1150 GREAT MALL DR,Milpitas,,California,CA,95035,US,37.4168,-121.8993,America/Los_Angeles,,,408-262-4055,06,06085,06085504510,060855045101006,41940,488,ceo,fcc
1124,,https://www.kohls.com/stores/de/middletown-1124.shtml,Kohl's Middletown-de,open,601 S RIDGE AVE,Middletown,,Delaware,DE,19709,US,39.448,-75.7341,America/New_York,,,302-378-1620,10,10003,10003016610,100030166103045,37980,428,ceo,census
1247,,https://www.kohls.com/stores/fl/miami-1247.shtml,Kohl's Kendall,open,11800 MILLS DR,Miami,,Florida,FL,33183,US,25.69,-80.384,America/New_York,,,305-596-6221,12,12086,12086008431,120860084311011,33100,370,ceo,fcc
749,,https://www.kohls.com/stores/az/mesa-749.shtml,Kohl's North East Mesa,open,5833 E MCKELLIPS RD,Mesa,,Arizona,AZ,85215,US,33.4503,-111.7047,America/Phoenix,,,480-924-8527,04,04013,04013420216,040134202163000,38060,429,ceo,census
1073,,https://www.kohls.com/stores/az/mesa-1073.shtml,Kohl's Mesa East,open,1632 S SIGNAL BUTTE RD,Mesa,,Arizona,AZ,85209,US,33.3851,-111.6025,America/Phoenix,,,480-357-5259,04,04013,04013422615,040134226153001,38060,429,ceo,census
1094,,https://www.kohls.com/stores/id/meridian-1094.shtml,Kohl's Meridian,open,3275 N EAGLE RD,Meridian,,Idaho,ID,83646,US,43.6346,-116.3577,America/Boise,,,208-846-8974,16,16001,16001010365,160010103652014,14260,147,ceo,census
1367,,https://www.kohls.com/stores/ca/merced-1367.shtml,Kohl's Merced,open,400 MERCED MALL,Merced,,California,CA,95348,US,37.3208,-120.482,America/Los_Angeles,,,209-384-2934,06,06047,06047001004,060470010041002,32900,488,ceo,fcc
1282,,https://www.kohls.com/stores/ca/menifee-1282.shtml,Kohl's Menifee,open,30252 HAUN RD,Menifee,,California,CA,92584,US,33.682,-117.1722,America/Los_Angeles,,,951-301-9605,06,06065,06065042742,060650427422001,40140,348,ceo,census
475,,https://www.kohls.com/stores/il/mchenry-475.shtml,Kohl's Mchenry,open,2450 N RICHMOND RD,Mchenry,,Illinois,IL,60051,US,42.3609,-88.2642,America/Chicago,,,815-344-0024,17,17111,17111870604,171118706043012,16980,176,ceo,census
1123,,https://www.kohls.com/stores/ga/mcdonough-1123.shtml,Kohl's Mcdonough,open,1570 GA-20,Mcdonough,,Georgia,GA,30253,US,33.4208,-84.1911,America/New_York,,,770-914-6993,13,13151,13151070216,131510702162000,12060,122,ceo,census
1122,,https://www.kohls.com/stores/ca/marina-1122.shtml,Kohl's Marina,open,111 GENERAL STILWELL DR,Marina,,California,CA,93933,US,36.6666,-121.813,America/Los_Angeles,,,831-883-8449,06,06053,06053014102,060530141023005,41500,,ceo,census
444,,https://www.kohls.com/stores/ga/marietta-444.shtml,Kohl's Merchants Walk,open,1289 JOHNSON FERRY RD,Marietta,,Georgia,GA,30068,US,33.9793,-84.4261,America/New_York,,,678-560-1296,13,13067,13067030334,130670303342001,12060,122,ceo,census
976,,https://www.kohls.com/stores/ca/manteca-976.shtml,Kohl's Manteca,open,2360 DANIELS ST,Manteca,,California,CA,95337,US,37.7857,-121.2582,America/Los_Angeles,,,209-825-1493,06,06077,06077005122,060770051223035,44700,488,ceo,census
503,,https://www.kohls.com/stores/ct/manchester-503.shtml,Kohl's Manchester-ct,open,155 TOLLAND TURNPIKE,Manchester,,Connecticut,CT,06042,US,41.8138,-72.5127,America/New_York,,,860-643-4225,09,09003,09003514104,090035141042014,,,ceo,census
559,,https://www.kohls.com/stores/al/madison-559.shtml,Kohl's Huntsville,open,7630 HIGHWAY 72 WEST,Madison,,Alabama,AL,35758,US,34.7576,-86.7349,America/Chicago,,,256-722-0728,01,01089,01089010612,010890106123025,26620,290,ceo,census
992,,https://www.kohls.com/stores/ga/macon-992.shtml,Kohl's Macon,open,6275 ZEBULON RD,Macon,,Georgia,GA,31210,US,32.8843,-83.7672,America/New_York,,,478-474-2221,13,13021,13021013413,130210134131012,31420,356,ceo,census
174,,https://www.kohls.com/stores/il/machesneypark-174.shtml,Kohl's Machesney Park,open,10153 N 2ND ST,Machesney Park,,Illinois,IL,61115,US,42.3667,-89.0302,America/Chicago,,,815-639-1009,17,17201,17201003805,172010038052065,40420,466,ceo,census
1025,,https://www.kohls.com/stores/fl/lutz-1025.shtml,Kohl's Tampa North,open,3979 VAN DYKE RD,Lutz,,Florida,FL,33558,US,28.1295,-82.5059,America/New_York,,,813-269-9400,12,12057,12057011522,120570115223002,45300,,ceo,census
1604,,https://www.kohls.com/stores/fl/lutz-1604.shtml,Kohl's Wesley Chapel,open,1854 SUN VISTA DR.,Lutz,,Florida,FL,33559,US,28.1863,-82.3931,America/New_York,,,813-501-2601,12,12101,12101032012,121010320122019,45300,,ceo,fcc
967,,https://www.kohls.com/stores/co/loveland-967.shtml,Kohl's Loveland,open,1340 SCULPTOR DR,Loveland,,Colorado,CO,80537,US,40.406,-105.0322,America/Denver,,,970-669-0930,08,08069,08069001711,080690017112002,22660,,ceo,census
429,,https://www.kohls.com/stores/co/longmont-429.shtml,Kohl's Longmont,open,1211 S HOVER RD,Longmont,,Colorado,CO,80501,US,40.1449,-105.1338,America/Denver,,,720-494-0400,08,08013,08013013212,080130132124005,14500,216,ceo,census
341,,https://www.kohls.com/stores/co/lonetree-341.shtml,Kohl's Lone Tree,open,8660 S QUEBEC ST,Lone Tree,,Colorado,CO,80124,US,39.5588,-104.9029,America/Denver,,,303-790-8000,08,08035,08035014114,080350141142008,19740,216,ceo,fcc
1366,,https://www.kohls.com/stores/ca/lodi-1366.shtml,Kohl's Lodi,open,530 W KETTLEMAN LN,Lodi,,California,CA,95240,US,38.1139,-121.2803,America/Los_Angeles,,,209-334-0213,06,06077,06077004307,060770043071001,44700,488,ceo,census
1121,,https://www.kohls.com/stores/ca/livermore-1121.shtml,Kohl's Livermore,open,2900 LAS POSITAS RD,Livermore,,California,CA,94551,US,37.7002,-121.7653,America/Los_Angeles,,,925-243-0450,06,06001,06001451401,060014514012008,41860,488,ceo,census
415,,https://www.kohls.com/stores/co/littleton-415.shtml,Kohl's Sw Denver,open,8444 S KIPLING PKWY,Littleton,,Colorado,CO,80127,US,39.5622,-105.1074,America/Denver,,,720-922-9000,08,08059,08059012057,080590120574009,19740,216,ceo,census
471,,https://www.kohls.com/stores/ct/lisbon-471.shtml,Kohl's Lisbon,open,160 RIVER RD,Lisbon,,Connecticut,CT,06351,US,41.5844,-71.9907,America/New_York,,,860-376-7770,09,09011,09011710100,090117101005001,,,ceo,census
648,,https://www.kohls.com/stores/il/lincolnwood-648.shtml,Kohl's Lincolnwood,open,3333 W TOUHY AVE,Lincolnwood,,Illinois,IL,60712,US,42.01,-87.714,America/Chicago,,,847-673-9140,17,17031,17031808002,170318080022002,16980,176,ceo,census
419,,https://www.kohls.com/stores/il/lemont-419.shtml,Kohl's Lemont,open,13440 ARCHER AVE,Lemont,,Illinois,IL,60439,US,41.6435,-88.0031,America/Chicago,,,630-257-2727,17,17031,17031824005,170318240053036,16980,176,ceo,census
452,,https://www.kohls.com/stores/ga/lawrenceville-452.shtml,Kohl's Lawrenceville,open,640 COLLINS HILL RD,Lawrenceville,,Georgia,GA,30046,US,33.972,-83.9944,America/New_York,,,678-442-6646,13,13135,13135050564,131350505642003,12060,122,ceo,census
633,,https://www.kohls.com/stores/ca/lakewood-633.shtml,Kohl's Lakewood-ca,open,2650 E CARSON ST,Lakewood,,California,CA,90712,US,33.8311,-118.1615,America/Los_Angeles,,,562-425-2127,06,06037,06037571400,060375714001019,31080,348,ceo,census
689,,https://www.kohls.com/stores/co/lakewood-689.shtml,Kohl's Lakewood-co,open,3150 S WADSWORTH BLVD,Lakewood,,Colorado,CO,80227,US,39.6603,-105.0793,America/Denver,,,303-989-0308,08,08059,08059011904,080590119041000,19740,216,ceo,census
955,,https://www.kohls.com/stores/fl/lakeland-955.shtml,Kohl's Lakeland,open,1401 TOWN CENTER DR,Lakeland,,Florida,FL,33803,US,28.0019,-81.9785,America/New_York,,,863-682-8989,12,12105,12105012003,121050120033017,29460,422,ceo,census
420,,https://www.kohls.com/stores/il/lakezurich-420.shtml,Kohl's Lake Zurich,open,675 N RAND RD,Lake Zurich,,Illinois,IL,60047,US,42.2093,-88.113,America/Chicago,,,847-550-9400,17,17097,17097864408,170978644082008,16980,176,ceo,census
1250,,https://www.kohls.com/stores/fl/lakewales-1250.shtml,Kohl's Lake Wales,open,2803 RIDGEWAY,Lake Wales,,Florida,FL,33859,US,27.9616,-81.6215,America/New_York,,,863-679-1479,12,12105,12105014130,121050141301034,29460,422,ceo,census
1287,,https://www.kohls.com/stores/fl/lakepark-1287.shtml,Kohl's Lake Park,open,400 N CONGRESS AVE,Lake Park,,Florida,FL,33403,US,26.803,-80.083,America/New_York,,,561-845-7017,12,12099,12099001301,120990013013015,33100,370,ceo,census
618,,https://www.kohls.com/stores/ca/lagunaniguel-618.shtml,Kohl's Laguna Niguel,open,27380 HEATHER RIDGE,Laguna Niguel,,California,CA,92677,US,33.5654,-117.711,America/Los_Angeles,,,949-349-0023,06,06059,06059042320,060590423204024,31080,348,ceo,census
1563,,https://www.kohls.com/stores/co/lafayette-1563.shtml,Kohl's Lafayette,open,855 NORTH US HWY 287,Lafayette,,Colorado,CO,80026,US,40.0098,-105.1049,America/Denver,,,720-890-7439,08,08013,08013060900,080130609002004,14500,216,ceo,census
1229,,https://www.kohls.com/stores/fl/ladylake-1229.shtml,Kohl's Lady Lake,open,492 N HWY 27/441,Lady Lake,,Florida,FL,32159,US,28.9297,-81.9322,America/New_York,,,352-674-0084,12,12069,12069030407,120690304071023,36740,422,ceo,census
599,,https://www.kohls.com/stores/ca/laverne-599.shtml,Kohl's Laverne,open,2229 FOOTHILL BLVD,La Verne,,California,CA,91750,US,34.1139,-117.7625,America/Los_Angeles,,,909-392-3248,06,06037,06037401601,060374016011020,31080,348,ceo,census
677,,https://www.kohls.com/stores/ca/laquinta-677.shtml,Kohl's Laquinta,open,78950 HIGHWAY 111,La Quinta,,California,CA,92253,US,33.7119,-116.2875,America/Los_Angeles,,,760-771-4710,06,06065,06065045235,060650452352013,40140,348,ceo,census
596,,https://www.kohls.com/stores/ca/lahabra-596.shtml,Kohl's La Habra,open,1610 W IMPERIAL HWY,La Habra,,California,CA,90631,US,33.9156,-117.9646,America/Los_Angeles,,,562-691-0675,06,06059,06059001709,060590017091000,31080,348,ceo,census
951,,https://www.kohls.com/stores/fl/kissimmee-951.shtml,Kohl's Hunters Creek,open,3200 JOHN YOUNG PKWY,Kissimmee,,Florida,FL,34741,US,28.3435,-81.4236,America/New_York,,,407-847-6685,12,12097,12097042100,120970421001011,36740,422,ceo,census
1029,,https://www.kohls.com/stores/ar/jonesboro-1029.shtml,Kohl's Jonesboro,open,2117 FAIR PARK BLVD,Jonesboro,,Arkansas,AR,72401,US,35.8167,-90.6751,America/Chicago,,,870-932-5535,05,05031,05031000403,050310004031002,27860,308,ceo,census
1160,,https://www.kohls.com/stores/fl/jensenbeach-1160.shtml,Kohl's Jensen Beach,open,2751 NW MALL CIR,Jensen Beach,,Florida,FL,34957,US,27.2389,-80.2717,America/New_York,,,772-692-3113,12,12085,12085000300,120850003003011,38940,370,ceo,census
786,,https://www.kohls.com/stores/fl/jacksonville-786.shtml,Kohl's Atlantic Blvd,open,11824 ATLANTIC BLVD,Jacksonville,,Florida,FL,32225,US,30.3179,-81.4955,America/New_York,,,904-646-1813,12,12031,12031014344,120310143442004,27260,300,ceo,census
787,,https://www.kohls.com/stores/fl/jacksonville-787.shtml,Kohl's Jacksonville Se,open,13760 OLD ST AUGUSTINE RD,Jacksonville,,Florida,FL,32258,US,30.1409,-81.5513,America/New_York,,,904-260-2024,12,12031,12031016812,120310168123003,27260,300,ceo,census
1201,,https://www.kohls.com/stores/fl/jacksonville-1201.shtml,Kohl's Orange Park West,open,9701 CROSSHILL BLVD,Jacksonville,,Florida,FL,32222,US,30.1995,-81.8291,America/New_York,,,904-772-8893,12,12031,12031013723,120310137233005,27260,300,ceo,census
598,,https://www.kohls.com/stores/ca/irvine-598.shtml,Kohl's Irvine-jeffrey Rd,open,14101 JEFFREY RD,Irvine,,California,CA,92620,US,33.6963,-117.7641,America/Los_Angeles,,,949-451-0017,06,06059,06059052433,060590524333009,31080,348,ceo,census
1438,,https://www.kohls.com/stores/al/huntsville-1438.shtml,Kohl's Southeast Huntsville,open,2775 CARL T. JONES DRIVE,Huntsville,,Alabama,AL,35802,US,34.6749,-86.5388,America/Chicago,,,256-883-8809,01,01089,01089001902,010890019021025,26620,290,ceo,census
654,,https://www.kohls.com/stores/ca/huntingtonbeach-654.shtml,Kohl's Huntington Beach Bella Terra,open,7777 EDINGER AVE,Huntington Beach,,California,CA,92647,US,33.7316,-117.9944,America/Los_Angeles,,,714-373-5317,06,06059,06059099703,060590997031020,31080,348,ceo,census
1365,,https://www.kohls.com/stores/ca/huntingtonbeach-1365.shtml,Kohl's Huntington Beach Sth,open,9811 ADAMS AVE,Huntington Beach,,California,CA,92646,US,33.6733,-117.9558,America/Los_Angeles,,,714-962-8917,06,06059,06059099215,060590992151011,31080,348,ceo,census
1331,,https://www.kohls.com/stores/al/hoover-1331.shtml,Kohl's Hoover,open,5513 GROVE BOULEVARD,Hoover,,Alabama,AL,35226,US,33.363,-86.8514,America/Chicago,,,205-403-4549,01,01073,01073014414,010730144142005,13820,142,ceo,census
180,,https://www.kohls.com/stores/il/homewood-180.shtml,Kohl's Homewood,open,17620 HALSTED ST,Homewood,,Illinois,IL,60430,US,41.5686,-87.6387,America/Chicago,,,708-957-0124,17,17031,17031828402,170318284022001,16980,176,ceo,census
1246,,https://www.kohls.com/stores/fl/homestead-1246.shtml,Kohl's Homestead,open,2455 NE 10TH CT,Homestead,,Florida,FL,33033,US,25.4803,-80.4437,America/New_York,,,305-245-2291,12,12086,12086011003,120860110033011,33100,370,ceo,fcc
1245,,https://www.kohls.com/stores/fl/hollywood-1245.shtml,Kohl's Hollywood,open,4999 SHERIDAN ST,Hollywood,,Florida,FL,33021,US,26.0347,-80.195,America/New_York,,,954-989-2282,12,12011,12011090503,120110905032010,33100,370,ceo,census
73,,https://www.kohls.com/stores/il/hodgkins-73.shtml,Kohl's Hodgkins,open,9350 JOLIET RD,Hodgkins,,Illinois,IL,60525,US,41.7789,-87.8616,America/Chicago,,,708-352-8242,17,17031,17031820202,170318202021115,16980,176,ceo,fcc
440,,https://www.kohls.com/stores/ga/hiram-440.shtml,Kohl's Hiram,open,5220 JIMMY LEE SMITH PKWY,Hiram,,Georgia,GA,30141,US,33.8856,-84.7443,America/New_York,,,678-567-0151,13,13223,13223120507,132231205073009,12060,122,ceo,census
1400,,https://www.kohls.com/stores/ca/hanford-1400.shtml,Kohl's Hanford,open,1677 WEST LACEY BLVD,Hanford,,California,CA,93230,US,36.3268,-119.6715,America/Los_Angeles,,,559-589-6439,06,06031,06031001002,060310010021006,25260,260,ceo,census
406,,https://www.kohls.com/stores/ct/hamden-406.shtml,Kohl's Hamden,open,2380 DIXWELL AVE,Hamden,,Connecticut,CT,06514,US,41.3765,-72.9169,America/New_York,,,203-248-9656,09,09009,09009165801,090091658012002,,,ceo,census
176,,https://www.kohls.com/stores/il/gurnee-176.shtml,Kohl's Gurnee,open,6120 GRAND AVE,Gurnee,,Illinois,IL,60031,US,42.3865,-87.9552,America/Chicago,,,847-855-0928,17,17097,17097861604,170978616044024,16980,176,ceo,census
470,,https://www.kohls.com/stores/ct/groton-470.shtml,Kohl's Groton,open,220 CT-12,Groton,,Connecticut,CT,06340,US,41.3692,-72.067,America/New_York,,,860-448-0800,09,09011,09011870200,090118702002007,,,ceo,census
569,,https://www.kohls.com/stores/co/greeley-569.shtml,Kohl's Greeley,open,4224 CENTERPLACE DR,Greeley,,Colorado,CO,80634,US,40.3943,-104.7479,America/Denver,,,970-330-0489,08,08123,08123001409,081230014092015,24540,216,ceo,census
25,,https://www.kohls.com/stores/co/grandjunction-25.shtml,Kohl's Grand Junction,open,636 MARKET ST,Grand Junction,,Colorado,CO,81505,US,39.0966,-108.6055,America/Denver,,,970-241-6985,08,08077,08077000900,080770009002016,24300,,ceo,census
421,,https://www.kohls.com/stores/co/golden-421.shtml,Kohl's Golden,open,16700 W COLFAX AVE,Golden,,Colorado,CO,80401,US,39.7225,-105.1874,America/Denver,,,303-216-1113,08,08059,08059009856,080590098561001,19740,216,ceo,fcc
290,,https://www.kohls.com/stores/il/glenview-290.shtml,Kohl's Glenview,open,2201 WILLOW RD,Glenview,,Illinois,IL,60025,US,42.102,-87.8112,America/Chicago,,,847-832-9400,17,17031,17031801800,170318018003013,16980,176,ceo,census
595,,https://www.kohls.com/stores/ca/glendora-595.shtml,Kohl's Glendora,open,1225 S LONE HILL AVE,Glendora,,California,CA,91740,US,34.1169,-117.8335,America/Los_Angeles,,,909-592-6960,06,06037,06037401202,060374012022005,31080,348,ceo,census
652,,https://www.kohls.com/stores/az/glendale-652.shtml,Kohl's North Glendale,open,5408 W BELL RD,Glendale,,Arizona,AZ,85308,US,33.6401,-112.1746,America/Phoenix,,,602-298-5456,04,04013,04013618000,040136180001020,38060,429,ceo,census
653,,https://www.kohls.com/stores/az/glendale-653.shtml,Kohl's South Peoria,open,9220 W NORTHERN AVE,Glendale,,Arizona,AZ,85305,US,33.5517,-112.2573,America/Phoenix,,,623-877-0177,04,04013,04013092708,040130927081000,38060,429,ceo,census
737,,https://www.kohls.com/stores/ca/gilroy-737.shtml,Kohl's Gilroy,open,6765 CAMINO ARROYO Dr,Gilroy,,California,CA,95020,US,37.0005,-121.5507,America/Los_Angeles,,,408-848-2032,06,06085,06085512602,060855126021045,41940,488,ceo,fcc
614,,https://www.kohls.com/stores/az/gilbert-614.shtml,Kohl's Northwest Gilbert,open,1121 E BASELINE RD,Gilbert,,Arizona,AZ,85233,US,33.3776,-111.8092,America/Phoenix,,,480-926-0290,04,04013,04013422307,040134223071000,38060,429,ceo,census
621,,https://www.kohls.com/stores/az/gilbert-621.shtml,Kohl's South Gilbert,open,1497 E WILLIAMS FIELD RD,Gilbert,,Arizona,AZ,85295,US,33.3048,-111.7583,America/Phoenix,,,480-855-8823,04,04013,04013815402,040138154021000,38060,429,ceo,census
1482,,https://www.kohls.com/stores/il/galesburg-1482.shtml,Kohl's Galesburg,open,2470 VETERANS DRIVE,Galesburg,,Illinois,IL,61401,US,40.9768,-90.3609,America/Chicago,,,309-342-1061,17,17095,17095000300,170950003001028,23660,,ceo,census
1242,,https://www.kohls.com/stores/fl/gainesville-1242.shtml,Kohl's Gainesville,open,3501 SW ARCHER RD,Gainesville,,Florida,FL,32608,US,29.6237,-82.3735,America/New_York,,,352-378-3024,12,12001,12001001519,120010015191002,23540,264,ceo,census
517,,https://www.kohls.com/stores/ga/gainesville-517.shtml,Kohl's Gainesville,open,975 DAWSONVILLE HWY,Gainesville,,Georgia,GA,30501,US,34.2993,-83.8589,America/New_York,,,678-450-1211,13,13139,13139001008,131390010083001,23580,122,ceo,census
1362,,https://www.kohls.com/stores/ca/fullerton-1362.shtml,Kohl's Fullerton,open,3204 YORBA LINDA BLVD,Fullerton,,California,CA,92831,US,33.8875,-117.8698,America/Los_Angeles,,,714-985-9141,06,06059,06059011711,060590117114004,31080,348,ceo,fcc
709,,https://www.kohls.com/stores/ca/fresno-709.shtml,Kohl's Fresno West,open,3699 W SHAW AVE,Fresno,,California,CA,93711,US,36.8059,-119.8615,America/Los_Angeles,,,559-274-1470,06,06019,06019004205,060190042051002,23420,260,ceo,census
724,,https://www.kohls.com/stores/ca/fresno-724.shtml,Kohl's Riverpark,open,175 E ALLUVIAL AVE,Fresno,,California,CA,93720,US,36.8433,-119.7861,America/Los_Angeles,,,559-261-9445,06,06019,06019004404,060190044042003,23420,260,ceo,census
474,,https://www.kohls.com/stores/il/frankfort-474.shtml,Kohl's Frankfort,open,11055 W LINCOLN HWY,Frankfort,,Illinois,IL,60423,US,41.5005,-87.8855,America/Chicago,,,815-469-8477,17,17197,17197883515,171978835151027,16980,176,ceo,census
1270,,https://www.kohls.com/stores/fl/fortwalton-1270.shtml,Kohl's Fort Walton Beach,open,800 N BEAL PKWY,Fort Walton,,Florida,FL,32547,US,30.4482,-86.6401,America/Chicago,,,850-315-6006,12,12091,12091021902,120910219022000,18880,,ceo,census
456,,https://www.kohls.com/stores/ar/fortsmith-456.shtml,Kohl's Fort Smith,open,7801 ROGERS AVE,Fort Smith,,Arkansas,AR,72903,US,35.3532,-94.3457,America/Chicago,,,479-478-9828,05,05131,05131001301,051310013012002,22900,,ceo,census
1269,,https://www.kohls.com/stores/fl/fortmyers-1269.shtml,Kohl's Fort Myers,open,9357 BENN C PRATT,Fort Myers,,Florida,FL,33966,US,26.6074,-81.8071,America/New_York,,,239-275-3667,12,12071,12071040134,120710401341003,15980,163,ceo,fcc
430,,https://www.kohls.com/stores/co/fortcollins-430.shtml,Kohl's Fort Collins,open,813 E HARMONY RD,Fort Collins,,Colorado,CO,80525,US,40.5212,-105.0621,America/Denver,,,970-223-0400,08,08069,08069001009,080690010091000,22660,,ceo,census
127,,https://www.kohls.com/stores/il/forsyth-127.shtml,Kohl's Decatur,open,1080 HICKORY POINT MALL,Forsyth,,Illinois,IL,62535,US,39.9166,-88.961,America/Chicago,,,217-875-1010,17,17115,17115002901,171150029011052,19500,,ceo,fcc
602,,https://www.kohls.com/stores/ca/fontana-602.shtml,Kohl's Fontana,open,14960 SUMMIT AVE,Fontana,,California,CA,92336,US,34.1495,-117.4782,America/Los_Angeles,,,909-463-9812,06,06071,06071002314,060710023142000,40140,348,ceo,census
663,,https://www.kohls.com/stores/ca/folsom-663.shtml,Kohl's Folsom,open,1013 RILEY ST,Folsom,,California,CA,95630,US,38.6722,-121.1676,America/Los_Angeles,,,916-983-9970,06,06067,06067008403,060670084031009,40900,472,ceo,census
1163,,https://www.kohls.com/stores/ga/flowerybranch-1163.shtml,Kohl's Flowery Branch,open,5851 SPOUT SPRINGS RD,Flowery Branch,,Georgia,GA,30542,US,34.1801,-83.9114,America/New_York,,,770-965-7797,13,13139,13139001606,131390016062044,23580,122,ceo,census
1027,,https://www.kohls.com/stores/al/florence-1027.shtml,Kohl's Florence-al,open,350 SEVILLE ST,Florence,,Alabama,AL,35630,US,34.8382,-87.6268,America/Chicago,,,256-767-5377,01,01077,01077010901,010770109012005,22520,250,ceo,fcc
788,,https://www.kohls.com/stores/fl/flemingisland-788.shtml,Kohl's Fleming Island,open,1995 E WEST PKWY,Fleming Island,,Florida,FL,32003,US,30.0991,-81.7201,America/New_York,,,904-269-7034,12,12019,12019030707,120190307071002,27260,300,ceo,census
659,,https://www.kohls.com/stores/az/flagstaff-659.shtml,Kohl's Flagstaff,open,500 W FOREST MEADOWS ST,Flagstaff,,Arizona,AZ,86001,US,35.1803,-111.6651,America/Phoenix,,,928-773-1380,04,04005,04005001104,040050011044000,22380,,ceo,census
455,,https://www.kohls.com/stores/ar/fayetteville-455.shtml,Kohl's Fayetteville-ar,open,3575 N SHILOH DR,Fayetteville,,Arkansas,AR,72703,US,36.1169,-94.1538,America/Chicago,,,479-527-0419,05,05143,05143010511,051430105112049,22220,,ceo,census
438,,https://www.kohls.com/stores/ga/fayetteville-438.shtml,Kohl's Fayetteville-ga,open,300 PAVILION PKWY,Fayetteville,,Georgia,GA,30214,US,33.4785,-84.4477,America/New_York,,,678-817-1450,13,13113,13113140102,131131401022050,12060,122,ceo,fcc
354,,https://www.kohls.com/stores/il/fairviewheights-354.shtml,Kohl's Fairview Heights,open,6109 N ILLINOIS ST,Fairview Heights,,Illinois,IL,62208,US,38.5892,-89.987,America/Chicago,,,618-397-9600,17,17163,17163503416,171635034162001,41180,476,ceo,census
166,,https://www.kohls.com/stores/ga/evans-166.shtml,Kohl's Evans,open,4227 WASHINGTON RD,Evans,,Georgia,GA,30809,US,33.5284,-82.1188,America/New_York,,,706-210-1771,13,13073,13073030201,130730302012009,12260,,ceo,census
1294,,https://www.kohls.com/stores/fl/eustis-1294.shtml,Kohl's Tavares,open,2700 E BURLEIGH BLVD,Eustis,,Florida,FL,32726,US,28.8204,-81.6989,America/New_York,,,352-343-1438,12,12069,12069030807,120690308072020,36740,422,ceo,fcc
1361,,https://www.kohls.com/stores/ca/eureka-1361.shtml,Kohl's Eureka,open,3300 BROADWAY ST,Eureka,,California,CA,95501,US,40.7793,-124.1906,America/Los_Angeles,,,707-442-4279,06,06023,06023000200,060230002004009,21700,,ceo,fcc
460,,https://www.kohls.com/stores/ct/enfield-460.shtml,Kohl's Enfield,open,95 ELM ST,Enfield,,Connecticut,CT,06082,US,42.0002,-72.5828,America/New_York,,,860-741-6100,09,09003,09003480400,090034804002009,,,ceo,census
428,,https://www.kohls.com/stores/il/elmhurst-428.shtml,Kohl's Elmhurst,open,303 IL-83,Elmhurst,,Illinois,IL,60126,US,41.8915,-87.9601,America/Chicago,,,630-516-1200,17,17043,17043843000,170438430003047,16980,176,ceo,census
695,,https://www.kohls.com/stores/ca/elkgrove-695.shtml,Kohl's Elk Grove,open,9650 BRUCEVILLE RD,Elk Grove,,California,CA,95757,US,38.4073,-121.4204,America/Los_Angeles,,,916-714-6471,06,06067,06067009632,060670096323000,40900,472,ceo,census
1159,,https://www.kohls.com/stores/ca/elkgrove-1159.shtml,Kohl's Sacramento South,open,8810 CALVINE RD,Elk Grove,,California,CA,95828,US,38.4513,-121.3765,America/Los_Angeles,,,916-681-7660,06,06067,06067009333,060670093331000,40900,472,ceo,census
1434,,https://www.kohls.com/stores/ca/elcentro-1434.shtml,Kohl's El Centro,open,808 E. DANENBERG DR.,El Centro,,California,CA,92243,US,32.7681,-115.5272,America/Los_Angeles,,,760-337-1214,06,06025,06025011803,060250118032018,20940,,ceo,census
675,,https://www.kohls.com/stores/ca/elcajon-675.shtml,Kohl's Rancho San Diego,open,2398 JAMACHA RD,El Cajon,,California,CA,92019,US,32.7472,-116.9291,America/Los_Angeles,,,619-670-2330,06,06073,06073013608,060730136082007,41740,,ceo,census
1189,,https://www.kohls.com/stores/il/effingham-1189.shtml,Kohl's Effingham,open,1600 FORD AVE,Effingham,,Illinois,IL,62401,US,39.1438,-88.5645,America/Chicago,,,217-347-5140,17,17049,17049950700,170499507001025,20820,,ceo,census
672,,https://www.kohls.com/stores/il/edwardsville-672.shtml,Kohl's Edwardsville,open,2120 TROY RD,Edwardsville,,Illinois,IL,62025,US,38.7888,-89.949,America/Chicago,,,618-692-4710,17,17119,17119403002,171194030023005,41180,476,ceo,census
956,,https://www.kohls.com/stores/il/eastpeoria-956.shtml,Kohl's East Peoria,open,401 N MAIN ST,East Peoria,,Illinois,IL,61611,US,40.6702,-89.577,America/Chicago,,,309-694-9124,17,17179,17179020100,171790201003066,37900,427,ceo,census
1462,,https://www.kohls.com/stores/ct/eastkillingly-1462.shtml,Kohl's Killingly,open,1050 NORTH MAIN STREET,East Killingly,,Connecticut,CT,06241,US,41.8384,-71.8747,America/New_York,,,860-774-0742,09,09015,09015904400,090159044003010,,,ceo,census
1360,,https://www.kohls.com/stores/ca/downey-1360.shtml,Kohl's Downey,open,300 STONEWOOD ST,Downey,,California,CA,90241,US,33.9364,-118.1189,America/Los_Angeles,,,562-622-7081,06,06037,06037551001,060375510013005,31080,348,ceo,fcc
66,,https://www.kohls.com/stores/il/downersgrove-66.shtml,Kohl's Downers Grove,open,2920 FINLEY RD,Downers Grove,,Illinois,IL,60515,US,41.8356,-88.0273,America/Chicago,,,630-629-3440,17,17043,17043844305,170438443051010,16980,176,ceo,census
161,,https://www.kohls.com/stores/de/dover-161.shtml,Kohl's Dover,open,299 N DUPONT HWY,Dover,,Delaware,DE,19901,US,39.1726,-75.518,America/New_York,,,302-735-7610,10,10001,10001040501,100010405011022,20100,428,ceo,census
1033,,https://www.kohls.com/stores/ga/douglasville-1033.shtml,Kohl's Douglasville,open,2989 CHAPEL HILL RD,Douglasville,,Georgia,GA,30135,US,33.722,-84.7347,America/New_York,,,678-838-2662,13,13097,13097080509,130970805092001,12060,122,ceo,census
1179,,https://www.kohls.com/stores/al/dothan-1179.shtml,Kohl's Dothan,open,4401 MONTGOMERY HWY,Dothan,,Alabama,AL,36303,US,31.2645,-85.4438,America/Chicago,,,334-792-1882,01,01069,01069040204,010690402041001,20020,222,ceo,census
716,,https://www.kohls.com/stores/il/dekalb-716.shtml,Kohl's Dekalb,open,2070 SYCAMORE RD,Dekalb,,Illinois,IL,60115,US,41.9474,-88.7239,America/Chicago,,,815-748-3600,17,17037,17037000800,170370008002021,16980,176,ceo,census
1492,,https://www.kohls.com/stores/al/decatur-1492.shtml,Kohl's Decatur,open,2407 6TH AVE SE,Decatur,,Alabama,AL,35601,US,34.5641,-86.9751,America/Chicago,,,256-355-7401,01,01103,01103000300,011030003002072,19460,290,ceo,census
1481,,https://www.kohls.com/stores/il/danville-1481.shtml,Kohl's Danville,open,3707 NORTH VERMILION STREET,Danville,,Illinois,IL,61832,US,40.1896,-87.6274,America/Chicago,,,217-431-6628,17,17183,17183001200,171830012001010,19180,169,ceo,census
1439,,https://www.kohls.com/stores/ga/dalton-1439.shtml,Kohl's Dalton,open,835 SHUGART ROAD,Dalton,,Georgia,GA,30720,US,34.7867,-84.9971,America/New_York,,,706-272-0015,13,13313,13313000502,133130005024012,19140,174,ceo,census
518,,https://www.kohls.com/stores/ga/dacula-518.shtml,Kohl's Hamilton Mill,open,2270 HAMILTON CREEK PKWY,Dacula,,Georgia,GA,30019,US,34.075,-83.9097,America/New_York,,,678-714-1868,13,13135,13135050617,131350506173005,12060,122,ceo,census
446,,https://www.kohls.com/stores/ga/cumming-446.shtml,Kohl's Cumming,open,1615 MARKET PL BLVD,Cumming,,Georgia,GA,30041,US,34.1885,-84.1341,America/New_York,,,678-947-1144,13,13117,13117130509,131171305091009,12060,122,ceo,census
320,,https://www.kohls.com/stores/il/crystallake-320.shtml,Kohl's Crystal Lake,open,5420 NORTHWEST HWY,Crystal Lake,,Illinois,IL,60014,US,42.2291,-88.3034,America/Chicago,,,815-455-1100,17,17111,17111871301,171118713014043,16980,176,ceo,census
1267,,https://www.kohls.com/stores/il/crete-1267.shtml,Kohl's Crete,open,23755 S VOLBRECHT RD,Crete,,Illinois,IL,60417,US,41.4591,-87.5734,America/Chicago,,,708-672-4211,17,17197,17197883806,171978838061005,16980,176,ceo,census
224,,https://www.kohls.com/stores/il/crestwood-224.shtml,Kohl's Crestwood-il,open,13130 RIVERCREST DR,Crestwood,,Illinois,IL,60418,US,41.6541,-87.7463,America/Chicago,,,708-385-9335,17,17031,17031823602,170318236021006,16980,176,ceo,census
592,,https://www.kohls.com/stores/ca/corona-592.shtml,Kohl's Corona At The Crossings,open,2489 TUSCANY ST,Corona,,California,CA,92881,US,33.8257,-117.5193,America/Los_Angeles,,,951-272-1137,06,06065,06065041909,060650419093014,40140,348,ceo,census
593,,https://www.kohls.com/stores/ca/corona-593.shtml,Kohl's Corona At Hidden Valley Plaza,open,470 HIDDEN VALLEY PKWY,Corona,,California,CA,92879,US,33.8983,-117.5572,America/Los_Angeles,,,951-493-6607,06,06065,06065040809,060650408091006,40140,348,ceo,census
1428,,https://www.kohls.com/stores/fl/coralsprings-1428.shtml,Kohl's Coralsprings,open,9001 W. ATLANTIC BLVD,Coral Springs,,Florida,FL,33071,US,26.2407,-80.2469,America/New_York,,,954-753-6444,12,12011,12011020316,120110203161010,33100,370,ceo,census
451,,https://www.kohls.com/stores/ga/conyers-451.shtml,Kohl's Conyers,open,1630 DOGWOOD DR SE,Conyers,,Georgia,GA,30013,US,33.6467,-83.9921,America/New_York,,,770-761-6687,13,13247,13247060305,132470603054018,12060,122,ceo,census
698,,https://www.kohls.com/stores/ar/conway-698.shtml,Kohl's Conway,open,801 ELSINGER BLVD,Conway,,Arkansas,AR,72032,US,35.0895,-92.4145,America/Chicago,,,501-450-7177,05,05045,05045030404,050450304041011,30780,340,ceo,census
1009,,https://www.kohls.com/stores/ga/columbus-1009.shtml,Kohl's Columbus-ga,open,5550 WHITTLESEY BLVD,Columbus,,Georgia,GA,31909,US,32.5448,-84.9434,America/New_York,,,706-324-6152,13,13215,13215010205,132150102052005,17980,194,ceo,census
462,,https://www.kohls.com/stores/co/coloradosprings-462.shtml,Kohl's Powers Blvd,open,3110 N POWERS BLVD,Colorado Springs,,Colorado,CO,80922,US,38.8763,-104.7224,America/Denver,,,719-637-0214,08,08041,08041005602,080410056021007,17820,,ceo,fcc
687,,https://www.kohls.com/stores/co/coloradosprings-687.shtml,Kohl's Sw Colorado Springs,open,2725 JANITELL RD,Colorado Springs,,Colorado,CO,80906,US,38.7948,-104.7866,America/Denver,,,719-527-0610,08,08041,08041002802,080410028022049,17820,,ceo,census
1319,,https://www.kohls.com/stores/co/coloradosprings-1319.shtml,Kohl's Colorado Springs W,open,4910 N NEVADA AVE,Colorado Springs,,Colorado,CO,80918,US,38.9025,-104.8212,America/Denver,,,719-531-5099,08,08041,08041000302,080410003023007,17820,,ceo,fcc
981,,https://www.kohls.com/stores/ca/colma-981.shtml,Kohl's Colma,open,1200 EL CAMINO REAL,Colma,,California,CA,94014,US,37.6751,-122.4588,America/Los_Angeles,,,650-992-0155,06,06081,06081601601,060816016011022,41860,488,ceo,fcc
1349,,https://www.kohls.com/stores/il/collinsville-1349.shtml,Kohl's Collinsville,open,605 BELTLINE RD.,Collinsville,,Illinois,IL,62234,US,38.6921,-89.9812,America/Chicago,,,618-344-3576,17,17119,17119403502,171194035021006,41180,476,ceo,census
1165,,https://www.kohls.com/stores/id/coeurdalene-1165.shtml,Kohl's Coeur D' Alene,open,545 W AQUA AVE,Coeur D Alene,,Idaho,ID,83815,US,47.7423,-116.7947,America/Los_Angeles,,,208-772-9649,16,16055,16055000701,160550007012004,17660,518,ceo,census
1243,,https://www.kohls.com/stores/fl/coconutcreek-1243.shtml,Kohl's Coconut Creek,open,6950 N STATE ROAD 7,Coconut Creek,,Florida,FL,33073,US,26.3164,-80.2006,America/New_York,,,954-725-1160,12,12011,12011010609,120110106091003,33100,370,ceo,census
1399,,https://www.kohls.com/stores/ca/clovis-1399.shtml,Kohl's Clovis,open,1000 SHAW AVENUE,Clovis,,California,CA,93612,US,36.8067,-119.6971,America/Los_Angeles,,,559-297-1780,06,06019,06019005801,060190058011002,23420,260,ceo,census
799,,https://www.kohls.com/stores/fl/clermont-799.shtml,Kohl's Clermont,open,12305 US-27,Clermont,,Florida,FL,34711,US,28.5248,-81.7333,America/New_York,,,352-394-0441,12,12069,12069031208,120690312082065,36740,422,ceo,census
1015,,https://www.kohls.com/stores/fl/clearwater-1015.shtml,Kohl's Clearwater,open,2514 FL-580,Clearwater,,Florida,FL,33761,US,28.0213,-82.7332,America/New_York,,,727-725-9100,12,12103,12103026820,121030268201000,45300,,ceo,census
197,,https://www.kohls.com/stores/ca/cityofindustry-197.shtml,Kohl's City Of Industry,open,21818 VALLEY BLVD,City of Industry,,California,CA,91789,US,34.0287,-117.8318,America/Los_Angeles,,,909-594-6458,06,06037,06037403327,060374033271009,31080,348,ceo,census
1363,,https://www.kohls.com/stores/ca/citrusheights-1363.shtml,Kohl's Citrus Heights,open,6135 SAN JUAN AVE,Citrus Heights,,California,CA,95610,US,38.6765,-121.2943,America/Los_Angeles,,,916-352-0766,06,06067,06067008119,060670081191000,40900,472,ceo,census
726,,https://www.kohls.com/stores/ca/chulavista-726.shtml,Kohl's Chula Vista East,open,2325 OTAY LAKES RD,Chula Vista,,California,CA,91915,US,32.6503,-116.9651,America/Los_Angeles,,,619-591-5920,06,06073,06073013424,060730134242008,41740,,ceo,census
958,,https://www.kohls.com/stores/ca/chulavista-958.shtml,Kohl's Chula Vista South,open,1870 MAIN CT,Chula Vista,,California,CA,91911,US,32.5923,-117.0347,America/Los_Angeles,,,619-482-2933,06,06073,06073013317,060730133173051,41740,,ceo,fcc
591,,https://www.kohls.com/stores/ca/chino-591.shtml,Kohl's Chino Spectrum Cntr,open,4093 GRAND AVE,Chino,,California,CA,91710,US,33.9916,-117.7159,America/Los_Angeles,,,909-591-8525,06,06071,06071000401,060710004014015,40140,348,ceo,census
1031,,https://www.kohls.com/stores/ca/chico-1031.shtml,Kohl's Chico,open,1505 SPRINGFIELD DR,Chico,,California,CA,95928,US,39.731,-121.8112,America/Los_Angeles,,,530-897-0920,06,06007,06007000903,060070009033003,17020,,ceo,census
62,,https://www.kohls.com/stores/il/chicagoridge-62.shtml,Kohl's Chicago Ridge,open,9700 RIDGELAND AVE,Chicago Ridge,,Illinois,IL,60415,US,41.7146,-87.7817,America/Chicago,,,708-425-7909,17,17031,17031823001,170318230015000,16980,176,ceo,census
725,,https://www.kohls.com/stores/il/chicago-725.shtml,Kohl's Bucktown,open,2140 N ELSTON AVE,Chicago,,Illinois,IL,60614,US,41.9205,-87.6718,America/Chicago,,,773-342-9032,17,17031,17031832300,170318323001011,16980,176,ceo,census
619,,https://www.kohls.com/stores/az/chandler-619.shtml,Kohl's South Chandler,open,1430 S ARIZONA AVE,Chandler,,Arizona,AZ,85286,US,33.2858,-111.8436,America/Phoenix,,,480-782-5865,04,04013,04013812000,040138120002001,38060,429,ceo,census
126,,https://www.kohls.com/stores/il/champaign-126.shtml,Kohl's Champaign,open,109 CONVENIENCE CENTER RD,Champaign,,Illinois,IL,61820,US,40.1385,-88.2417,America/Chicago,,,217-352-0431,17,17019,17019000800,170190008001022,16580,169,ceo,census
590,,https://www.kohls.com/stores/ca/cerritos-590.shtml,Kohl's Cerritos,open,12821 TOWNE CENTER DR,Cerritos,,California,CA,90703,US,33.8703,-118.0582,America/Los_Angeles,,,562-403-0210,06,06037,06037554512,060375545123010,31080,348,ceo,census
728,,https://www.kohls.com/stores/co/castlerock-728.shtml,Kohl's Castle Rock,open,4800 MILESTONE LN,Castle Rock,,Colorado,CO,80104,US,39.4094,-104.8621,America/Denver,,,303-814-0525,08,08035,08035014503,080350145033028,19740,216,ceo,census
1107,,https://www.kohls.com/stores/az/casagrande-1107.shtml,Kohl's Casa Grande,open,976 N MISSION PKWY,Casa Grande,,Arizona,AZ,85194,US,32.8824,-111.6783,America/Phoenix,,,520-421-3481,04,04021,04021001408,040210014082002,38060,429,ceo,fcc
1091,,https://www.kohls.com/stores/ga/cartersville-1091.shtml,Kohl's Cartersville,open,600 E MAIN ST,Cartersville,,Georgia,GA,30121,US,34.1753,-84.7808,America/New_York,,,770-607-7955,13,13015,13015960702,130159607022031,12060,122,ceo,census
996,,https://www.kohls.com/stores/il/carbondale-996.shtml,Kohl's Carbondale,open,625 N GIANT CITY RD,Carbondale,,Illinois,IL,62902,US,37.7326,-89.1828,America/Chicago,,,618-351-9873,17,17077,17077011200,170770112001025,16060,166,ceo,census
1358,,https://www.kohls.com/stores/ca/capitola-1358.shtml,Kohl's Capitola,open,1855 41ST AVE,Capitola,,California,CA,95010,US,36.976,-121.9669,America/Los_Angeles,,,831-462-6120,06,06087,06087121702,060871217021009,42100,488,ceo,census
1013,,https://www.kohls.com/stores/fl/capecoral-1013.shtml,Kohl's Cape Coral,open,513 SW PINE ISLAND RD,Cape Coral,,Florida,FL,33991,US,26.65,-81.9857,America/New_York,,,239-573-9037,12,12071,12071010205,120710102051092,15980,163,ceo,fcc
661,,https://www.kohls.com/stores/ct/canton-661.shtml,Kohl's Canton-ct,open,104 ALBANY TURNPIKE,Canton,,Connecticut,CT,06019,US,41.8233,-72.8858,America/New_York,,,860-693-2549,09,09003,09003464102,090034641024002,,,ceo,census
1212,,https://www.kohls.com/stores/ga/canton-1212.shtml,Kohl's Canton-ga,open,2034 CUMMING HWY,Canton,,Georgia,GA,30115,US,34.234,-84.4557,America/New_York,,,770-479-6731,13,13057,13057090603,130570906032001,12060,122,ceo,census
977,,https://www.kohls.com/stores/ca/campbell-977.shtml,Kohl's Campbell,open,525 E HAMILTON AVE,Campbell,,California,CA,95008,US,37.2965,-121.9405,America/Los_Angeles,,,408-866-5171,06,06085,06085506502,060855065021001,41940,488,ceo,census
63,,https://www.kohls.com/stores/il/burbank-63.shtml,Kohl's Burbank,open,7608 LA CROSSE AVE,Burbank,,Illinois,IL,60459,US,41.7552,-87.7454,America/Chicago,,,708-499-3900,17,17031,17031820902,170318209021017,16980,176,ceo,fcc
1188,,https://www.kohls.com/stores/az/bullheadcity-1188.shtml,Kohl's Bullhead City,open,3699 S HWY 95,Bullhead City,,Arizona,AZ,86442,US,35.0528,-114.5919,America/Phoenix,,,928-704-3700,04,04015,04015951900,040159519004000,29420,,ceo,census
589,,https://www.kohls.com/stores/ca/buenapark-589.shtml,Kohl's Buena Park,open,8191 LA PALMA AVE,Buena Park,,California,CA,90620,US,33.8482,-117.9906,America/Los_Angeles,,,714-521-8202,06,06059,06059110401,060591104012006,31080,348,ceo,census
1030,,https://www.kohls.com/stores/ar/bryant-1030.shtml,Kohl's Bryant,open,7333 ALCOA RD,Bryant,,Arkansas,AR,72022,US,34.6036,-92.5326,America/Chicago,,,501-860-7038,05,05125,05125010107,051250101073012,30780,340,ceo,census
1293,,https://www.kohls.com/stores/fl/brooksville-1293.shtml,Kohl's Spring Hill,open,3201 AERIAL WAY,Brooksville,,Florida,FL,34604,US,28.4794,-82.4767,America/New_York,,,352-796-3513,12,12053,12053040911,120530409112005,45300,,ceo,fcc
401,,https://www.kohls.com/stores/ct/brookfield-401.shtml,Kohl's Brookfield-ct,open,84 FEDERAL RD,Brookfield,,Connecticut,CT,06804,US,41.4358,-73.4113,America/New_York,,,203-740-2000,09,09001,09001205300,090012053003010,,,ceo,fcc
1161,,https://www.kohls.com/stores/co/brighton-1161.shtml,Kohl's Brighton,open,2425 PRAIRIE CENTER PKWY,Brighton,,Colorado,CO,80601,US,39.9527,-104.7844,America/Denver,,,720-685-1405,08,08001,08001008552,080010085522056,19740,216,ceo,census
758,,https://www.kohls.com/stores/ca/brentwood-758.shtml,Kohl's Brentwood,open,5511 LONE TREE PLAZA DR,Brentwood,,California,CA,94513,US,37.9579,-121.7493,America/Los_Angeles,,,925-513-3370,06,06013,06013303207,060133032072002,41860,488,ceo,fcc
405,,https://www.kohls.com/stores/ct/branford-405.shtml,Kohl's Branford,open,1075 W MAIN ST,Branford,,Connecticut,CT,06405,US,41.2738,-72.8312,America/New_York,,,203-481-2700,09,09009,09009184300,090091843001000,,,ceo,census
1026,,https://www.kohls.com/stores/fl/brandon-1026.shtml,Kohl's Brandon,open,11151 LAKE BRANDON DR,Brandon,,Florida,FL,33511,US,27.9196,-82.3268,America/New_York,,,813-684-9200,12,12057,12057013323,120570133234002,45300,,ceo,census
1222,,https://www.kohls.com/stores/fl/boyntonbeach-1222.shtml,Kohl's Boynton Beach,open,1901 N CONGRESS AVE,Boynton Beach,,Florida,FL,33426,US,26.5452,-80.0926,America/New_York,,,561-369-4299,12,12099,12099005812,120990058122000,33100,370,ceo,census
1034,,https://www.kohls.com/stores/il/bourbonnais-1034.shtml,Kohl's Bradley,open,2006 IL-50,Bourbonnais,,Illinois,IL,60914,US,41.1853,-87.8484,America/Chicago,,,815-939-0478,17,17091,17091010701,170910107013014,28100,176,ceo,census
1603,,https://www.kohls.com/stores/fl/bonitasprings-1603.shtml,Kohl's Bonita Springs,open,3302 BONITA BEACH RD SE,Bonita Springs,,Florida,FL,34134,US,26.3338,-81.8079,America/New_York,,,239-387-3200,12,12071,12071050601,120710506012002,15980,163,ceo,census
19,,https://www.kohls.com/stores/il/bolingbrook-19.shtml,Kohl's Bolingbrook,open,1138 W BOUGHTON RD,Bolingbrook,,Illinois,IL,60440,US,41.7057,-88.1201,America/Chicago,,,630-759-9883,17,17197,17197880123,171978801232002,16980,176,ceo,census
129,,https://www.kohls.com/stores/il/bloomington-129.shtml,Kohl's Bloomington-il,open,1615 E EMPIRE ST,Bloomington,,Illinois,IL,61701,US,40.4854,-88.956,America/Chicago,,,309-663-7502,17,17113,17113001800,171130018002006,14010,145,ceo,census
65,,https://www.kohls.com/stores/il/bloomingdale-65.shtml,Kohl's Stratford Square,open,6 STRATFORD SQUARE MALL,Bloomingdale,,Illinois,IL,60108,US,41.9487,-88.1153,America/Chicago,,,630-351-6300,17,17043,17043841114,170438411142025,16980,176,ceo,census
657,,https://www.kohls.com/stores/al/birmingham-657.shtml,Kohl's Inverness,open,1100 INVERNESS CORS,Birmingham,,Alabama,AL,35242,US,33.4157,-86.6968,America/Chicago,,,205-980-4770,01,01117,01117030330,011170303302003,13820,142,ceo,fcc
658,,https://www.kohls.com/stores/al/birmingham-658.shtml,Kohl's Trussville,open,5900 Chalkville Mountain Rd,Birmingham,,Alabama,AL,35235,US,33.6457,-86.6273,America/Chicago,,,205-661-0580,01,01073,01073011117,010730111171054,13820,142,ceo,census
1448,,https://www.kohls.com/stores/ct/berlin-1448.shtml,Kohl's Berlin,open,245 BERLIN TURNPIKE,Berlin,,Connecticut,CT,06037,US,41.6437,-72.7285,America/New_York,,,860-828-1083,09,09003,09003400101,090034001012019,,,ceo,census
1186,,https://www.kohls.com/stores/ca/beaumont-1186.shtml,Kohl's Beaumont-ca,open,1479 E 2ND ST,Beaumont,,California,CA,92223,US,33.9222,-116.9574,America/Los_Angeles,,,951-845-9682,06,06065,06065043820,060650438201002,40140,348,ceo,census
322,,https://www.kohls.com/stores/il/batavia-322.shtml,Kohl's Batavia,open,251 N RANDALL RD,Batavia,,Illinois,IL,60510,US,41.8557,-88.3429,America/Chicago,,,630-761-1212,17,17089,17089854800,170898548001041,16980,176,ceo,census
702,,https://www.kohls.com/stores/ca/bakersfield-702.shtml,Kohl's Bakersfield Nw,open,9400 ROSEDALE HWY,Bakersfield,,California,CA,93312,US,35.3844,-119.107,America/Los_Angeles,,,661-588-4535,06,06029,06029003808,060290038081007,12540,,ceo,census
713,,https://www.kohls.com/stores/ca/bakersfield-713.shtml,Kohl's Bakersfield Sw,open,5385 GOSFORD RD,Bakersfield,,California,CA,93313,US,35.3067,-119.0952,America/Los_Angeles,,,661-664-7410,06,06029,06029003129,060290031292016,12540,,ceo,census
660,,https://www.kohls.com/stores/az/avondale-660.shtml,Kohl's Avondale,open,1611 N DYSART RD,Avondale,,Arizona,AZ,85392,US,33.4651,-112.3373,America/Phoenix,,,623-536-2700,04,04013,04013061015,040130610152008,38060,429,ceo,census
442,,https://www.kohls.com/stores/ga/austell-442.shtml,Kohl's Austell,open,1825 EAST-WEST CONNECTOR,Austell,,Georgia,GA,30106,US,33.8526,-84.6069,America/New_York,,,770-941-3032,13,13067,13067031413,130670314133001,12060,122,ceo,fcc
346,,https://www.kohls.com/stores/co/aurora-346.shtml,Kohl's Aurora Hampden Crossing,open,18307 E HAMPDEN AVE,Aurora,,Colorado,CO,80013,US,39.6547,-104.7749,America/Denver,,,303-690-7900,08,08005,08005083300,080050833002021,19740,216,ceo,census
1241,,https://www.kohls.com/stores/co/aurora-1241.shtml,Kohl's Aurora-havana Gardens,open,1350 S IRONTON ST,Aurora,,Colorado,CO,80012,US,39.6922,-104.8628,America/Denver,,,303-745-3022,08,08005,08005080200,080050802001008,19740,216,ceo,census
67,,https://www.kohls.com/stores/il/aurora-67.shtml,Kohl's Fox Valley,open,4340 FOX VALLEY CENTER DR,Aurora,,Illinois,IL,60504,US,41.7615,-88.2079,America/Chicago,,,630-820-1011,17,17043,17043846509,170438465091002,16980,176,ceo,census
139,,https://www.kohls.com/stores/ga/athens-139.shtml,Kohl's Athens,open,1991 EPPS BRIDGE PKWY,Athens,,Georgia,GA,30606,US,33.922,-83.4438,America/New_York,,,706-353-8044,13,13219,13219030202,132190302021000,12020,122,ceo,census
727,,https://www.kohls.com/stores/co/arvada-727.shtml,Kohl's Arvada,open,15680 W 64TH AVE,Arvada,,Colorado,CO,80007,US,39.8119,-105.1757,America/Denver,,,303-403-8362,08,08059,08059009842,080590098422000,19740,216,ceo,census
60,,https://www.kohls.com/stores/il/arlingtonheights-60.shtml,Kohl's Arlington Hts.,open,800 W DUNDEE RD,Arlington Heights,,Illinois,IL,60004,US,42.1408,-87.9921,America/Chicago,,,847-506-1280,17,17031,17031803012,170318030121007,16980,176,ceo,census
705,,https://www.kohls.com/stores/ca/antelope-705.shtml,Kohl's Antelope,open,5030 ANTELOPE RD,Antelope,,California,CA,95843,US,38.7023,-121.3472,America/Los_Angeles,,,916-338-0655,06,06067,06067007428,060670074281000,40900,472,ceo,census
1325,,https://www.kohls.com/stores/ak/anchorage-1325.shtml,Kohl's Anchorage Ne,open,1200 N MULDOON RD,Anchorage,,Alaska,AK,99504,US,61.2291,-149.7418,America/Anchorage,,,907-337-3300,02,02020,02020980100,020209801001147,11260,,ceo,census
1086,,https://www.kohls.com/stores/id/ammon-1086.shtml,Kohl's Idaho Falls,open,3175 S 25TH E,Ammon,,Idaho,ID,83406,US,43.4685,-111.9825,America/Boise,,,208-227-0195,16,16019,16019970502,160199705021021,26820,292,ceo,census
1309,,https://www.kohls.com/stores/il/alton-1309.shtml,Kohl's Alton,open,1770 HOMER ADAMS PKWY,Alton,,Illinois,IL,62002,US,38.9209,-90.1628,America/Chicago,,,618-462-2649,17,17119,17119402000,171194020001022,41180,476,ceo,census
798,,https://www.kohls.com/stores/fl/altamontesprings-798.shtml,Kohl's Altamonte Springs,open,945 W STATE RD 436,Altamonte Springs,,Florida,FL,32714,US,28.6655,-81.422,America/New_York,,,407-788-2480,12,12117,12117021606,121170216061002,36740,422,ceo,census
790,,https://www.kohls.com/stores/ca/alhambra-790.shtml,Kohl's Alhambra,open,1201 S FREMONT AVE,Alhambra,,California,CA,91803,US,34.0797,-118.1534,America/Los_Angeles,,,626-289-7250,06,06037,06037480802,060374808022018,31080,348,ceo,census
662,,https://www.kohls.com/stores/il/algonquin-662.shtml,Kohl's Algonquin,open,734 S RANDALL RD,Algonquin,,Illinois,IL,60102,US,42.1641,-88.3394,America/Chicago,,,847-658-7441,17,17111,17111871206,171118712064021,16980,176,ceo,census
1234,,https://www.kohls.com/stores/ga/albany-1234.shtml,Kohl's Albany-ga,open,2813 NOTTINGHAM WAY,Albany,,Georgia,GA,31707,US,31.6199,-84.207,America/New_York,,,229-420-1517,13,13095,13095000400,130950004003005,10500,,ceo,census
1324,,https://www.kohls.com/stores/ca/alameda-1324.shtml,Kohl's Alameda,open,2201 S SHORE CTR,Alameda,,California,CA,94501,US,37.7581,-122.2528,America/Los_Angeles,,,510-263-0308,06,06001,06001428400,060014284001005,41860,488,ceo,fcc
441,,https://www.kohls.com/stores/ga/acworth-441.shtml,Kohl's Acworth,open,3354 COBB PKWY NW,Acworth,,Georgia,GA,30101,US,34.0376,-84.6821,America/New_York,,,678-574-5370,13,13067,13067030110,130670301102000,12060,122,ceo,census
1035,,https://www.kohls.com/stores/il/oswego-1035.shtml,Kohl's Oswego,open,2500 US-34,Oswego,,Illinois,IL,60543,US,41.7011,-88.307,America/Chicago,,,630-554-2996,17,17093,17093890103,170938901032020,16980,176,ceo,census
260,,https://www.kohls.com/stores/il/northriverside-260.shtml,Kohl's North Riverside,open,2200 S HARLEM AVE,North Riverside,,Illinois,IL,60546,US,41.8496,-87.8063,America/Chicago,,,708-447-8199,17,17031,17031815600,170318156001000,16980,176,ceo,census
168,,https://www.kohls.com/stores/il/peru-168.shtml,Kohl's Peru,open,5253 STATE ROUTE 251,Peru,,Illinois,IL,61354,US,41.3708,-89.1234,America/Chicago,,,815-220-1018,17,17099,17099962100,170999621002082,36837,176,ceo,census
321,,https://www.kohls.com/stores/il/plainfield-321.shtml,Kohl's Joliet-caton,open,2510 S RTE 59,Plainfield,,Illinois,IL,60586,US,41.5676,-88.1982,America/Chicago,,,815-254-6400,17,17197,17197880417,171978804171045,16980,176,ceo,fcc
72,,https://www.kohls.com/stores/il/peoria-72.shtml,Kohl's Peoria,open,4100 W WILLOW KNOLLS DR,Peoria,,Illinois,IL,61615,US,40.7732,-89.654,America/Chicago,,,309-691-7117,17,17143,17143003900,171430039002104,37900,427,ceo,census
990,,https://www.kohls.com/stores/il/quincy-990.shtml,Kohl's Quincy,open,6100 BROADWAY ST,Quincy,,Illinois,IL,62305,US,39.9322,-91.3184,America/Chicago,,,217-224-4962,17,17001,17001010600,170010106001009,39500,448,ceo,census
140,,https://www.kohls.com/stores/il/rockford-140.shtml,Kohl's Rockford South,open,6125 E STATE ST,Rockford,,Illinois,IL,61108,US,42.265,-88.9972,America/Chicago,,,815-397-0048,17,17201,17201000513,172010005131012,40420,466,ceo,census
1300,,https://www.kohls.com/stores/il/romeoville-1300.shtml,Kohl's Romeoville,open,261S WEBER RD,Romeoville,,Illinois,IL,60446,US,41.616,-88.1204,America/Chicago,,,815-838-5308,17,17197,17197884101,171978841013026,16980,176,ceo,census
358,,https://www.kohls.com/stores/il/roundlakebeach-358.shtml,Kohl's Round Lake,open,230 E ROLLINS RD,Round Lake Beach,,Illinois,IL,60073,US,42.3816,-88.0768,America/Chicago,,,847-546-0700,17,17097,17097861202,170978612021034,16980,176,ceo,census
1592,,https://www.kohls.com/stores/il/schaumburg-1592.shtml,Kohl's Schaumburg,open,1293 E HIGGINS RD,Schaumburg,,Illinois,IL,60173,US,42.0377,-88.0466,America/Chicago,,,224-278-9995,17,17031,17031804609,170318046091008,16980,176,ceo,census
178,,https://www.kohls.com/stores/il/schaumburg-178.shtml,Kohl's Schaumburg West,open,171 BARRINGTON RD,Schaumburg,,Illinois,IL,60194,US,42.0278,-88.1421,America/Chicago,,,847-519-0448,17,17031,17031804711,170318047113012,16980,176,ceo,census
1413,,https://www.kohls.com/stores/il/sterling-1413.shtml,Kohl's Sterling,open,3220 EAST LYNN BLVD.,Sterling,,Illinois,IL,61081,US,41.8107,-89.6577,America/Chicago,,,815-625-4982,17,17195,17195000900,171950009004007,44580,221,ceo,census
506,,https://www.kohls.com/stores/il/southelgin-506.shtml,Kohl's South Elgin,open,350 S RANDALL RD,South Elgin,,Illinois,IL,60177,US,41.9879,-88.3439,America/Chicago,,,847-608-0741,17,17089,17089851912,170898519121022,16980,176,ceo,census
102,,https://www.kohls.com/stores/il/springfield-102.shtml,Kohl's Springfield-il,open,2901 S VETERANS PKWY,Springfield,,Illinois,IL,62704,US,39.7657,-89.7094,America/Chicago,,,217-698-0540,17,17167,17167002002,171670020021018,44100,522,ceo,fcc
1182,,https://www.kohls.com/stores/il/tinleypark-1182.shtml,Kohl's Tinley Park,open,7500 W 191ST ST,Tinley Park,,Illinois,IL,60487,US,41.5497,-87.7979,America/Chicago,,,815-464-3486,17,17197,17197883514,171978835142053,16980,176,ceo,census
77,,https://www.kohls.com/stores/il/wheaton-77.shtml,Kohl's Wheaton,open,401 S COUNTY FARM RD,Wheaton,,Illinois,IL,60187,US,41.9066,-88.0745,America/Chicago,,,630-682-8500,17,17043,17043842604,170438426044009,16980,176,ceo,census
112,,https://www.kohls.com/stores/il/vernonhills-112.shtml,Kohl's Vernon Hills,open,235 N MILWAUKEE AVE,Vernon Hills,,Illinois,IL,60061,US,42.2306,-87.9391,America/Chicago,,,847-913-9800,17,17097,17097866200,170978662001014,16980,176,ceo,census
1467,,https://www.kohls.com/stores/il/woodstock-1467.shtml,Kohl's Woodstock,open,2200 LAKE AVENUE,Woodstock,,Illinois,IL,60098,US,42.29,-88.4254,America/Chicago,,,815-337-0830,17,17111,17111870906,171118709063001,16980,176,ceo,census
64,,https://www.kohls.com/stores/il/woodridge-64.shtml,Kohl's Woodridge,open,1001 75TH ST,Woodridge,,Illinois,IL,60517,US,41.7505,-88.0161,America/Chicago,,,630-910-0900,17,17043,17043845802,170438458022006,16980,176,ceo,census
108,,https://www.kohls.com/stores/in/anderson-108.shtml,Kohl's Anderson-new,open,4544 S SCATTERFIELD RD,Anderson,,Indiana,IN,46013,US,40.0684,-85.6494,America/Indiana/Indianapolis,,,765-644-8220,18,18095,18095002000,180950020003026,26900,294,ceo,census
519,,https://www.kohls.com/stores/in/bloomington-519.shtml,Kohl's Bloomington-in,open,3140 W WHITEHALL CROSSING BLVD,Bloomington,,Indiana,IN,47404,US,39.1726,-86.5722,America/Indiana/Indianapolis,,,812-331-8330,18,18105,18105001301,181050013012012,14020,144,ceo,fcc
1302,,https://www.kohls.com/stores/in/angola-1302.shtml,Kohl's Angola,open,3300 N WAYNE ST,Angola,,Indiana,IN,46703,US,41.6761,-84.9975,America/Indiana/Indianapolis,,,260-665-7671,18,18151,18151971200,181519712001060,11420,258,ceo,fcc
1185,,https://www.kohls.com/stores/il/yorkville-1185.shtml,Kohl's Yorkville,open,945 ERICA LN,Yorkville,,Illinois,IL,60560,US,41.6649,-88.4639,America/Chicago,,,630-553-3640,17,17093,17093890401,170938904013048,16980,176,ceo,census
1104,,https://www.kohls.com/stores/in/brownsburg-1104.shtml,Kohl's Brownsburg,open,580 W NORTHFIELD DR,Brownsburg,,Indiana,IN,46112,US,39.8614,-86.4065,America/Indiana/Indianapolis,,,317-852-3705,18,18063,18063210103,180632101032052,26900,294,ceo,census
84,,https://www.kohls.com/stores/in/carmel-84.shtml,Kohl's Westfield,open,2005 E GREYHOUND PASS,Carmel,,Indiana,IN,46033,US,40.0014,-86.1238,America/Indiana/Indianapolis,,,317-844-3996,18,18057,18057110405,180571104051037,26900,294,ceo,census
1178,,https://www.kohls.com/stores/in/carmel-1178.shtml,Kohl's Carmel West,open,9895 N MICHIGAN RD,Carmel,,Indiana,IN,46032,US,39.9325,-86.2293,America/Indiana/Indianapolis,,,317-802-9397,18,18057,18057111103,180571111032019,26900,294,ceo,census
281,,https://www.kohls.com/stores/in/evansville-281.shtml,Kohl's Evansville East,open,201 N BURKHARDT RD,Evansville,,Indiana,IN,47715,US,37.9776,-87.4686,America/Chicago,,,812-475-1417,18,18163,18163010101,181630101012012,21780,241,ceo,census
169,,https://www.kohls.com/stores/in/evansville-169.shtml,Kohl's Evansville West,open,4200 HOGUE RD,Evansville,,Indiana,IN,47712,US,37.9802,-87.625,America/Chicago,,,812-422-1246,18,18163,18163003200,181630032003002,21780,241,ceo,census
679,,https://www.kohls.com/stores/in/fortwayne-679.shtml,Kohl's Fort Wayne East,open,10310 MAYVILLE RD,Fort Wayne,,Indiana,IN,46835,US,41.1273,-85.0082,America/Indiana/Indianapolis,,,260-486-7557,18,18003,18003010808,180030108083022,23060,258,ceo,fcc
1301,,https://www.kohls.com/stores/in/franklin-1301.shtml,Kohl's Franklin,open,415 MALLORY PKWY,Franklin,,Indiana,IN,46131,US,39.4869,-86.0671,America/Indiana/Indianapolis,,,317-736-6046,18,18081,18081610900,180816109001001,26900,294,ceo,census
110,,https://www.kohls.com/stores/in/fortwayne-110.shtml,Kohl's Ft. Wayne West,open,1410 APPLE GLEN BLVD,Fort Wayne,,Indiana,IN,46804,US,41.072,-85.2033,America/Indiana/Indianapolis,,,260-434-0445,18,18003,18003011501,180030115011010,23060,258,ceo,census
130,,https://www.kohls.com/stores/in/fortwayne-130.shtml,Kohl's Fort Wayne North,open,835 E COLISEUM BLVD,Fort Wayne,,Indiana,IN,46805,US,41.1208,-85.1283,America/Indiana/Indianapolis,,,260-483-0564,18,18003,18003003304,180030033041022,23060,258,ceo,census
495,,https://www.kohls.com/stores/in/columbus-495.shtml,Kohl's Columbus-in,open,711 CREEKVIEW DR,Columbus,,Indiana,IN,47201,US,39.2068,-85.8816,America/Indiana/Indianapolis,,,812-375-1955,18,18005,18005010700,180050107003002,18020,294,ceo,census
336,,https://www.kohls.com/stores/in/goshen-336.shtml,Kohl's Goshen,open,3802 MIDWAY RD,Goshen,,Indiana,IN,46526,US,41.6216,-85.9033,America/Indiana/Indianapolis,,,574-875-6745,18,18039,18039002001,180390020012002,21140,515,ceo,census
1483,,https://www.kohls.com/stores/in/greenfield-1483.shtml,Kohl's Greenfield-in,open,2223 BARRETT DRIVE,Greenfield,,Indiana,IN,46140,US,39.8174,-85.7662,America/Indiana/Indianapolis,,,317-462-6810,18,18059,18059410301,180594103011060,26900,294,ceo,census
558,,https://www.kohls.com/stores/in/indianapolis-558.shtml,Kohl's Southport,open,4850 E SOUTHPORT RD,Indianapolis,,Indiana,IN,46237,US,39.6672,-86.0858,America/Indiana/Indianapolis,,,317-782-3616,18,18097,18097380902,180973809022012,26900,294,ceo,census
674,,https://www.kohls.com/stores/in/indianapolis-674.shtml,Kohl's Lawrence-in,open,5825 SUNNYSIDE RD,Indianapolis,,Indiana,IN,46235,US,39.8606,-85.9705,America/Indiana/Indianapolis,,,317-823-8930,18,18097,18097330212,180973302122023,26900,294,ceo,census
134,,https://www.kohls.com/stores/in/greenwood-134.shtml,Kohl's Greenwood,open,550 FRY RD,Greenwood,,Indiana,IN,46142,US,39.6289,-86.119,America/Indiana/Indianapolis,,,317-882-0001,18,18081,18081610300,180816103001011,26900,294,ceo,census
229,,https://www.kohls.com/stores/in/highland-229.shtml,Kohl's Highland,open,10353 INDIANAPOLIS BLVD,Highland,,Indiana,IN,46322,US,41.5255,-87.4677,America/Chicago,,,219-924-1364,18,18089,18089040502,180890405021012,16980,176,ceo,census
106,,https://www.kohls.com/stores/in/indianapolis-106.shtml,Kohl's Geist,open,8141 E 96TH ST,Indianapolis,,Indiana,IN,46256,US,39.9248,-86.0243,America/Indiana/Indianapolis,,,317-598-1388,18,18097,18097330109,180973301093000,26900,294,ceo,census
107,,https://www.kohls.com/stores/in/indianapolis-107.shtml,Kohl's Fashion Mall Commons,open,8487 UNION CHAPEL RD,Indianapolis,,Indiana,IN,46240,US,39.9094,-86.1074,America/Indiana/Indianapolis,,,317-722-0980,18,18097,18097320202,180973202024000,26900,294,ceo,census
136,,https://www.kohls.com/stores/in/indianapolis-136.shtml,Kohl's Speedway,open,5660 CRAWFORDSVILLE RD,Indianapolis,,Indiana,IN,46224,US,39.7973,-86.2584,America/Indiana/Indianapolis,,,317-244-7666,18,18097,18097340202,180973402024004,26900,294,ceo,census
1576,,https://www.kohls.com/stores/in/jasper-1576.shtml,Kohl's Jasper,open,3875 N NEWTON ST,Jasper,,Indiana,IN,47546,US,38.4242,-86.9399,America/Indiana/Vincennes,,,812-481-1842,18,18037,18037953301,180379533011010,27540,,ceo,census
690,,https://www.kohls.com/stores/in/kokomo-690.shtml,Kohl's Kokomo,open,2156 E BLVD,Kokomo,,Indiana,IN,46902,US,40.4639,-86.1034,America/Indiana/Indianapolis,,,765-854-0420,18,18067,18067001300,180670013002017,29020,294,ceo,census
1272,,https://www.kohls.com/stores/in/jeffersonville-1272.shtml,Kohl's Jeffersonville,open,2650 ALLISON LN,Jeffersonville,,Indiana,IN,47130,US,38.3211,-85.7085,America/Kentucky/Louisville,,,812-284-5792,18,18019,18019050603,180190506032000,31140,350,ceo,census
1607,,https://www.kohls.com/stores/in/madison-1607.shtml,Kohl's Madison,open,2528 MICHIGAN RD,Madison,,Indiana,IN,47250,US,38.7742,-85.3857,America/Indiana/Indianapolis,,,930-210-2475,18,18077,18077966500,180779665001026,31500,,ceo,census
138,,https://www.kohls.com/stores/in/lafayette-138.shtml,Kohl's Lafayette,open,2415 SAGAMORE PKWY S,Lafayette,,Indiana,IN,47905,US,40.3936,-86.8519,America/Indiana/Indianapolis,,,765-448-6504,18,18157,18157001702,181570017021006,29200,320,ceo,census
1442,,https://www.kohls.com/stores/in/marion-1442.shtml,Kohl's Marion,open,4114 SOUTH WESTERN AVENUE,Marion,,Indiana,IN,46953,US,40.519,-85.6767,America/Indiana/Indianapolis,,,765-674-3934,18,18053,18053010200,180530102001037,31980,,ceo,census
1500,,https://www.kohls.com/stores/in/michigancity-1500.shtml,Kohl's Michigan City,open,210 DUNES PLAZA,Michigan City,,Indiana,IN,46360,US,41.6783,-86.8978,America/Chicago,,,219-879-0297,18,18091,18091041400,180910414003000,33140,176,ceo,fcc
259,,https://www.kohls.com/stores/in/mishawaka-259.shtml,Kohl's Mishawaka,open,4410 GRAPE RD,Mishawaka,,Indiana,IN,46545,US,41.7006,-86.1847,America/Indiana/Indianapolis,,,574-273-6266,18,18141,18141011505,181410115051035,43780,515,ceo,census
83,,https://www.kohls.com/stores/in/merrillville-83.shtml,Kohl's Merrillville,open,1601 SOUTHLAKE MALL,Merrillville,,Indiana,IN,46410,US,41.4705,-87.3145,America/Chicago,,,219-791-9141,18,18089,18089042302,180890423021000,16980,176,ceo,fcc
307,,https://www.kohls.com/stores/in/muncie-307.shtml,Kohl's Muncie,open,1200 E PRINCETON AVE,Muncie,,Indiana,IN,47303,US,40.2257,-85.3716,America/Indiana/Indianapolis,,,765-287-8354,18,18035,18035002000,180350020001001,34620,294,ceo,fcc
512,,https://www.kohls.com/stores/in/newalbany-512.shtml,Kohl's New Albany-in,open,3899 CHARLESTOWN RD,New Albany,,Indiana,IN,47150,US,38.3422,-85.8014,America/Kentucky/Louisville,,,812-948-1888,18,18043,18043071006,180430710062015,31140,350,ceo,census
610,,https://www.kohls.com/stores/in/noblesville-610.shtml,Kohl's Noblesville,open,16701 CLOVER RD,Noblesville,,Indiana,IN,46060,US,40.0314,-85.9986,America/Indiana/Indianapolis,,,317-770-4143,18,18057,18057110700,180571107002027,26900,294,ceo,census
1024,,https://www.kohls.com/stores/in/richmond-1024.shtml,Kohl's Richmond,open,3722 NATIONAL RD E,Richmond,,Indiana,IN,47374,US,39.8333,-84.8485,America/Indiana/Indianapolis,,,765-935-1507,18,18177,18177001102,181770011021025,39980,458,ceo,census
1096,,https://www.kohls.com/stores/in/portage-1096.shtml,Kohl's Portage,open,6495 US-6,Portage,,Indiana,IN,46368,US,41.5505,-87.1631,America/Chicago,,,219-759-2100,18,18127,18127050509,181270505093000,16980,176,ceo,census
347,,https://www.kohls.com/stores/in/plainfield-347.shtml,Kohl's Plainfield-in,open,2685 E MAIN ST,Plainfield,,Indiana,IN,46168,US,39.718,-86.3524,America/Indiana/Indianapolis,,,317-837-8812,18,18063,18063210607,180632106071019,26900,294,ceo,census
997,,https://www.kohls.com/stores/in/southbend-997.shtml,Kohl's South Bend,open,1290 E IRELAND RD,South Bend,,Indiana,IN,46614,US,41.6278,-86.2319,America/Indiana/Indianapolis,,,574-231-1687,18,18141,18141011803,181410118032005,43780,515,ceo,census
473,,https://www.kohls.com/stores/in/valparaiso-473.shtml,Kohl's Valparaiso,open,350 SILHAVY RD,Valparaiso,,Indiana,IN,46383,US,41.4641,-87.0282,America/Chicago,,,219-531-6233,18,18127,18127050802,181270508021008,16980,176,ceo,fcc
1153,,https://www.kohls.com/stores/in/vincennes-1153.shtml,Kohl's Vincennes,open,616 N BIERHAUS BOULEVARD,Vincennes,,Indiana,IN,47591,US,38.6577,-87.5036,America/Indiana/Vincennes,,,812-885-0250,18,18083,18083955900,180839559001010,47180,,ceo,census
118,,https://www.kohls.com/stores/in/terrehaute-118.shtml,Kohl's Terre Haute,open,5679 S US HWY 41,Terre Haute,,Indiana,IN,47802,US,39.3979,-87.4029,America/Indiana/Indianapolis,,,812-298-8504,18,18167,18167011202,181670112022010,45460,,ceo,census
998,,https://www.kohls.com/stores/in/warsaw-998.shtml,Kohl's Warsaw,open,590 W 300 N,Warsaw,,Indiana,IN,46582,US,41.2784,-85.8552,America/Indiana/Indianapolis,,,574-267-5965,18,18085,18085961200,180859612004067,47700,515,ceo,census
623,,https://www.kohls.com/stores/ia/ankeny-623.shtml,Kohl's Ankeny,open,1935 SE DELAWARE AVE,Ankeny,,Iowa,IA,50021,US,41.7112,-93.5779,America/Chicago,,,515-963-7727,19,19153,19153010212,191530102121006,19780,218,ceo,census
501,,https://www.kohls.com/stores/ia/cedarfalls-501.shtml,Kohl's Cedar Falls,open,5911 UNIVERSITY AVE,Cedar Falls,,Iowa,IA,50613,US,42.5108,-92.4287,America/Chicago,,,319-266-2606,19,19013,19013002500,190130025003002,47940,,ceo,census
1498,,https://www.kohls.com/stores/ia/cedarrapids-1498.shtml,Kohl's Sw Cedar Rapids,open,3030 WILEY BLVD SW,Cedar Rapids,,Iowa,IA,52404,US,41.9478,-91.7236,America/Chicago,,,319-396-1800,19,19113,19113003005,191130030053008,16300,168,ceo,census
217,,https://www.kohls.com/stores/ia/cedarrapids-217.shtml,Kohl's Northland Square Cedar Rapids,open,361 COLLINS RD NE,Cedar Rapids,,Iowa,IA,52402,US,42.0261,-91.6354,America/Chicago,,,319-393-9234,19,19113,19113000700,191130007001003,16300,168,ceo,census
1499,,https://www.kohls.com/stores/ia/ames-1499.shtml,Kohl's Ames,open,2423 GRAND AVENUE,Ames,,Iowa,IA,50010,US,42.0467,-93.6229,America/Chicago,,,515-233-3318,19,19169,19169000300,191690003003001,11180,218,ceo,census
103,,https://www.kohls.com/stores/ia/clive-103.shtml,Kohl's Clive,open,10201 UNIVERSITY AVE,Clive,,Iowa,IA,50325,US,41.6014,-93.7578,America/Chicago,,,515-226-9888,19,19153,19153011206,191530112062022,19780,218,ceo,census
565,,https://www.kohls.com/stores/ia/clinton-565.shtml,Kohl's Clinton,open,2281 VALLEY W CT,Clinton,,Iowa,IA,52732,US,41.8187,-90.2402,America/Chicago,,,563-243-1245,19,19045,19045000400,190450004003036,17540,209,ceo,census
1166,,https://www.kohls.com/stores/ia/councilbluffs-1166.shtml,Kohl's Council Bluffs,open,3626 METRO DR,Council Bluffs,,Iowa,IA,51501,US,41.2227,-95.8404,America/Chicago,,,712-366-0243,19,19155,19155031300,191550313002038,36540,420,ceo,census
1585,,https://www.kohls.com/stores/ia/desmoines-1585.shtml,Kohl's Merle Hay Road,open,4000 MERLE HAY RD,Des Moines,,Iowa,IA,50310,US,41.6329,-93.7005,America/Chicago,,,515-216-4640,19,19153,19153000801,191530008012009,19780,218,ceo,census
500,,https://www.kohls.com/stores/ia/coralville-500.shtml,Kohl's Coralville,open,2795 COMMERCE DR,Coralville,,Iowa,IA,52241,US,41.6976,-91.6098,America/Chicago,,,319-545-4005,19,19103,19103000303,191030003031004,26980,168,ceo,census
201,,https://www.kohls.com/stores/ia/davenport-201.shtml,Kohl's Davenport,open,3910 ELMORE AVE,Davenport,,Iowa,IA,52807,US,41.5596,-90.5292,America/Chicago,,,563-355-9369,19,19163,19163012902,191630129022003,19340,209,ceo,census
995,,https://www.kohls.com/stores/ia/masoncity-995.shtml,Kohl's Mason City,open,556 INDIANHEAD DR,Mason City,,Iowa,IA,50401,US,43.1453,-93.2664,America/Chicago,,,641-424-7085,19,19033,19033950201,190339502012006,32380,,ceo,census
985,,https://www.kohls.com/stores/ia/dubuque-985.shtml,Kohl's Dubuque,open,2595 NW ARTERIAL,Dubuque,,Iowa,IA,52002,US,42.5214,-90.7436,America/Chicago,,,563-585-4757,19,19061,19061001103,190610011031001,20220,,ceo,census
1487,,https://www.kohls.com/stores/ia/ottumwa-1487.shtml,Kohl's Ottumwa,open,1100 WILDWOOD DRIVE,Ottumwa,,Iowa,IA,52501,US,41.0175,-92.4464,America/Chicago,,,641-682-1667,19,19179,19179960600,191799606003003,36900,,ceo,census
1440,,https://www.kohls.com/stores/ia/fortdodge-1440.shtml,Kohl's Fort Dodge,open,2941 5TH AVE SOUTH,Fort Dodge,,Iowa,IA,50501,US,42.4996,-94.1557,America/Chicago,,,515-573-1991,19,19187,19187000500,191870005002013,22700,,ceo,census
1253,,https://www.kohls.com/stores/ia/westdesmoines-1253.shtml,Kohl's West Des Moines,open,6515 MILLS CIVIC PKWY,West Des Moines,,Iowa,IA,50266,US,41.5641,-93.7973,America/Chicago,,,515-223-1550,19,19049,19049050816,190490508161010,19780,218,ceo,census
1111,,https://www.kohls.com/stores/ks/derby-1111.shtml,Kohl's Derby,open,2800 N COMMERCE DR,Derby,,Kansas,KS,67037,US,37.5797,-97.2764,America/Chicago,,,316-789-0193,20,20173,20173005800,201730058004028,48620,556,ceo,census
167,,https://www.kohls.com/stores/ia/siouxcity-167.shtml,Kohl's Sioux City,open,5001 SERGEANT RD,Sioux City,,Iowa,IA,51106,US,42.4458,-96.3411,America/Chicago,,,712-276-5394,19,19193,19193002101,191930021013020,43580,512,ceo,fcc
1232,,https://www.kohls.com/stores/ia/westburlington-1232.shtml,Kohl's West Burlington,open,306 E AGENCY RD,West Burlington,,Iowa,IA,52655,US,40.8163,-91.1522,America/Chicago,,,319-752-4816,19,19057,19057000800,190570008003027,15460,161,ceo,census
1595,,https://www.kohls.com/stores/ks/gardencity-1595.shtml,Kohl's Garden City,open,2310 E. KANSAS AVE SUITE A,Garden City,,Kansas,KS,67846,US,37.9777,-100.8414,America/Chicago,,,620-765-4437,20,20055,20055960507,200559605071000,23780,,ceo,census
1494,,https://www.kohls.com/stores/ks/hutchinson-1494.shtml,Kohl's Hutchinson,open,1300 E 17TH ST,Hutchinson,,Kansas,KS,67501,US,38.0735,-97.9064,America/Chicago,,,620-663-2376,20,20155,20155000200,201550002003020,26740,,ceo,census
231,,https://www.kohls.com/stores/ks/olathe-231.shtml,Kohl's Olathe,open,16250 W 135TH ST,Olathe,,Kansas,KS,66062,US,38.8853,-94.7735,America/Chicago,,,913-780-9300,20,20091,20091052908,200910529081005,28140,312,ceo,fcc
