store_number,slug,url,location_name,status,address_line1,city,county,state,region,postal_code,country_code,latitude,longitude,time_zone,format,total_building_area_sqft,main_voice_phone_number,state_fips,county_fips,tract_fips,block_fips,cbsa_fips,csa_fips,coord_source,fips_source
15614,,https://www.walgreens.com/locator/walgreens-3140+highway+280-alexander city-al-35010/id=15614,Walgreens,open,3140 HIGHWAY 280,Alexander City,,Alabama,AL,35010,US,32.9327,-85.9718,America/Chicago,,,256-329-8224,01,01123,01123962302,011239623022035,10760,194,ceo,census
18374,,https://www.walgreens.com/locator/walgreens-459+n+broadnax+st-dadeville-al-36853/id=18374,Walgreens,open,459 N BROADNAX ST,Dadeville,,Alabama,AL,36853,US,32.8351,-85.7639,America/Chicago,,,256-825-4242,01,01123,01123962400,011239624003045,10760,194,ceo,census
10598,,https://www.walgreens.com/locator/walgreens-100+w+fort+williams+st-sylacauga-al-35150/id=10598,Walgreens,open,100 W FORT WILLIAMS ST,Sylacauga,,Alabama,AL,35150,US,33.1676,-86.2527,America/Chicago,,,256-249-8646,01,01121,01121011800,011210118002026,45180,142,ceo,census
10664,,https://www.walgreens.com/locator/walgreens-795+wilson+st-wetumpka-al-36092/id=10664,Walgreens,open,795 WILSON ST,Wetumpka,,Alabama,AL,36092,US,32.5266,-86.2057,America/Chicago,,,334-514-7135,01,01051,01051030702,010510307023021,33860,388,ceo,census
12099,,https://www.walgreens.com/locator/walgreens-503+battle+st+e-talladega-al-35160/id=12099,Walgreens,open,503 BATTLE ST E,Talladega,,Alabama,AL,35160,US,33.4357,-86.094,America/Chicago,,,256-315-1659,01,01121,01121010900,011210109002032,45180,142,ceo,census
9397,,https://www.walgreens.com/locator/walgreens-765+e+glenn+ave-auburn-al-36830/id=9397,Walgreens,open,765 E GLENN AVE,Auburn,,Alabama,AL,36830,US,32.6095,-85.4655,America/Chicago,,,334-821-6538,01,01081,01081040201,010810402013007,12220,194,ceo,census
10947,,https://www.walgreens.com/locator/walgreens-2015+pepperell+pkwy-opelika-al-36801/id=10947,Walgreens,open,2015 PEPPERELL PKWY,Opelika,,Alabama,AL,36801,US,32.6374,-85.4063,America/Chicago,,,334-749-3073,01,01081,01081041104,010810411041029,12220,194,ceo,census
11389,,https://www.walgreens.com/locator/walgreens-3720+highway+14-millbrook-al-36054/id=11389,Walgreens,open,3720 HIGHWAY 14,Millbrook,,Alabama,AL,36054,US,32.5164,-86.3747,America/Chicago,,,334-285-1450,01,01051,01051031100,010510311002021,33860,388,ceo,census
18148,,https://www.walgreens.com/locator/walgreens-641+ollie+ave-clanton-al-35045/id=18148,Walgreens,open,641 OLLIE AVE,Clanton,,Alabama,AL,35045,US,32.8493,-86.6329,America/Chicago,,,205-755-5879,01,01021,01021060104,010210601043007,13820,142,ceo,census
7746,,https://www.walgreens.com/locator/walgreens-6680+atlanta+hwy-montgomery-al-36117/id=7746,Walgreens,open,6680 ATLANTA HWY,Montgomery,,Alabama,AL,36117,US,32.3817,-86.1808,America/Chicago,,,334-409-0611,01,01101,01101005407,011010054072003,33860,388,ceo,census
2203,,https://www.walgreens.com/locator/walgreens-3892+atlanta+hwy-montgomery-al-36109/id=2203,Walgreens,open,3892 ATLANTA HWY,Montgomery,,Alabama,AL,36109,US,32.3827,-86.2467,America/Chicago,,,334-270-0757,01,01101,01101001700,011010017001000,33860,388,ceo,census
13158,,https://www.walgreens.com/locator/walgreens-3110+taylor+rd-montgomery-al-36116/id=13158,Walgreens,open,3110 TAYLOR RD,Montgomery,,Alabama,AL,36116,US,32.3383,-86.1804,America/Chicago,,,334-244-0143,01,01101,01101005609,011010056091000,33860,388,ceo,census
6800,,https://www.walgreens.com/locator/walgreens-703+s+memorial+dr-prattville-al-36067/id=6800,Walgreens,open,703 S MEMORIAL DR,Prattville,,Alabama,AL,36067,US,32.46,-86.4498,America/Chicago,,,334-361-2261,01,01001,01001020400,010010204004009,33860,388,ceo,census
9456,,https://www.walgreens.com/locator/walgreens-2920+carter+hill+rd-montgomery-al-36106/id=9456,Walgreens,open,2920 CARTER HILL RD,Montgomery,,Alabama,AL,36106,US,32.352,-86.2646,America/Chicago,,,334-262-1169,01,01101,01101002000,011010020004000,33860,388,ceo,census
17398,,https://www.walgreens.com/locator/walgreens-4880+us+highway+78+w-oxford-al-36203/id=17398,Walgreens,open,4880 US HIGHWAY 78 W,Oxford,,Alabama,AL,36203,US,33.5977,-85.9276,America/Chicago,,,256-831-7726,01,01015,01015001501,010150015011022,11500,,ceo,census
11531,,https://www.walgreens.com/locator/walgreens-16468+highway+280-chelsea-al-35043/id=11531,Walgreens,open,16468 HIGHWAY 280,Chelsea,,Alabama,AL,35043,US,33.3495,-86.6279,America/Chicago,,,205-678-9288,01,01117,01117030215,011170302151027,13820,142,ceo,census
11819,,https://www.walgreens.com/locator/walgreens-1401+golden+springs+rd-anniston-al-36207/id=11819,Walgreens,open,1401 GOLDEN SPRINGS RD,Anniston,,Alabama,AL,36207,US,33.6287,-85.7856,America/Chicago,,,256-835-5099,01,01015,01015001000,010150010002033,11500,,ceo,census
7951,,https://www.walgreens.com/locator/walgreens-800+quintard+ave-anniston-al-36201/id=7951,Walgreens,open,800 QUINTARD AVE,Anniston,,Alabama,AL,36201,US,33.6551,-85.8273,America/Chicago,,,256-237-6147,01,01015,01015000800,010150008001051,11500,,ceo,census
10480,,https://www.walgreens.com/locator/walgreens-1649+martin+st+n-pell city-al-35125/id=10480,Walgreens,open,1649 MARTIN ST N,Pell City,,Alabama,AL,35125,US,33.6104,-86.282,America/Chicago,,,205-338-2319,01,01115,01115040207,011150402072045,13820,142,ceo,census
6033,,https://www.walgreens.com/locator/walgreens-1815+9th+ave+n-bessemer-al-35020/id=6033,Walgreens,open,1815 9TH AVE N,Bessemer,,Alabama,AL,35020,US,33.4056,-86.9609,America/Chicago,,,205-425-1757,01,01073,01073010200,010730102002095,13820,142,ceo,census
6955,,https://www.walgreens.com/locator/walgreens-3025+allison+bonnett+memorial+dr-hueytown-al-35023/id=6955,Walgreens,open,3025 ALLISON BONNETT MEMORIAL DR,Hueytown,,Alabama,AL,35023,US,33.4509,-86.9784,America/Chicago,,,205-744-9972,01,01073,01073013902,010730139021015,13820,142,ceo,census
12056,,https://www.walgreens.com/locator/walgreens-5271+ross+bridge+pkwy-hoover-al-35226/id=12056,Walgreens,open,5271 ROSS BRIDGE PKWY,Hoover,,Alabama,AL,35226,US,33.3533,-86.874,America/Chicago,,,205-988-9013,01,01073,01073014415,010730144152011,13820,142,ceo,census
5072,,https://www.walgreens.com/locator/walgreens-2505+john+hawkins+pkwy-hoover-al-35244/id=5072,Walgreens,open,2505 JOHN HAWKINS PKWY,Hoover,,Alabama,AL,35244,US,33.3551,-86.846,America/Chicago,,,205-982-9696,01,01073,01073014410,010730144102022,13820,142,ceo,census
17206,,https://www.walgreens.com/locator/walgreens-2337+crossplex+blvd-birmingham-al-35208/id=17206,Walgreens,open,2337 CROSSPLEX BLVD,Birmingham,,Alabama,AL,35208,US,33.4968,-86.8759,America/Chicago,,,205-786-3455,01,01073,01073003900,010730039001083,13820,142,ceo,fcc
13937,,https://www.walgreens.com/locator/walgreens-1801+montgomery+hwy-hoover-al-35244/id=13937,Walgreens,open,1801 MONTGOMERY HWY,Hoover,,Alabama,AL,35244,US,33.377,-86.8027,America/Chicago,,,205-988-9118,01,01117,01117030314,011170303141006,13820,142,ceo,census
6034,,https://www.walgreens.com/locator/walgreens-101+green+springs+hwy-birmingham-al-35209/id=6034,Walgreens,open,101 GREEN SPRINGS HWY,Birmingham,,Alabama,AL,35209,US,33.4707,-86.8237,America/Chicago,,,205-942-3668,01,01073,01073005800,010730058001011,13820,142,ceo,census
7245,,https://www.walgreens.com/locator/walgreens-668+lomb+ave+sw-birmingham-al-35211/id=7245,Walgreens,open,668 LOMB AVE SW,Birmingham,,Alabama,AL,35211,US,33.5003,-86.845,America/Chicago,,,205-786-4481,01,01073,01073004000,010730040001055,13820,142,ceo,census
4589,,https://www.walgreens.com/locator/walgreens-9458+helena+rd-pelham-al-35124/id=4589,Walgreens,open,9458 HELENA RD,Pelham,,Alabama,AL,35124,US,33.3452,-86.7969,America/Chicago,,,205-444-9488,01,01117,01117030315,011170303151015,13820,142,ceo,fcc
9701,,https://www.walgreens.com/locator/walgreens-737+montgomery+hwy-vestavia hills-al-35216/id=9701,Walgreens,open,737 MONTGOMERY HWY,Vestavia Hills,,Alabama,AL,35216,US,33.4448,-86.7903,America/Chicago,,,205-823-5442,01,01073,01073012905,010730129051017,13820,142,ceo,census
11099,,https://www.walgreens.com/locator/walgreens-2381+helena+rd-helena-al-35080/id=11099,Walgreens,open,2381 HELENA RD,Helena,,Alabama,AL,35080,US,33.2828,-86.8535,America/Chicago,,,205-663-5574,01,01117,01117030336,011170303364005,13820,142,ceo,census
6035,,https://www.walgreens.com/locator/walgreens-2101+richard+arrington+jr+blvd+s-birmingham-al-35209/id=6035,Walgreens,open,2101 RICHARD ARRINGTON JR BLVD S,Birmingham,,Alabama,AL,35209,US,33.4886,-86.7926,America/Chicago,,,205-939-1417,01,01073,01073010802,010730108022039,13820,142,ceo,fcc
9427,,https://www.walgreens.com/locator/walgreens-3340+pelham+pkwy-pelham-al-35124/id=9427,Walgreens,open,3340 PELHAM PKWY,Pelham,,Alabama,AL,35124,US,33.2763,-86.8124,America/Chicago,,,205-664-8027,01,01117,01117030341,011170303411009,13820,142,ceo,census
5073,,https://www.walgreens.com/locator/walgreens-1551+forestdale+blvd-birmingham-al-35214/id=5073,Walgreens,open,1551 FORESTDALE BLVD,Birmingham,,Alabama,AL,35214,US,33.5681,-86.8976,America/Chicago,,,205-798-8360,01,01073,01073012401,010730124011012,13820,142,ceo,census
15144,,https://www.walgreens.com/locator/walgreens-3020+clairmont+ave+s-birmingham-al-35205/id=15144,Walgreens,open,3020 CLAIRMONT AVE S,Birmingham,,Alabama,AL,35205,US,33.5119,-86.7835,America/Chicago,,,205-323-6823,01,01073,01073004701,010730047012004,13820,142,ceo,census
7306,,https://www.walgreens.com/locator/walgreens-4496+valleydale+rd-birmingham-al-35242/id=7306,Walgreens,open,4496 VALLEYDALE RD,Birmingham,,Alabama,AL,35242,US,33.3851,-86.7388,America/Chicago,,,205-981-2362,01,01117,01117030346,011170303462054,13820,142,ceo,census
10333,,https://www.walgreens.com/locator/walgreens-3150+green+valley+rd-vestavia-al-35243/id=10333,Walgreens,open,3150 GREEN VALLEY RD,Vestavia,,Alabama,AL,35243,US,33.4607,-86.7328,America/Chicago,,,205-967-7483,01,01073,01073012802,010730128022010,13820,142,ceo,census
16371,,https://www.walgreens.com/locator/walgreens-3686+grandview+pkwy-birmingham-al-35243/id=16371,Walgreens,open,3686 GRANDVIEW PKWY,Birmingham,,Alabama,AL,35243,US,33.433,-86.7177,America/Chicago,,,205-595-0419,01,01073,01073012910,010730129102009,13820,142,ceo,fcc
11651,,https://www.walgreens.com/locator/walgreens-4700+highway+280-hoover-al-35242/id=11651,Walgreens,open,4700 HIGHWAY 280,Hoover,,Alabama,AL,35242,US,33.4217,-86.7004,America/Chicago,,,205-991-1599,01,01117,01117030347,011170303473007,13820,142,ceo,census
9951,,https://www.walgreens.com/locator/walgreens-9301+highway+119-alabaster-al-35007/id=9951,Walgreens,open,9301 HIGHWAY 119,Alabaster,,Alabama,AL,35007,US,33.2147,-86.8278,America/Chicago,,,205-664-4584,01,01117,01117030610,011170306102000,13820,142,ceo,census
6977,,https://www.walgreens.com/locator/walgreens-1560+montclair+rd-irondale-al-35210/id=6977,Walgreens,open,1560 MONTCLAIR RD,Irondale,,Alabama,AL,35210,US,33.5255,-86.7233,America/Chicago,,,205-595-4588,01,01073,01073005600,010730056002002,13820,142,ceo,census
7791,,https://www.walgreens.com/locator/walgreens-101+doug+baker+blvd-hoover-al-35242/id=7791,Walgreens,open,101 DOUG BAKER BLVD,Hoover,,Alabama,AL,35242,US,33.4088,-86.6652,America/Chicago,,,205-437-9467,01,01117,01117030348,011170303482002,13820,142,ceo,fcc
19770,,https://www.walgreens.com/locator/walgreens-1713+decatur+hwy-fultondale-al-35068/id=19770,Walgreens,open,1713 DECATUR HWY,Fultondale,,Alabama,AL,35068,US,33.6117,-86.7964,America/Chicago,,,205-841-3815,01,01073,01073012003,010730120032012,13820,142,ceo,census
6488,,https://www.walgreens.com/locator/walgreens-100+fieldstown+rd-gardendale-al-35071/id=6488,Walgreens,open,100 FIELDSTOWN RD,Gardendale,,Alabama,AL,35071,US,33.6515,-86.8105,America/Chicago,,,205-631-1373,01,01073,01073011707,010730117073010,13820,142,ceo,fcc
11450,,https://www.walgreens.com/locator/walgreens-879+highway+78-sumiton-al-35148/id=11450,Walgreens,open,879 HIGHWAY 78,Sumiton,,Alabama,AL,35148,US,33.744,-87.0458,America/Chicago,,,205-648-8420,01,01127,01127021700,011270217002025,13820,142,ceo,fcc
10504,,https://www.walgreens.com/locator/walgreens-5947+chalkville+mountain+rd-birmingham-al-35235/id=10504,Walgreens,open,5947 CHALKVILLE MOUNTAIN RD,Birmingham,,Alabama,AL,35235,US,33.6412,-86.6255,America/Chicago,,,205-655-5189,01,01073,01073011113,010730111131002,13820,142,ceo,census
19797,,https://www.walgreens.com/locator/walgreens-4689+pinson+blvd-pinson-al-35126/id=19797,Walgreens,open,4689 PINSON BLVD,Pinson,,Alabama,AL,35126,US,33.6949,-86.6811,America/Chicago,,,205-680-2751,01,01073,01073011205,010730112051028,13820,142,ceo,fcc
10110,,https://www.walgreens.com/locator/walgreens-1832+ashville+rd-leeds-al-35094/id=10110,Walgreens,open,1832 ASHVILLE RD,Leeds,,Alabama,AL,35094,US,33.563,-86.5228,America/Chicago,,,205-702-4783,01,01115,01115040104,011150401043001,13820,142,ceo,census
11404,,https://www.walgreens.com/locator/walgreens-4400+university+blvd+e-tuscaloosa-al-35404/id=11404,Walgreens,open,4400 UNIVERSITY BLVD E,Tuscaloosa,,Alabama,AL,35404,US,33.1969,-87.4776,America/Chicago,,,205-553-6188,01,01125,01125010804,011250108041039,46220,,ceo,census
15449,,https://www.walgreens.com/locator/walgreens-1520+mcfarland+blvd+n-tuscaloosa-al-35406/id=15449,Walgreens,open,1520 MCFARLAND BLVD N,Tuscaloosa,,Alabama,AL,35406,US,33.2316,-87.5373,America/Chicago,,,205-759-1501,01,01125,01125010407,011250104072028,46220,,ceo,census
9683,,https://www.walgreens.com/locator/walgreens-100+n+airport+rd-jasper-al-35504/id=9683,Walgreens,open,100 N AIRPORT RD,Jasper,,Alabama,AL,35504,US,33.8492,-87.2679,America/Chicago,,,205-221-3150,01,01127,01127020302,011270203023001,13820,142,ceo,census
18116,,https://www.walgreens.com/locator/walgreens-521+university+blvd+e-tuscaloosa-al-35401/id=18116,Walgreens,open,521 UNIVERSITY BLVD E,Tuscaloosa,,Alabama,AL,35401,US,33.2062,-87.5297,America/Chicago,,,205-758-4423,01,01125,01125011200,011250112002011,46220,,ceo,census
5861,,https://www.walgreens.com/locator/walgreens-3107+lurleen+b+wallace+blvd-northport-al-35476/id=5861,Walgreens,open,3107 LURLEEN B WALLACE BLVD,Northport,,Alabama,AL,35476,US,33.238,-87.5762,America/Chicago,,,205-333-9343,01,01125,01125010403,011250104031006,46220,,ceo,census
10525,,https://www.walgreens.com/locator/walgreens-8701+highway+69+s-tuscaloosa-al-35405/id=10525,Walgreens,open,8701 HIGHWAY 69 S,Tuscaloosa,,Alabama,AL,35405,US,33.1271,-87.5484,America/Chicago,,,205-758-1684,01,01125,01125012503,011250125033015,46220,,ceo,fcc
10761,,https://www.walgreens.com/locator/walgreens-1504+s+main+st-atmore-al-36502/id=10761,Walgreens,open,1504 S MAIN ST,Atmore,,Alabama,AL,36502,US,31.0047,-87.4941,America/Chicago,,,251-446-7550,01,01053,01053970700,010539707001077,,,ceo,census
10762,,https://www.walgreens.com/locator/walgreens-2040+douglas+ave-brewton-al-36426/id=10762,Walgreens,open,2040 DOUGLAS AVE,Brewton,,Alabama,AL,36426,US,31.1391,-87.0682,America/Chicago,,,251-867-6838,01,01053,01053970100,010539701003007,,,ceo,census
10169,,https://www.walgreens.com/locator/walgreens-30957+mill+ln-daphne-al-36527/id=10169,Walgreens,open,30957 MILL LN,Daphne,,Alabama,AL,36527,US,30.6763,-87.8525,America/Chicago,,,251-625-4654,01,01003,01003010706,010030107062002,19300,380,ceo,census
12879,,https://www.walgreens.com/locator/walgreens-1772+s+alabama+ave-monroeville-al-36460/id=12879,Walgreens,open,1772 S ALABAMA AVE,Monroeville,,Alabama,AL,36460,US,31.5019,-87.3191,America/Chicago,,,251-743-4410,01,01099,01099075901,010990759013019,,,ceo,census
19255,,https://www.walgreens.com/locator/walgreens-6530+spanish+fort+blvd-spanish fort-al-36527/id=19255,Walgreens,open,6530 SPANISH FORT BLVD,Spanish Fort,,Alabama,AL,36527,US,30.6676,-87.9105,America/Chicago,,,251-626-0015,01,01003,01003010707,010030107071006,19300,380,ceo,census
5757,,https://www.walgreens.com/locator/walgreens-3909+highway+90-pace-fl-32571/id=5757,Walgreens,open,3909 HIGHWAY 90,Pace,,Florida,FL,32571,US,30.599,-87.1606,America/Chicago,,,850-994-1363,12,12113,12113010705,121130107052005,37860,,ceo,census
19324,,https://www.walgreens.com/locator/walgreens-21951+state+highway+59+s-robertsdale-al-36567/id=19324,Walgreens,open,21951 STATE HIGHWAY 59 S,Robertsdale,,Alabama,AL,36567,US,30.5452,-87.7097,America/Chicago,,,251-947-5777,01,01003,01003010908,010030109082067,19300,380,ceo,census
10181,,https://www.walgreens.com/locator/walgreens-2237+w+nine+mile+rd-pensacola-fl-32534/id=10181,Walgreens,open,2237 W NINE MILE RD,Pensacola,,Florida,FL,32534,US,30.5336,-87.3143,America/Chicago,,,850-473-0286,12,12033,12033003400,120330034001009,37860,,ceo,census
1222,,https://www.walgreens.com/locator/walgreens-20+w+nine+mile+rd-pensacola-fl-32534/id=1222,Walgreens,open,20 W NINE MILE RD,Pensacola,,Florida,FL,32534,US,30.5338,-87.2746,America/Chicago,,,850-479-2354,12,12033,12033003609,120330036092011,37860,,ceo,census
7962,,https://www.walgreens.com/locator/walgreens-12+shelton+beach+rd-saraland-al-36571/id=7962,Walgreens,open,12 SHELTON BEACH RD,Saraland,,Alabama,AL,36571,US,30.8245,-88.0714,America/Chicago,,,251-675-1091,01,01097,01097005500,010970055002022,33660,380,ceo,census
5606,,https://www.walgreens.com/locator/walgreens-3025+us+highway+98-daphne-al-36526/id=5606,Walgreens,open,3025 US HIGHWAY 98,Daphne,,Alabama,AL,36526,US,30.6188,-87.9063,America/Chicago,,,251-621-7266,01,01003,01003010800,010030108002012,19300,380,ceo,census
12300,,https://www.walgreens.com/locator/walgreens-6506+caroline+st-milton-fl-32570/id=12300,Walgreens,open,6506 CAROLINE ST,Milton,,Florida,FL,32570,US,30.6176,-87.0521,America/Chicago,,,850-810-3002,12,12113,12113010602,121130106021025,37860,,ceo,census
13072,,https://www.walgreens.com/locator/walgreens-8333+n+davis+hwy-pensacola-fl-32514/id=13072,Walgreens,open,8333 N DAVIS HWY,Pensacola,,Florida,FL,32514,US,30.5148,-87.2186,America/Chicago,,,850-494-2432,12,12033,12033003507,120330035072024,37860,,ceo,census
9916,,https://www.walgreens.com/locator/walgreens-1841+e+olive+rd-pensacola-fl-32514/id=9916,Walgreens,open,1841 E OLIVE RD,Pensacola,,Florida,FL,32514,US,30.5101,-87.2219,America/Chicago,,,850-478-5241,12,12033,12033003510,120330035101000,37860,,ceo,census
9917,,https://www.walgreens.com/locator/walgreens-5995+mobile+hwy-pensacola-fl-32526/id=9917,Walgreens,open,5995 MOBILE HWY,Pensacola,,Florida,FL,32526,US,30.4607,-87.3015,America/Chicago,,,850-454-0254,12,12033,12033003313,120330033131001,37860,,ceo,census
5581,,https://www.walgreens.com/locator/walgreens-6314+n+9th+ave-pensacola-fl-32504/id=5581,Walgreens,open,6314 N 9TH AVE,Pensacola,,Florida,FL,32504,US,30.4884,-87.1963,America/Chicago,,,850-479-2544,12,12033,12033001101,120330011012011,37860,,ceo,census
10312,,https://www.walgreens.com/locator/walgreens-85+beverly+pkwy-pensacola-fl-32505/id=10312,Walgreens,open,85 BEVERLY PKWY,Pensacola,,Florida,FL,32505,US,30.4659,-87.2432,America/Chicago,,,850-432-2841,12,12033,12033001700,120330017002020,37860,,ceo,census
6507,,https://www.walgreens.com/locator/walgreens-1320+government+st-mobile-al-36604/id=6507,Walgreens,open,1320 GOVERNMENT ST,Mobile,,Alabama,AL,36604,US,30.6824,-88.0677,America/Chicago,,,251-432-0445,01,01097,01097000902,010970009021012,33660,380,ceo,census
12333,,https://www.walgreens.com/locator/walgreens-4544+saint+stephens+rd-prichard-al-36613/id=12333,Walgreens,open,4544 SAINT STEPHENS RD,Prichard,,Alabama,AL,36613,US,30.7649,-88.1278,America/Chicago,,,251-330-1631,01,01097,01097006103,010970061031018,33660,380,ceo,census
21392,,https://www.walgreens.com/locator/walgreens-1731+spring+hill+ave-mobile-al-36604/id=21392,Walgreens Specialty Pharmacy,open,1731 SPRING HILL AVE,Mobile,,Alabama,AL,36604,US,30.6914,-88.0806,America/Chicago,,,251-694-6059,01,01097,01097000901,010970009011028,33660,380,ceo,census
15480,,https://www.walgreens.com/locator/walgreens-1731+spring+hill+ave-mobile-al-36604/id=15480,Walgreens,open,1731 SPRING HILL AVE,Mobile,,Alabama,AL,36604,US,30.6916,-88.0807,America/Chicago,,,251-431-9858,01,01097,01097000901,010970009011028,33660,380,ceo,census
6084,,https://www.walgreens.com/locator/walgreens-2+greeno+rd+s-fairhope-al-36532/id=6084,Walgreens,open,2 GREENO RD S,Fairhope,,Alabama,AL,36532,US,30.5232,-87.8868,America/Chicago,,,251-928-6558,01,01003,01003011202,010030112023000,19300,380,ceo,fcc
7609,,https://www.walgreens.com/locator/walgreens-2050+government+st-mobile-al-36606/id=7609,Walgreens,open,2050 GOVERNMENT ST,Mobile,,Alabama,AL,36606,US,30.6759,-88.0887,America/Chicago,,,251-476-1825,01,01097,01097002501,010970025012032,33660,380,ceo,census
1042,,https://www.walgreens.com/locator/walgreens-4497+mobile+hwy-pensacola-fl-32506/id=1042,Walgreens,open,4497 MOBILE HWY,Pensacola,,Florida,FL,32506,US,30.4336,-87.2761,America/Chicago,,,850-453-4848,12,12033,12033002900,120330029002000,37860,,ceo,census
17115,,https://www.walgreens.com/locator/walgreens-3151+dauphin+st-mobile-al-36606/id=17115,Walgreens,open,3151 DAUPHIN ST,Mobile,,Alabama,AL,36606,US,30.6892,-88.1183,America/Chicago,,,251-287-9581,01,01097,01097002800,010970028005002,33660,380,ceo,census
7344,,https://www.walgreens.com/locator/walgreens-700+n+pace+blvd-pensacola-fl-32505/id=7344,Walgreens,open,700 N PACE BLVD,Pensacola,,Florida,FL,32505,US,30.4203,-87.2408,America/Chicago,,,850-432-3307,12,12033,12033000400,120330004001036,37860,,ceo,census
1318,,https://www.walgreens.com/locator/walgreens-698+s+mckenzie+st-foley-al-36535/id=1318,Walgreens,open,698 S MCKENZIE ST,Foley,,Alabama,AL,36535,US,30.3999,-87.6841,America/Chicago,,,251-971-6258,01,01003,01003011503,010030115032053,19300,380,ceo,fcc
17197,,https://www.walgreens.com/locator/walgreens-2912+dauphin+island+pkwy-mobile-al-36605/id=17197,Walgreens,open,2912 DAUPHIN ISLAND PKWY,Mobile,,Alabama,AL,36605,US,30.612,-88.0748,America/Chicago,,,251-406-8327,01,01097,01097007400,010970074003017,33660,380,ceo,census
5659,,https://www.walgreens.com/locator/walgreens-870+e+cervantes+st-pensacola-fl-32501/id=5659,Walgreens,open,870 E CERVANTES ST,Pensacola,,Florida,FL,32501,US,30.4234,-87.2077,America/Chicago,,,850-434-5561,12,12033,12033000801,120330008012014,37860,,ceo,census
17273,,https://www.walgreens.com/locator/walgreens-1351+n+university+blvd-mobile-al-36618/id=17273,Walgreens,open,1351 N UNIVERSITY BLVD,Mobile,,Alabama,AL,36618,US,30.7185,-88.1644,America/Chicago,,,251-288-6182,01,01097,01097003408,010970034082007,33660,380,ceo,census
1777,,https://www.walgreens.com/locator/walgreens-3948+airport+blvd-mobile-al-36608/id=1777,Walgreens,open,3948 AIRPORT BLVD,Mobile,,Alabama,AL,36608,US,30.6764,-88.148,America/Chicago,,,251-345-3394,01,01097,01097003301,010970033011018,33660,380,ceo,census
21266,,https://www.walgreens.com/locator/walgreens-6395+airport+blvd+ste+a-mobile-al-36608/id=21266,Walgreens,open,6395 AIRPORT BLVD STE A,Mobile,,Alabama,AL,36608,US,30.6775,-88.1901,America/Chicago,,,251-288-6077,01,01097,01097003704,010970037043005,33660,380,ceo,census
10851,,https://www.walgreens.com/locator/walgreens-6395+airport+blvd-mobile-al-36608/id=10851,Walgreens,open,6395 AIRPORT BLVD,Mobile,,Alabama,AL,36608,US,30.6775,-88.1902,America/Chicago,,,251-342-0153,01,01097,01097003704,010970037043005,33660,380,ceo,census
5151,,https://www.walgreens.com/locator/walgreens-5705+cottage+hill+rd-mobile-al-36609/id=5151,Walgreens,open,5705 COTTAGE HILL RD,Mobile,,Alabama,AL,36609,US,30.6432,-88.1744,America/Chicago,,,251-661-7763,01,01097,01097003712,010970037121000,33660,380,ceo,census
13159,,https://www.walgreens.com/locator/walgreens-9179+moffett+rd-semmes-al-36575/id=13159,Walgreens,open,9179 MOFFETT RD,Semmes,,Alabama,AL,36575,US,30.778,-88.259,America/Chicago,,,251-645-2416,01,01097,01097006305,010970063051036,33660,380,ceo,census
6639,,https://www.walgreens.com/locator/walgreens-370+schillinger+rd+s-mobile-al-36695/id=6639,Walgreens,open,370 SCHILLINGER RD S,Mobile,,Alabama,AL,36695,US,30.6823,-88.2259,America/Chicago,,,251-776-6347,01,01097,01097006409,010970064093001,33660,380,ceo,census
19608,,https://www.walgreens.com/locator/walgreens-1017+river+falls+st-andalusia-al-36420/id=19608,Walgreens,open,1017 RIVER FALLS ST,Andalusia,,Alabama,AL,36420,US,31.3174,-86.4983,America/Chicago,,,334-222-9414,01,01039,01039962100,010399621002007,,,ceo,census
19052,,https://www.walgreens.com/locator/walgreens-509+florala+hwy-opp-al-36467/id=19052,Walgreens,open,509 FLORALA HWY,Opp,,Alabama,AL,36467,US,31.2796,-86.2488,America/Chicago,,,334-493-6563,01,01039,01039962700,010399627002001,,,ceo,fcc
11468,,https://www.walgreens.com/locator/walgreens-101+greenville+byp-greenville-al-36037/id=11468,Walgreens,open,101 GREENVILLE BYP,Greenville,,Alabama,AL,36037,US,31.8485,-86.6402,America/Chicago,,,334-382-1414,01,01013,01013952700,010139527001049,,,ceo,fcc
9256,,https://www.walgreens.com/locator/walgreens-900+rucker+blvd-enterprise-al-36330/id=9256,Walgreens,open,900 RUCKER BLVD,Enterprise,,Alabama,AL,36330,US,31.3226,-85.8303,America/Chicago,,,334-393-1348,01,01031,01031011206,010310112062007,21460,222,ceo,census
6811,,https://www.walgreens.com/locator/walgreens-2350+s+ferdon+blvd-crestview-fl-32536/id=6811,Walgreens,open,2350 S FERDON BLVD,Crestview,,Florida,FL,32536,US,30.7369,-86.5659,America/Chicago,,,850-689-0447,12,12091,12091020601,120910206013032,18880,,ceo,census
11098,,https://www.walgreens.com/locator/walgreens-100+elba+hwy-troy-al-36079/id=11098,Walgreens,open,100 ELBA HWY,Troy,,Alabama,AL,36079,US,31.7844,-85.964,America/Chicago,,,334-808-4282,01,01109,01109189002,011091890021011,45980,,ceo,census
9914,,https://www.walgreens.com/locator/walgreens-1103+us+highway+331+s-defuniak springs-fl-32435/id=9914,Walgreens,open,1103 US HIGHWAY 331 S,Defuniak Springs,,Florida,FL,32435,US,30.7068,-86.1219,America/Chicago,,,850-951-9880,12,12131,12131950303,121319503032012,18880,,ceo,census
10981,,https://www.walgreens.com/locator/walgreens-101+us+highway+31+n-athens-al-35611/id=10981,Walgreens,open,101 US HIGHWAY 31 N,Athens,,Alabama,AL,35611,US,34.8033,-86.9524,America/Chicago,,,256-230-2799,01,01083,01083020900,010830209001008,26620,290,ceo,census
13793,,https://www.walgreens.com/locator/walgreens-12010+county+line+rd-madison-al-35756/id=13793,Walgreens,open,12010 COUNTY LINE RD,Madison,,Alabama,AL,35756,US,34.7287,-86.7869,America/Chicago,,,256-230-6345,01,01083,01083021201,010830212012000,26620,290,ceo,census
2363,,https://www.walgreens.com/locator/walgreens-7813+highway+72+w-madison-al-35758/id=2363,Walgreens,open,7813 HIGHWAY 72 W,Madison,,Alabama,AL,35758,US,34.7531,-86.7413,America/Chicago,,,256-895-9326,01,01089,01089011023,010890110232000,26620,290,ceo,census
19809,,https://www.walgreens.com/locator/walgreens-298+hughes+rd-madison-al-35758/id=19809,Walgreens,open,298 HUGHES RD,Madison,,Alabama,AL,35758,US,34.7064,-86.7427,America/Chicago,,,256-464-3962,01,01089,01089011027,010890110272010,26620,290,ceo,census
15501,,https://www.walgreens.com/locator/walgreens-1086+jeff+rd+nw-huntsville-al-35806/id=15501,Walgreens,open,1086 JEFF RD NW,Huntsville,,Alabama,AL,35806,US,34.787,-86.7148,America/Chicago,,,256-721-2751,01,01089,01089010623,010890106233013,26620,290,ceo,census
9976,,https://www.walgreens.com/locator/walgreens-1127+6th+ave+se-decatur-al-35601/id=9976,Walgreens,open,1127 6TH AVE SE,Decatur,,Alabama,AL,35601,US,34.5899,-86.9809,America/Chicago,,,256-355-4495,01,01103,01103000400,011030004002026,19460,290,ceo,census
2589,,https://www.walgreens.com/locator/walgreens-1718+beltline+rd+sw-decatur-al-35601/id=2589,Walgreens,open,1718 BELTLINE RD SW,Decatur,,Alabama,AL,35601,US,34.5716,-87.0135,America/Chicago,,,256-584-6626,01,01103,01103000900,011030009002019,19460,290,ceo,fcc
17363,,https://www.walgreens.com/locator/walgreens-8000+madison+blvd-madison-al-35758/id=17363,Walgreens,open,8000 MADISON BLVD,Madison,,Alabama,AL,35758,US,34.6918,-86.7175,America/Chicago,,,256-461-6903,01,01089,01089011028,010890110282007,26620,290,ceo,census
6431,,https://www.walgreens.com/locator/walgreens-3997+university+dr+nw-huntsville-al-35816/id=6431,Walgreens,open,3997 UNIVERSITY DR NW,Huntsville,,Alabama,AL,35816,US,34.7347,-86.6262,America/Chicago,,,256-534-2785,01,01089,01089001500,010890015001020,26620,290,ceo,census
6956,,https://www.walgreens.com/locator/walgreens-3500+mastin+lake+rd+nw-huntsville-al-35810/id=6956,Walgreens,open,3500 MASTIN LAKE RD NW,Huntsville,,Alabama,AL,35810,US,34.7719,-86.6162,America/Chicago,,,256-851-4188,01,01089,01089000302,010890003022010,26620,290,ceo,census
6430,,https://www.walgreens.com/locator/walgreens-2100+brandon+st+sw-huntsville-al-35801/id=6430,Walgreens,open,2100 BRANDON ST SW,Huntsville,,Alabama,AL,35801,US,34.7185,-86.5788,America/Chicago,,,256-512-0957,01,01089,01089001901,010890019011017,26620,290,ceo,census
19190,,https://www.walgreens.com/locator/walgreens-4906+whitesburg+dr+sw-huntsville-al-35802/id=19190,Walgreens,open,4906 WHITESBURG DR SW,Huntsville,,Alabama,AL,35802,US,34.6919,-86.5688,America/Chicago,,,256-883-0325,01,01089,01089002600,010890026001029,26620,290,ceo,census
17268,,https://www.walgreens.com/locator/walgreens-14731+highway+231+431+n-hazel green-al-35750/id=17268,Walgreens,open,14731 HIGHWAY 231 431 N,Hazel Green,,Alabama,AL,35750,US,34.9478,-86.5723,America/Chicago,,,256-829-6032,01,01089,01089010303,010890103031000,26620,290,ceo,census
10966,,https://www.walgreens.com/locator/walgreens-201+highway+31+nw-hartselle-al-35640/id=10966,Walgreens,open,201 HIGHWAY 31 NW,Hartselle,,Alabama,AL,35640,US,34.443,-86.9431,America/Chicago,,,256-773-4377,01,01103,01103005302,011030053021039,19460,290,ceo,census
10850,,https://www.walgreens.com/locator/walgreens-11399+memorial+pkwy+se-huntsville-al-35803/id=10850,Walgreens,open,11399 MEMORIAL PKWY SE,Huntsville,,Alabama,AL,35803,US,34.6308,-86.566,America/Chicago,,,256-885-2212,01,01089,01089002911,010890029112011,26620,290,ceo,census
6979,,https://www.walgreens.com/locator/walgreens-2784+carl+t+jones+dr+se-huntsville-al-35802/id=6979,Walgreens,open,2784 CARL T JONES DR SE,Huntsville,,Alabama,AL,35802,US,34.6726,-86.5402,America/Chicago,,,256-882-2883,01,01089,01089001902,010890019021024,26620,290,ceo,census
17256,,https://www.walgreens.com/locator/walgreens-2139+winchester+rd+ne-huntsville-al-35811/id=17256,Walgreens,open,2139 WINCHESTER RD NE,Huntsville,,Alabama,AL,35811,US,34.8176,-86.4942,America/Chicago,,,256-852-3776,01,01089,01089010706,010890107063002,26620,290,ceo,census
9266,,https://www.walgreens.com/locator/walgreens-620+w+college+st-pulaski-tn-38478/id=9266,Walgreens,open,620 W COLLEGE ST,Pulaski,,Tennessee,TN,38478,US,35.1994,-87.0386,America/Chicago,,,931-424-5335,47,47055,47055920200,470559202003046,,,ceo,census
15545,,https://www.walgreens.com/locator/walgreens-274+sutton+rd+se-owens cross roads-al-35763/id=15545,Walgreens,open,274 SUTTON RD SE,Owens Cross Roads,,Alabama,AL,35763,US,34.6594,-86.4892,America/Chicago,,,256-533-8982,01,01089,01089010903,010890109033000,26620,290,ceo,census
9314,,https://www.walgreens.com/locator/walgreens-1000+huntsville+hwy-fayetteville-tn-37334/id=9314,Walgreens,open,1000 HUNTSVILLE HWY,Fayetteville,,Tennessee,TN,37334,US,35.1433,-86.57,America/Chicago,,,931-433-5569,47,47103,47103975400,471039754002049,22190,290,ceo,census
9444,,https://www.walgreens.com/locator/walgreens-312+e+gaines+st-lawrenceburg-tn-38464/id=9444,Walgreens,open,312 E GAINES ST,Lawrenceburg,,Tennessee,TN,38464,US,35.2412,-87.33,America/Chicago,,,931-762-6840,47,47099,47099960401,470999604013021,29980,400,ceo,census
10628,,https://www.walgreens.com/locator/walgreens-2602+florence+blvd-florence-al-35630/id=10628,Walgreens,open,2602 FLORENCE BLVD,Florence,,Alabama,AL,35630,US,34.8284,-87.6324,America/Chicago,,,256-764-0436,01,01077,01077010800,010770108002001,22520,250,ceo,census
2557,,https://www.walgreens.com/locator/walgreens-1801+woodward+ave-muscle shoals-al-35661/id=2557,Walgreens,open,1801 WOODWARD AVE,Muscle Shoals,,Alabama,AL,35661,US,34.7442,-87.6672,America/Chicago,,,256-383-0896,01,01033,01033020704,010330207042005,22520,250,ceo,census
10109,,https://www.walgreens.com/locator/walgreens-109+e+dr+hicks+blvd-florence-al-35630/id=10109,Walgreens,open,109 E DR HICKS BLVD,Florence,,Alabama,AL,35630,US,34.7983,-87.6735,America/Chicago,,,256-718-0457,01,01077,01077010100,010770101001137,22520,250,ceo,census
15205,,https://www.walgreens.com/locator/walgreens-444+2nd+ave+nw-cullman-al-35055/id=15205,Walgreens,open,444 2ND AVE NW,Cullman,,Alabama,AL,35055,US,34.1811,-86.847,America/Chicago,,,256-736-9901,01,01043,01043964800,010439648002038,18980,142,ceo,fcc
11180,,https://www.walgreens.com/locator/walgreens-1700+2nd+ave+sw-cullman-al-35055/id=11180,Walgreens,open,1700 2ND AVE SW,Cullman,,Alabama,AL,35055,US,34.1588,-86.8341,America/Chicago,,,256-734-7188,01,01043,01043965001,010439650011039,18980,142,ceo,census
9510,,https://www.walgreens.com/locator/walgreens-758+n+ellington+pkwy-lewisburg-tn-37091/id=9510,Walgreens,open,758 N ELLINGTON PKWY,Lewisburg,,Tennessee,TN,37091,US,35.4611,-86.7818,America/Chicago,,,931-359-6204,47,47117,47117955200,471179552001014,30280,400,ceo,census
12911,,https://www.walgreens.com/locator/walgreens-1400+gunter+ave-guntersville-al-35976/id=12911,Walgreens,open,1400 GUNTER AVE,Guntersville,,Alabama,AL,35976,US,34.346,-86.3042,America/Chicago,,,256-582-2513,01,01095,01095030602,010950306021015,10700,290,ceo,census
19256,,https://www.walgreens.com/locator/walgreens-2499+us+highway+431-anniston-al-36206/id=19256,Walgreens,open,2499 US HIGHWAY 431,Anniston,,Alabama,AL,36206,US,33.7164,-85.8556,America/Chicago,,,256-820-6901,01,01015,01015001700,010150017002024,11500,,ceo,fcc
12098,,https://www.walgreens.com/locator/walgreens-311+pelham+rd+s-jacksonville-al-36265/id=12098,Walgreens,open,311 PELHAM RD S,Jacksonville,,Alabama,AL,36265,US,33.8162,-85.7611,America/Chicago,,,256-782-1502,01,01015,01015002104,010150021042004,11500,,ceo,census
7716,,https://www.walgreens.com/locator/walgreens-3434+rainbow+dr-rainbow city-al-35906/id=7716,Walgreens,open,3434 RAINBOW DR,Rainbow City,,Alabama,AL,35906,US,33.9549,-86.0408,America/Chicago,,,256-413-1767,01,01055,01055010401,010550104014018,23460,,ceo,census
7717,,https://www.walgreens.com/locator/walgreens-107+e+meighan+blvd-gadsden-al-35903/id=7717,Walgreens,open,107 E MEIGHAN BLVD,Gadsden,,Alabama,AL,35903,US,34.0105,-85.9916,America/Chicago,,,256-547-4719,01,01055,01055001300,010550013001014,23460,,ceo,census
11685,,https://www.walgreens.com/locator/walgreens-201+pacific+ave-bremen-ga-30110/id=11685,Walgreens,open,201 PACIFIC AVE,Bremen,,Georgia,GA,30110,US,33.72,-85.1459,America/New_York,,,770-824-5077,13,13143,13143010402,131430104023006,12060,122,ceo,census
10965,,https://www.walgreens.com/locator/walgreens-920+us+highway+431-boaz-al-35957/id=10965,Walgreens,open,920 US HIGHWAY 431,Boaz,,Alabama,AL,35957,US,34.1998,-86.1503,America/Chicago,,,256-593-6092,01,01095,01095031200,010950312003019,10700,290,ceo,census
17083,,https://www.walgreens.com/locator/walgreens-633+n+main+st-cedartown-ga-30125/id=17083,Walgreens,open,633 N MAIN ST,Cedartown,,Georgia,GA,30125,US,34.0238,-85.2512,America/New_York,,,770-748-5030,13,13233,13233010201,132330102013022,16340,122,ceo,census
7820,,https://www.walgreens.com/locator/walgreens-794+s+park+st-carrollton-ga-30117/id=7820,Walgreens,open,794 S PARK ST,Carrollton,,Georgia,GA,30117,US,33.5695,-85.0777,America/New_York,,,770-838-1678,13,13045,13045911101,130459111014019,12060,122,ceo,census
11279,,https://www.walgreens.com/locator/walgreens-7155+us+highway+431-albertville-al-35950/id=11279,Walgreens,open,7155 US HIGHWAY 431,Albertville,,Alabama,AL,35950,US,34.2751,-86.2041,America/Chicago,,,256-878-4447,01,01095,01095030801,010950308013022,10700,290,ceo,census
11704,,https://www.walgreens.com/locator/walgreens-5301+summerville+rd-phenix city-al-36867/id=11704,Walgreens,open,5301 SUMMERVILLE RD,Phenix City,,Alabama,AL,36867,US,32.5192,-85.0285,America/Chicago,,,334-297-3061,01,01081,01081042002,010810420022024,12220,194,ceo,census
6483,,https://www.walgreens.com/locator/walgreens-2515+crawford+rd-phenix city-al-36867/id=6483,Walgreens,open,2515 CRAWFORD RD,Phenix City,,Alabama,AL,36867,US,32.4746,-85.0292,America/Chicago,,,334-297-3722,01,01113,01113030602,011130306021006,17980,194,ceo,census
6373,,https://www.walgreens.com/locator/walgreens-5707+veterans+pkwy-columbus-ga-31904/id=6373,Walgreens,open,5707 VETERANS PKWY,Columbus,,Georgia,GA,31904,US,32.5259,-84.9624,America/New_York,,,706-322-6253,13,13215,13215000200,132150002001001,17980,194,ceo,census
12754,,https://www.walgreens.com/locator/walgreens-7869+veterans+pkwy-columbus-ga-31909/id=12754,Walgreens,open,7869 VETERANS PKWY,Columbus,,Georgia,GA,31909,US,32.5627,-84.938,America/New_York,,,706-571-9312,13,13215,13215010209,132150102091000,17980,194,ceo,census
6326,,https://www.walgreens.com/locator/walgreens-3700+macon+rd-columbus-ga-31907/id=6326,Walgreens,open,3700 MACON RD,Columbus,,Georgia,GA,31907,US,32.4885,-84.9315,America/New_York,,,706-568-6878,13,13215,13215002100,132150021002008,17980,194,ceo,census
18178,,https://www.walgreens.com/locator/walgreens-6950+beaver+run+rd-midland-ga-31820/id=18178,Walgreens,open,6950 BEAVER RUN RD,Midland,,Georgia,GA,31820,US,32.538,-84.8692,America/New_York,,,706-563-9967,13,13215,13215010109,132150101091014,17980,194,ceo,fcc
9622,,https://www.walgreens.com/locator/walgreens-115+vernon+st-lagrange-ga-30240/id=9622,Walgreens,open,115 VERNON ST,Lagrange,,Georgia,GA,30240,US,33.0383,-85.0334,America/New_York,,,706-812-9852,13,13285,13285960600,132859606004005,29300,122,ceo,census
10523,,https://www.walgreens.com/locator/walgreens-1613+glenn+blvd+sw-fort payne-al-35968/id=10523,Walgreens,open,1613 GLENN BLVD SW,Fort Payne,,Alabama,AL,35968,US,34.4383,-85.755,America/Chicago,,,256-845-0128,01,01049,01049961100,010499611003063,22840,290,ceo,census
6210,,https://www.walgreens.com/locator/walgreens-1459+tiger+park+ln-gulf breeze-fl-32563/id=6210,Walgreens,open,1459 TIGER PARK LN,Gulf Breeze,,Florida,FL,32563,US,30.3898,-87.0629,America/Chicago,,,850-916-1955,12,12113,12113010814,121130108142013,37860,,ceo,census
9535,,https://www.walgreens.com/locator/walgreens-8220+navarre+pkwy-navarre-fl-32566/id=9535,Walgreens,open,8220 NAVARRE PKWY,Navarre,,Florida,FL,32566,US,30.4022,-86.8792,America/Chicago,,,850-936-4302,12,12113,12113010825,121130108251029,37860,,ceo,census
10524,,https://www.walgreens.com/locator/walgreens-1111+highland+ave-selma-al-36703/id=10524,Walgreens,open,1111 HIGHLAND AVE,Selma,,Alabama,AL,36703,US,32.4319,-87.0232,America/Chicago,,,334-875-4916,01,01047,01047956400,010479564001011,42820,388,ceo,census
6085,,https://www.walgreens.com/locator/walgreens-5530+three+notch+rd-mobile-al-36619/id=6085,Walgreens,open,5530 THREE NOTCH RD,Mobile,,Alabama,AL,36619,US,30.5899,-88.1706,America/Chicago,,,251-666-0249,01,01097,01097006802,010970068022013,33660,380,ceo,census
5176,,https://www.walgreens.com/locator/walgreens-2490+schillinger+rd+s-mobile-al-36695/id=5176,Walgreens,open,2490 SCHILLINGER RD S,Mobile,,Alabama,AL,36695,US,30.6404,-88.2253,America/Chicago,,,251-633-2704,01,01097,01097006408,010970064081009,33660,380,ceo,census
18994,,https://www.walgreens.com/locator/walgreens-2420+dawes+rd-mobile-al-36695/id=18994,Walgreens,open,2420 DAWES RD,Mobile,,Alabama,AL,36695,US,30.6403,-88.2485,America/Chicago,,,251-633-0110,01,01097,01097006409,010970064092014,33660,380,ceo,census
19191,,https://www.walgreens.com/locator/walgreens-9948+airport+blvd-mobile-al-36608/id=19191,Walgreens,open,9948 AIRPORT BLVD,Mobile,,Alabama,AL,36608,US,30.6723,-88.2768,America/Chicago,,,251-633-5100,01,01097,01097006407,010970064071037,33660,380,ceo,census
1230,,https://www.walgreens.com/locator/walgreens-1421+gulf+shores+pkwy-gulf shores-al-36542/id=1230,Walgreens,open,1421 GULF SHORES PKWY,Gulf Shores,,Alabama,AL,36542,US,30.2639,-87.6892,America/Chicago,,,251-968-5946,01,01003,01003011416,010030114161000,19300,380,ceo,census
10168,,https://www.walgreens.com/locator/walgreens-12550+us+highway+90-grand bay-al-36541/id=10168,Walgreens,open,12550 US HIGHWAY 90,Grand Bay,,Alabama,AL,36541,US,30.4785,-88.3399,America/Chicago,,,251-865-1429,01,01097,01097006600,010970066001013,33660,380,ceo,census
17739,,https://www.walgreens.com/locator/walgreens-25801+perdido+beach+blvd-orange beach-al-36561/id=17739,Walgreens,open,25801 PERDIDO BEACH BLVD,Orange Beach,,Alabama,AL,36561,US,30.2703,-87.5855,America/Chicago,,,251-981-7019,01,01003,01003011418,010030114182002,19300,380,ceo,census
5653,,https://www.walgreens.com/locator/walgreens-3800+market+st-pascagoula-ms-39567/id=5653,Walgreens,open,3800 MARKET ST,Pascagoula,,Mississippi,MS,39567,US,30.3713,-88.5481,America/Chicago,,,228-202-8215,28,28059,28059042900,280590429003000,25060,,ceo,census
10360,,https://www.walgreens.com/locator/walgreens-2601+highway+90-gautier-ms-39553/id=10360,Walgreens,open,2601 HIGHWAY 90,Gautier,,Mississippi,MS,39553,US,30.391,-88.6521,America/Chicago,,,228-497-8110,28,28059,28059040801,280590408011029,25060,,ceo,census
10871,,https://www.walgreens.com/locator/walgreens-800+wayne+rd-savannah-tn-38372/id=10871,Walgreens,open,800 WAYNE RD,Savannah,,Tennessee,TN,38372,US,35.227,-88.2328,America/Chicago,,,731-926-1195,47,47071,47071920402,470719204021015,,,ceo,census
1913,,https://www.walgreens.com/locator/walgreens-2026+highway+72+e-corinth-ms-38834/id=1913,Walgreens,open,2026 HIGHWAY 72 E,Corinth,,Mississippi,MS,38834,US,34.9138,-88.5023,America/Chicago,,,662-287-4066,28,28003,28003950501,280039505012004,18420,539,ceo,census
19668,,https://www.walgreens.com/locator/walgreens-130+s+eufaula+ave-eufaula-al-36027/id=19668,Walgreens,open,130 S EUFAULA AVE,Eufaula,,Alabama,AL,36027,US,31.8918,-85.1463,America/Chicago,,,334-687-7144,01,01005,01005950700,010059507002008,21640,,ceo,census
13111,,https://www.walgreens.com/locator/walgreens-3574+montgomery+hwy-dothan-al-36303/id=13111,Walgreens,open,3574 MONTGOMERY HWY,Dothan,,Alabama,AL,36303,US,31.2573,-85.4327,America/Chicago,,,334-671-3701,01,01069,01069040301,010690403012000,20020,222,ceo,census
7404,,https://www.walgreens.com/locator/walgreens-2041+e+main+st-dothan-al-36301/id=7404,Walgreens,open,2041 E MAIN ST,Dothan,,Alabama,AL,36301,US,31.2158,-85.3604,America/Chicago,,,334-712-6638,01,01069,01069041400,010690414002047,20020,222,ceo,census
7405,,https://www.walgreens.com/locator/walgreens-2940+w+main+st-dothan-al-36305/id=7405,Walgreens,open,2940 W MAIN ST,Dothan,,Alabama,AL,36305,US,31.2295,-85.4355,America/Chicago,,,334-677-6149,01,01069,01069040204,010690402043042,20020,222,ceo,census
19058,,https://www.walgreens.com/locator/walgreens-4030+w+main+st-dothan-al-36305/id=19058,Walgreens,open,4030 W MAIN ST,Dothan,,Alabama,AL,36305,US,31.2349,-85.4522,America/Chicago,,,334-792-2261,01,01069,01069040204,010690402043012,20020,222,ceo,census
17548,,https://www.walgreens.com/locator/walgreens-100+w+3rd+st-donalsonville-ga-39845/id=17548,Walgreens,open,100 W 3RD ST,Donalsonville,,Georgia,GA,39845,US,31.0409,-84.883,America/New_York,,,229-524-1126,13,13253,13253200200,132532002003056,,,ceo,census
7199,,https://www.walgreens.com/locator/walgreens-701+martha+berry+blvd+nw-rome-ga-30165/id=7199,Walgreens,open,701 MARTHA BERRY BLVD NW,Rome,,Georgia,GA,30165,US,34.2608,-85.1812,America/New_York,,,706-295-7787,13,13115,13115001100,131150011001042,40660,122,ceo,census
7567,,https://www.walgreens.com/locator/walgreens-1228+battlefield+pkwy-ft oglethorpe-ga-30742/id=7567,Walgreens,open,1228 BATTLEFIELD PKWY,Ft Oglethorpe,,Georgia,GA,30742,US,34.9516,-85.2443,America/New_York,,,706-861-7284,13,13047,13047030701,130470307013025,16860,174,ceo,census
17562,,https://www.walgreens.com/locator/walgreens-910+s+wall+st-calhoun-ga-30701/id=17562,Walgreens,open,910 S WALL ST,Calhoun,,Georgia,GA,30701,US,34.4855,-84.9432,America/New_York,,,706-602-8008,13,13129,13129970500,131299705002004,15660,122,ceo,census
12921,,https://www.walgreens.com/locator/walgreens-3625+battlefield+pkwy-ft oglethorpe-ga-30742/id=12921,Walgreens,open,3625 BATTLEFIELD PKWY,Ft Oglethorpe,,Georgia,GA,30742,US,34.9378,-85.2063,America/New_York,,,706-866-1839,13,13047,13047030402,130470304021020,16860,174,ceo,census
6143,,https://www.walgreens.com/locator/walgreens-3550+broad+st-chattanooga-tn-37409/id=6143,Walgreens,open,3550 BROAD ST,Chattanooga,,Tennessee,TN,37409,US,35.0135,-85.3261,America/New_York,,,423-634-7797,47,47065,47065001900,470650019002018,16860,174,ceo,census
17229,,https://www.walgreens.com/locator/walgreens-1101+red+bud+rd+ne-calhoun-ga-30701/id=17229,Walgreens,open,1101 RED BUD RD NE,Calhoun,,Georgia,GA,30701,US,34.5112,-84.9234,America/New_York,,,706-602-8900,13,13129,13129970400,131299704003019,15660,122,ceo,census
5954,,https://www.walgreens.com/locator/walgreens-1247+w+walnut+ave-dalton-ga-30720/id=5954,Walgreens,open,1247 W WALNUT AVE,Dalton,,Georgia,GA,30720,US,34.7586,-84.99,America/New_York,,,706-428-9003,13,13313,13313001400,133130014002000,19140,174,ceo,census
3537,,https://www.walgreens.com/locator/walgreens-5301+ringgold+rd-east ridge-tn-37412/id=3537,Walgreens,open,5301 RINGGOLD RD,East Ridge,,Tennessee,TN,37412,US,34.9959,-85.2348,America/New_York,,,423-892-9559,47,47065,47065011600,470650116001013,16860,174,ceo,census
10247,,https://www.walgreens.com/locator/walgreens-5075+alabama+hwy-ringgold-ga-30736/id=10247,Walgreens,open,5075 ALABAMA HWY,Ringgold,,Georgia,GA,30736,US,34.9162,-85.1229,America/New_York,,,706-965-2287,13,13047,13047030201,130470302011045,16860,174,ceo,census
3538,,https://www.walgreens.com/locator/walgreens-3605+brainerd+rd-chattanooga-tn-37411/id=3538,Walgreens,open,3605 BRAINERD RD,Chattanooga,,Tennessee,TN,37411,US,35.0247,-85.2457,America/New_York,,,423-622-7520,47,47065,47065002900,470650029001000,16860,174,ceo,census
7779,,https://www.walgreens.com/locator/walgreens-110+n+market+st-chattanooga-tn-37405/id=7779,Walgreens,open,110 N MARKET ST,Chattanooga,,Tennessee,TN,37405,US,35.0627,-85.3082,America/New_York,,,423-752-8104,47,47065,47065000600,470650006001028,16860,174,ceo,census
17271,,https://www.walgreens.com/locator/walgreens-140+felton+dr-rockmart-ga-30153/id=17271,Walgreens,open,140 FELTON DR,Rockmart,,Georgia,GA,30153,US,34.011,-85.0418,America/New_York,,,678-685-5181,13,13233,13233010700,132330107003023,16340,122,ceo,fcc
17232,,https://www.walgreens.com/locator/walgreens-1320+cleveland+hwy-dalton-ga-30721/id=17232,Walgreens,open,1320 CLEVELAND HWY,Dalton,,Georgia,GA,30721,US,34.7975,-84.9615,America/New_York,,,706-272-9346,13,13313,13313000401,133130004014033,19140,174,ceo,fcc
18039,,https://www.walgreens.com/locator/walgreens-3082+bienville+blvd-ocean springs-ms-39564/id=18039,Walgreens,open,3082 BIENVILLE BLVD,Ocean Springs,,Mississippi,MS,39564,US,30.4123,-88.7843,America/Chicago,,,228-872-2646,28,28059,28059040702,280590407022011,25060,,ceo,census
10909,,https://www.walgreens.com/locator/walgreens-12007+lamey+bridge+rd-diberville-ms-39540/id=10909,Walgreens,open,12007 LAMEY BRIDGE RD,Diberville,,Mississippi,MS,39540,US,30.4575,-88.8923,America/Chicago,,,228-392-2388,28,28047,28047003307,280470033071003,25060,,ceo,census
4172,,https://www.walgreens.com/locator/walgreens-2405+pass+rd-biloxi-ms-39531/id=4172,Walgreens,open,2405 PASS RD,Biloxi,,Mississippi,MS,39531,US,30.401,-88.9768,America/Chicago,,,228-388-3458,28,28047,28047001207,280470012071004,25060,,ceo,census
15484,,https://www.walgreens.com/locator/walgreens-1417+e+pass+rd-gulfport-ms-39507/id=15484,Walgreens,open,1417 E PASS RD,Gulfport,,Mississippi,MS,39507,US,30.3983,-89.0262,America/Chicago,,,228-896-3870,28,28047,28047001503,280470015032002,25060,,ceo,census
5195,,https://www.walgreens.com/locator/walgreens-15371+dedeaux+rd-gulfport-ms-39503/id=5195,Walgreens,open,15371 DEDEAUX RD,Gulfport,,Mississippi,MS,39503,US,30.4492,-89.0985,America/Chicago,,,228-539-9890,28,28047,28047003211,280470032112020,25060,,ceo,census
17031,,https://www.walgreens.com/locator/walgreens-11279+highway+49-gulfport-ms-39503/id=17031,Walgreens,open,11279 HIGHWAY 49,Gulfport,,Mississippi,MS,39503,US,30.4499,-89.1001,America/Chicago,,,228-832-6280,28,28047,28047003213,280470032132016,25060,,ceo,fcc
21286,,https://www.walgreens.com/locator/walgreens-4500+old+pass+rd-gulfport-ms-39501/id=21286,Walgreens,open,4500 OLD PASS RD,Gulfport,,Mississippi,MS,39501,US,30.3687,-89.1152,America/Chicago,,,228-351-9061,28,28047,28047002600,280470026001006,25060,,ceo,census
9545,,https://www.walgreens.com/locator/walgreens-120+w+railroad+st-long beach-ms-39560/id=9545,Walgreens,open,120 W RAILROAD ST,Long Beach,,Mississippi,MS,39560,US,30.3509,-89.1524,America/Chicago,,,228-575-4057,28,28047,28047002702,280470027023029,25060,,ceo,census
9295,,https://www.walgreens.com/locator/walgreens-1855+decherd+blvd-decherd-tn-37324/id=9295,Walgreens,open,1855 DECHERD BLVD,Decherd,,Tennessee,TN,37324,US,35.2055,-86.0942,America/Chicago,,,931-967-4938,47,47051,47051960401,470519604011102,49010,400,ceo,census
6340,,https://www.walgreens.com/locator/walgreens-700+n+jackson+st-tullahoma-tn-37388/id=6340,Walgreens,open,700 N JACKSON ST,Tullahoma,,Tennessee,TN,37388,US,35.3679,-86.2164,America/Chicago,,,931-455-6778,47,47031,47031970801,470319708012032,46100,400,ceo,census
9945,,https://www.walgreens.com/locator/walgreens-826+n+main+st-shelbyville-tn-37160/id=9945,Walgreens,open,826 N MAIN ST,Shelbyville,,Tennessee,TN,37160,US,35.4957,-86.458,America/Chicago,,,931-680-4725,47,47003,47003950500,470039505004002,43180,400,ceo,census
9208,,https://www.walgreens.com/locator/walgreens-806+mcarthur+st-manchester-tn-37355/id=9208,Walgreens,open,806 MCARTHUR ST,Manchester,,Tennessee,TN,37355,US,35.476,-86.082,America/Chicago,,,931-728-0874,47,47031,47031970402,470319704022017,46100,400,ceo,census
11491,,https://www.walgreens.com/locator/walgreens-684+w+bankhead+hwy-villa rica-ga-30180/id=11491,Walgreens,open,684 W BANKHEAD HWY,Villa Rica,,Georgia,GA,30180,US,33.7301,-84.9384,America/New_York,,,770-459-9344,13,13045,13045910101,130459101013025,12060,122,ceo,census
11115,,https://www.walgreens.com/locator/walgreens-33495+highway+43-thomasville-al-36784/id=11115,Walgreens,open,33495 HIGHWAY 43,Thomasville,,Alabama,AL,36784,US,31.9286,-87.7391,America/Chicago,,,334-636-8420,01,01025,01025957603,010259576032034,,,ceo,census
19700,,https://www.walgreens.com/locator/walgreens-100+south+hwy+#+29-hogansville-ga-30230/id=19700,Walgreens,open,100 SOUTH HWY # 29,Hogansville,,Georgia,GA,30230,US,33.1727,-84.9153,America/New_York,,,706-637-6461,13,13285,13285960101,132859601011040,29300,122,ceo,fcc
19828,,https://www.walgreens.com/locator/walgreens-305+w+main+st-manchester-ga-31816/id=19828,Walgreens,open,305 W MAIN ST,Manchester,,Georgia,GA,31816,US,32.8533,-84.6178,America/New_York,,,706-846-8647,13,13199,13199970502,131999705023020,12060,122,ceo,census
11490,,https://www.walgreens.com/locator/walgreens-634+n+church+st-thomaston-ga-30286/id=11490,Walgreens,open,634 N CHURCH ST,Thomaston,,Georgia,GA,30286,US,32.9024,-84.3289,America/New_York,,,706-647-4000,13,13293,13293010500,132930105002022,45580,122,ceo,census
15362,,https://www.walgreens.com/locator/walgreens-12051+old+glenn+hwy-eagle river-ak-99577/id=15362,Walgreens,open,12051 OLD GLENN HWY,Eagle River,,Alaska,AK,99577,US,61.3291,-149.5672,America/Anchorage,,,907-696-4000,02,02020,02020000202,020200002022008,11260,,ceo,census
13656,,https://www.walgreens.com/locator/walgreens-725+e+northern+lights+blvd-anchorage-ak-99503/id=13656,Walgreens,open,725 E NORTHERN LIGHTS BLVD,Anchorage,,Alaska,AK,99503,US,61.1959,-149.8686,America/Anchorage,,,907-644-8400,02,02020,02020001401,020200014013000,11260,,ceo,census
15653,,https://www.walgreens.com/locator/walgreens-4353+lake+otis+pkwy-anchorage-ak-99508/id=15653,Walgreens,open,4353 LAKE OTIS PKWY,Anchorage,,Alaska,AK,99508,US,61.1812,-149.8376,America/Anchorage,,,907-561-2005,02,02020,02020001802,020200018021003,11260,,ceo,census
15092,,https://www.walgreens.com/locator/walgreens-1470+w+northern+lights+blvd-anchorage-ak-99503/id=15092,Walgreens,open,1470 W NORTHERN LIGHTS BLVD,Anchorage,,Alaska,AK,99503,US,61.1945,-149.9127,America/Anchorage,,,907-770-2503,02,02020,02020002000,020200020001003,11260,,ceo,census
15654,,https://www.walgreens.com/locator/walgreens-2550+e+88th+ave-anchorage-ak-99507/id=15654,Walgreens,open,2550 E 88TH AVE,Anchorage,,Alaska,AK,99507,US,61.1406,-149.8348,America/Anchorage,,,907-349-9292,02,02020,02020002601,020200026013034,11260,,ceo,census
12680,,https://www.walgreens.com/locator/walgreens-2197+w+dimond+blvd-anchorage-ak-99515/id=12680,Walgreens,open,2197 W DIMOND BLVD,Anchorage,,Alaska,AK,99515,US,61.138,-149.9195,America/Anchorage,,,907-339-9600,02,02020,02020002305,020200023051007,11260,,ceo,census
12681,,https://www.walgreens.com/locator/walgreens-1721+e+parks+hwy-wasilla-ak-99654/id=12681,Walgreens,open,1721 E PARKS HWY,Wasilla,,Alaska,AK,99654,US,61.5772,-149.4072,America/Anchorage,,,907-631-0300,02,02170,02170000800,021700008003037,11260,,ceo,census
13449,,https://www.walgreens.com/locator/walgreens-12405+brandon+st-anchorage-ak-99515/id=13449,Walgreens,open,12405 BRANDON ST,Anchorage,,Alaska,AK,99515,US,61.1083,-149.8552,America/Anchorage,,,907-646-4023,02,02020,02020002713,020200027131011,11260,,ceo,census
15944,,https://www.walgreens.com/locator/walgreens-530+old+steese+hwy-fairbanks-ak-99701/id=15944,Walgreens,open,530 OLD STEESE HWY,Fairbanks,,Alaska,AK,99701,US,64.8505,-147.6976,America/Anchorage,,,907-457-9301,02,02090,02090001300,020900013003051,21820,,ceo,census
16059,,https://www.walgreens.com/locator/walgreens-44001+sterling+hwy-soldotna-ak-99669/id=16059,Walgreens,open,44001 STERLING HWY,Soldotna,,Alaska,AK,99669,US,60.4861,-151.0569,America/Anchorage,,,907-260-6372,02,02122,02122000500,021220005003006,,,ceo,fcc
4188,,https://www.walgreens.com/locator/walgreens-55+w+apache+trl-apache junction-az-85120/id=4188,Walgreens,open,55 W APACHE TRL,Apache Junction,,Arizona,AZ,85120,US,33.4125,-111.547,America/Phoenix,,,480-288-1271,04,04021,04021000312,040210003123000,38060,429,ceo,census
6333,,https://www.walgreens.com/locator/walgreens-2440+s+ironwood+dr-apache junction-az-85120/id=6333,Walgreens,open,2440 S IRONWOOD DR,Apache Junction,,Arizona,AZ,85120,US,33.3928,-111.564,America/Phoenix,,,480-288-0428,04,04021,04021000317,040210003171002,38060,429,ceo,census
2963,,https://www.walgreens.com/locator/walgreens-11545+e+apache+trl-apache junction-az-85120/id=2963,Walgreens,open,11545 E APACHE TRL,Apache Junction,,Arizona,AZ,85120,US,33.4146,-111.5813,America/Phoenix,,,480-986-1387,04,04013,04013422629,040134226291000,38060,429,ceo,census
12335,,https://www.walgreens.com/locator/walgreens-10825+e+baseline+rd-mesa-az-85209/id=12335,Walgreens,open,10825 E BASELINE RD,Mesa,,Arizona,AZ,85209,US,33.3784,-111.6008,America/Phoenix,,,480-455-6311,04,04013,04013422652,040134226522017,38060,429,ceo,fcc
5701,,https://www.walgreens.com/locator/walgreens-1158+s+crismon+rd-mesa-az-85208/id=5701,Walgreens,open,1158 S CRISMON RD,Mesa,,Arizona,AZ,85208,US,33.3939,-111.6161,America/Phoenix,,,480-358-9642,04,04013,04013422660,040134226601020,38060,429,ceo,census
7558,,https://www.walgreens.com/locator/walgreens-9233+e+guadalupe+rd-mesa-az-85212/id=7558,Walgreens,open,9233 E GUADALUPE RD,Mesa,,Arizona,AZ,85212,US,33.3641,-111.6352,America/Phoenix,,,480-986-2905,04,04013,04013422643,040134226434007,38060,429,ceo,census
5392,,https://www.walgreens.com/locator/walgreens-420+s+sossaman+rd-mesa-az-85208/id=5392,Walgreens,open,420 S SOSSAMAN RD,Mesa,,Arizona,AZ,85208,US,33.4073,-111.668,America/Phoenix,,,480-325-4777,04,04013,04013422609,040134226091000,38060,429,ceo,census
6440,,https://www.walgreens.com/locator/walgreens-6951+s+kings+ranch+rd-gold canyon-az-85118/id=6440,Walgreens,open,6951 S KINGS RANCH RD,Gold Canyon,,Arizona,AZ,85118,US,33.3518,-111.4572,America/Phoenix,,,480-288-7208,04,04021,04021000201,040210002011044,38060,429,ceo,census
3728,,https://www.walgreens.com/locator/walgreens-7059+e+baseline+rd-mesa-az-85209/id=3728,Walgreens,open,7059 E BASELINE RD,Mesa,,Arizona,AZ,85209,US,33.3787,-111.6815,America/Phoenix,,,480-830-1554,04,04013,04013422617,040134226172000,38060,429,ceo,census
3215,,https://www.walgreens.com/locator/walgreens-1935+n+power+rd-mesa-az-85205/id=3215,Walgreens,open,1935 N POWER RD,Mesa,,Arizona,AZ,85205,US,33.451,-111.683,America/Phoenix,,,480-985-3658,04,04013,04013420105,040134201051010,38060,429,ceo,census
7828,,https://www.walgreens.com/locator/walgreens-6002+e+main+st-mesa-az-85205/id=7828,Walgreens,open,6002 E MAIN ST,Mesa,,Arizona,AZ,85205,US,33.4162,-111.7011,America/Phoenix,,,480-985-0155,04,04013,04013420214,040134202143028,38060,429,ceo,census
6026,,https://www.walgreens.com/locator/walgreens-3624+n+power+rd-mesa-az-85215/id=6026,Walgreens,open,3624 N POWER RD,Mesa,,Arizona,AZ,85215,US,33.4814,-111.6848,America/Phoenix,,,480-924-3797,04,04013,04013420207,040134202072000,38060,429,ceo,census
5799,,https://www.walgreens.com/locator/walgreens-754+n+higley+rd-gilbert-az-85234/id=5799,Walgreens,open,754 N HIGLEY RD,Gilbert,,Arizona,AZ,85234,US,33.3644,-111.7223,America/Phoenix,,,480-558-5127,04,04013,04013422656,040134226562000,38060,429,ceo,census
4435,,https://www.walgreens.com/locator/walgreens-4420+e+brown+rd-mesa-az-85205/id=4435,Walgreens,open,4420 E BROWN RD,Mesa,,Arizona,AZ,85205,US,33.4378,-111.7357,America/Phoenix,,,480-396-8193,04,04013,04013420215,040134202151034,38060,429,ceo,census
2771,,https://www.walgreens.com/locator/walgreens-1305+s+greenfield+rd-mesa-az-85206/id=2771,Walgreens,open,1305 S GREENFIELD RD,Mesa,,Arizona,AZ,85206,US,33.3919,-111.7359,America/Phoenix,,,480-830-9266,04,04013,04013422636,040134226361012,38060,429,ceo,fcc
9460,,https://www.walgreens.com/locator/walgreens-40663+n+gantzel+rd-san tan valley-az-85140/id=9460,Walgreens,open,40663 N GANTZEL RD,San Tan Valley,,Arizona,AZ,85140,US,33.2484,-111.5626,America/Phoenix,,,480-214-1680,04,04021,04021000219,040210002193000,38060,429,ceo,census
11116,,https://www.walgreens.com/locator/walgreens-21212+e+ocotillo+rd-queen creek-az-85142/id=11116,Walgreens,open,21212 E OCOTILLO RD,Queen Creek,,Arizona,AZ,85142,US,33.2493,-111.6256,America/Phoenix,,,480-214-9044,04,04013,04013817102,040138171021002,38060,429,ceo,census
6880,,https://www.walgreens.com/locator/walgreens-2431+s+higley+rd-gilbert-az-85295/id=6880,Walgreens,open,2431 S HIGLEY RD,Gilbert,,Arizona,AZ,85295,US,33.3065,-111.7205,America/Phoenix,,,480-988-4326,04,04013,04013815602,040138156023008,38060,429,ceo,census
3184,,https://www.walgreens.com/locator/walgreens-1585+e+guadalupe+rd-gilbert-az-85234/id=3184,Walgreens,open,1585 E GUADALUPE RD,Gilbert,,Arizona,AZ,85234,US,33.3643,-111.7565,America/Phoenix,,,480-892-8510,04,04013,04013422509,040134225092000,38060,429,ceo,census
3591,,https://www.walgreens.com/locator/walgreens-2811+e+broadway+rd-mesa-az-85204/id=3591,Walgreens,open,2811 E BROADWAY RD,Mesa,,Arizona,AZ,85204,US,33.4076,-111.7704,America/Phoenix,,,480-830-8752,04,04013,04013422501,040134225012002,38060,429,ceo,census
6692,,https://www.walgreens.com/locator/walgreens-4766+e+queen+creek+rd-gilbert-az-85297/id=6692,Walgreens,open,4766 E QUEEN CREEK RD,Gilbert,,Arizona,AZ,85297,US,33.267,-111.6868,America/Phoenix,,,480-988-1908,04,04013,04013816200,040138162001001,38060,429,ceo,census
3767,,https://www.walgreens.com/locator/walgreens-2737+e+mckellips+rd-mesa-az-85213/id=3767,Walgreens,open,2737 E MCKELLIPS RD,Mesa,,Arizona,AZ,85213,US,33.4512,-111.7714,America/Phoenix,,,480-835-0970,04,04013,04013420603,040134206031000,38060,429,ceo,census
4543,,https://www.walgreens.com/locator/walgreens-805+s+val+vista+dr-gilbert-az-85296/id=4543,Walgreens,open,805 S VAL VISTA DR,Gilbert,,Arizona,AZ,85296,US,33.335,-111.7549,America/Phoenix,,,480-892-6039,04,04013,04013814600,040138146001007,38060,429,ceo,census
4018,,https://www.walgreens.com/locator/walgreens-2345+e+baseline+rd-gilbert-az-85234/id=4018,Walgreens,open,2345 E BASELINE RD,Gilbert,,Arizona,AZ,85234,US,33.379,-111.7818,America/Phoenix,,,480-892-4978,04,04013,04013422508,040134225081005,38060,429,ceo,census
7747,,https://www.walgreens.com/locator/walgreens-3233+e+germann+rd-gilbert-az-85297/id=7747,Walgreens,open,3233 E GERMANN RD,Gilbert,,Arizona,AZ,85297,US,33.2772,-111.7197,America/Phoenix,,,480-214-1027,04,04013,04013816001,040138160012020,38060,429,ceo,census
6062,,https://www.walgreens.com/locator/walgreens-76+w+guadalupe+rd-gilbert-az-85233/id=6062,Walgreens,open,76 W GUADALUPE RD,Gilbert,,Arizona,AZ,85233,US,33.365,-111.7916,America/Phoenix,,,480-813-5785,04,04013,04013422308,040134223081006,38060,429,ceo,census
5215,,https://www.walgreens.com/locator/walgreens-2363+s+lindsay+rd-gilbert-az-85295/id=5215,Walgreens,open,2363 S LINDSAY RD,Gilbert,,Arizona,AZ,85295,US,33.3074,-111.7721,America/Phoenix,,,480-857-1801,04,04013,04013815000,040138150001012,38060,429,ceo,census
3670,,https://www.walgreens.com/locator/walgreens-1159+e+southern+ave-mesa-az-85204/id=3670,Walgreens,open,1159 E SOUTHERN AVE,Mesa,,Arizona,AZ,85204,US,33.3928,-111.8066,America/Phoenix,,,480-507-8709,04,04013,04013422301,040134223012000,38060,429,ceo,census
3008,,https://www.walgreens.com/locator/walgreens-785+s+cooper+rd-gilbert-az-85233/id=3008,Walgreens,open,785 S COOPER RD,Gilbert,,Arizona,AZ,85233,US,33.336,-111.8062,America/Phoenix,,,480-497-5434,04,04013,04013422403,040134224031025,38060,429,ceo,census
6177,,https://www.walgreens.com/locator/walgreens-1135+n+mesa+dr-mesa-az-85201/id=6177,Walgreens,open,1135 N MESA DR,Mesa,,Arizona,AZ,85201,US,33.4363,-111.8221,America/Phoenix,,,480-898-8025,04,04013,04013420901,040134209012004,38060,429,ceo,census
9840,,https://www.walgreens.com/locator/walgreens-3111+w+hunt+hwy-san tan valley-az-85144/id=9840,Walgreens,open,3111 W HUNT HWY,San Tan Valley,,Arizona,AZ,85144,US,33.1902,-111.6,America/Phoenix,,,480-214-2561,04,04021,04021000222,040210002224000,38060,429,ceo,census
21450,,https://www.walgreens.com/locator/walgreens-4750+s+val+vista+dr-gilbert-az-85297/id=21450,Walgreens,open,4750 S VAL VISTA DR,Gilbert,,Arizona,AZ,85297,US,33.2638,-111.7563,America/Phoenix,,,480-212-0830,04,04013,04013815901,040138159012019,38060,429,ceo,census
10260,,https://www.walgreens.com/locator/walgreens-3230+e+chandler+heights+rd-gilbert-az-85298/id=10260,Walgreens,open,3230 E CHANDLER HEIGHTS RD,Gilbert,,Arizona,AZ,85298,US,33.2345,-111.7197,America/Phoenix,,,480-214-4894,04,04013,04013816401,040138164011019,38060,429,ceo,census
3726,,https://www.walgreens.com/locator/walgreens-1985+e+chandler+blvd-chandler-az-85225/id=3726,Walgreens,open,1985 E CHANDLER BLVD,Chandler,,Arizona,AZ,85225,US,33.3054,-111.8077,America/Phoenix,,,480-899-8050,04,04013,04013811600,040138116003000,38060,429,ceo,census
6060,,https://www.walgreens.com/locator/walgreens-16415+e+palisades+blvd-fountain hills-az-85268/id=6060,Walgreens,open,16415 E PALISADES BLVD,Fountain Hills,,Arizona,AZ,85268,US,33.61,-111.7264,America/Phoenix,,,480-837-6748,04,04013,04013216857,040132168572005,38060,429,ceo,census
5039,,https://www.walgreens.com/locator/walgreens-746+w+university+dr-mesa-az-85201/id=5039,Walgreens,open,746 W UNIVERSITY DR,Mesa,,Arizona,AZ,85201,US,33.4228,-111.8478,America/Phoenix,,,480-668-6350,04,04013,04013421102,040134211022009,38060,429,ceo,census
1076,,https://www.walgreens.com/locator/walgreens-333+e+hunt+hwy-san tan valley-az-85143/id=1076,Walgreens,open,333 E HUNT HWY,San Tan Valley,,Arizona,AZ,85143,US,33.1613,-111.564,America/Phoenix,,,480-987-6293,04,04021,04021000229,040210002291021,38060,429,ceo,census
11182,,https://www.walgreens.com/locator/walgreens-1130+w+southern+ave-mesa-az-85210/id=11182,Walgreens,open,1130 W SOUTHERN AVE,Mesa,,Arizona,AZ,85210,US,33.3935,-111.8558,America/Phoenix,,,480-461-1193,04,04013,04013422105,040134221052012,38060,429,ceo,census
9202,,https://www.walgreens.com/locator/walgreens-1142+w+guadalupe+rd-mesa-az-85210/id=9202,Walgreens,open,1142 W GUADALUPE RD,Mesa,,Arizona,AZ,85210,US,33.3648,-111.8583,America/Phoenix,,,480-345-7367,04,04013,04013422216,040134222162008,38060,429,ceo,census
6784,,https://www.walgreens.com/locator/walgreens-2024+w+main+st-mesa-az-85201/id=6784,Walgreens,open,2024 W MAIN ST,Mesa,,Arizona,AZ,85201,US,33.4153,-111.8753,America/Phoenix,,,480-214-0374,04,04013,04013421303,040134213031015,38060,429,ceo,census
4077,,https://www.walgreens.com/locator/walgreens-3005+e+riggs+rd-chandler-az-85249/id=4077,Walgreens,open,3005 E RIGGS RD,Chandler,,Arizona,AZ,85249,US,33.2185,-111.7885,America/Phoenix,,,480-214-1402,04,04013,04013814000,040138140001000,38060,429,ceo,fcc
3727,,https://www.walgreens.com/locator/walgreens-1919+n+dobson+rd-chandler-az-85224/id=3727,Walgreens,open,1919 N DOBSON RD,Chandler,,Arizona,AZ,85224,US,33.3345,-111.8757,America/Phoenix,,,480-899-6713,04,04013,04013523005,040135230052006,38060,429,ceo,census
7723,,https://www.walgreens.com/locator/walgreens-975+e+ocotillo+rd-chandler-az-85249/id=7723,Walgreens,open,975 E OCOTILLO RD,Chandler,,Arizona,AZ,85249,US,33.2472,-111.8248,America/Phoenix,,,480-214-1367,04,04013,04013813100,040138131001001,38060,429,ceo,census
4793,,https://www.walgreens.com/locator/walgreens-1975+s+alma+school+rd-chandler-az-85286/id=4793,Walgreens,open,1975 S ALMA SCHOOL RD,Chandler,,Arizona,AZ,85286,US,33.2771,-111.8579,America/Phoenix,,,480-722-1780,04,04013,04013812000,040138120003002,38060,429,ceo,census
2056,,https://www.walgreens.com/locator/walgreens-1925+w+chandler+blvd-chandler-az-85224/id=2056,Walgreens,open,1925 W CHANDLER BLVD,Chandler,,Arizona,AZ,85224,US,33.3055,-111.8749,America/Phoenix,,,480-963-2705,04,04013,04013523103,040135231031001,38060,429,ceo,census
5890,,https://www.walgreens.com/locator/walgreens-11250+e+via+linda-scottsdale-az-85259/id=5890,Walgreens,open,11250 E VIA LINDA,Scottsdale,,Arizona,AZ,85259,US,33.59,-111.8362,America/Phoenix,,,480-661-9963,04,04013,04013216837,040132168372015,38060,429,ceo,census
1197,,https://www.walgreens.com/locator/walgreens-1745+e+southern+ave-tempe-az-85282/id=1197,Walgreens,open,1745 E SOUTHERN AVE,Tempe,,Arizona,AZ,85282,US,33.3922,-111.9097,America/Phoenix,,,480-838-3642,04,04013,04013319401,040133194013000,38060,429,ceo,census
4138,,https://www.walgreens.com/locator/walgreens-7939+e+mcdowell+rd-scottsdale-az-85257/id=4138,Walgreens,open,7939 E MCDOWELL RD,Scottsdale,,Arizona,AZ,85257,US,33.4652,-111.9102,America/Phoenix,,,480-874-9830,04,04013,04013218200,040132182001000,38060,429,ceo,census
1950,,https://www.walgreens.com/locator/walgreens-10135+e+via+linda-scottsdale-az-85258/id=1950,Walgreens,open,10135 E VIA LINDA,Scottsdale,,Arizona,AZ,85258,US,33.5735,-111.8625,America/Phoenix,,,480-391-3769,04,04013,04013216833,040132168331002,38060,429,ceo,census
3768,,https://www.walgreens.com/locator/walgreens-6404+s+mcclintock+dr-tempe-az-85283/id=3768,Walgreens,open,6404 S MCCLINTOCK DR,Tempe,,Arizona,AZ,85283,US,33.3634,-111.9119,America/Phoenix,,,480-838-9200,04,04013,04013319905,040133199052000,38060,429,ceo,census
5776,,https://www.walgreens.com/locator/walgreens-1451+n+dysart+rd-avondale-az-85323/id=5776,Walgreens,open,1451 N DYSART RD,Avondale,,Arizona,AZ,85323,US,33.4504,-112.3404,America/Phoenix,,,623-925-0280,04,04013,04013061200,040130612005007,38060,429,ceo,census
2243,,https://www.walgreens.com/locator/walgreens-387+n+estrella+pkwy-goodyear-az-85338/id=2243,Walgreens,open,387 N ESTRELLA PKWY,Goodyear,,Arizona,AZ,85338,US,33.4506,-112.3918,America/Phoenix,,,623-215-1046,04,04013,04013061053,040130610531001,38060,429,ceo,census
12334,,https://www.walgreens.com/locator/walgreens-1654+n+pebble+creek+pkwy-goodyear-az-85395/id=12334,Walgreens,open,1654 N PEBBLE CREEK PKWY,Goodyear,,Arizona,AZ,85395,US,33.4653,-112.3932,America/Phoenix,,,623-207-6808,04,04013,04013061054,040130610541017,38060,429,ceo,census
3657,,https://www.walgreens.com/locator/walgreens-3361+n+litchfield+rd-goodyear-az-85395/id=3657,Walgreens,open,3361 N LITCHFIELD RD,Goodyear,,Arizona,AZ,85395,US,33.4852,-112.3618,America/Phoenix,,,623-935-1314,04,04013,04013061020,040130610203000,38060,429,ceo,census
7387,,https://www.walgreens.com/locator/walgreens-10710+w+mcdowell+rd-avondale-az-85392/id=7387,Walgreens,open,10710 W MCDOWELL RD,Avondale,,Arizona,AZ,85392,US,33.4651,-112.2906,America/Phoenix,,,623-936-7234,04,04013,04013082023,040130820232013,38060,429,ceo,census
7582,,https://www.walgreens.com/locator/walgreens-13014+w+camelback+rd-litchfield park-az-85340/id=7582,Walgreens,open,13014 W CAMELBACK RD,Litchfield Park,,Arizona,AZ,85340,US,33.5085,-112.3392,America/Phoenix,,,623-935-0528,04,04013,04013061011,040130610113027,38060,429,ceo,census
3387,,https://www.walgreens.com/locator/walgreens-10705+w+indian+school+rd-avondale-az-85392/id=3387,Walgreens,open,10705 W INDIAN SCHOOL RD,Avondale,,Arizona,AZ,85392,US,33.493,-112.2909,America/Phoenix,,,623-877-3245,04,04013,04013082019,040130820191000,38060,429,ceo,census
7663,,https://www.walgreens.com/locator/walgreens-8280+w+lower+buckeye+rd-phoenix-az-85043/id=7663,Walgreens,open,8280 W LOWER BUCKEYE RD,Phoenix,,Arizona,AZ,85043,US,33.4232,-112.2384,America/Phoenix,,,623-936-6388,04,04013,04013112510,040131125103010,38060,429,ceo,fcc
12386,,https://www.walgreens.com/locator/walgreens-9800+s+estrella+pkwy-goodyear-az-85338/id=12386,Walgreens,open,9800 S ESTRELLA PKWY,Goodyear,,Arizona,AZ,85338,US,33.3576,-112.4265,America/Phoenix,,,623-255-3649,04,04013,04013723307,040137233071004,38060,429,ceo,census
4909,,https://www.walgreens.com/locator/walgreens-2921+n+83rd+ave-phoenix-az-85033/id=4909,Walgreens,open,2921 N 83RD AVE,Phoenix,,Arizona,AZ,85033,US,33.4808,-112.2369,America/Phoenix,,,623-849-9300,04,04013,04013109702,040131097022011,38060,429,ceo,census
5668,,https://www.walgreens.com/locator/walgreens-8301+w+camelback+rd-phoenix-az-85037/id=5668,Walgreens,open,8301 W CAMELBACK RD,Phoenix,,Arizona,AZ,85037,US,33.5082,-112.2384,America/Phoenix,,,623-849-4278,04,04013,04013082008,040130820083005,38060,429,ceo,census
6872,,https://www.walgreens.com/locator/walgreens-2930+n+67th+ave-phoenix-az-85033/id=6872,Walgreens,open,2930 N 67TH AVE,Phoenix,,Arizona,AZ,85033,US,33.4814,-112.2039,America/Phoenix,,,623-849-6991,04,04013,04013109706,040131097061011,38060,429,ceo,census
5775,,https://www.walgreens.com/locator/walgreens-8309+w+glendale+ave-glendale-az-85305/id=5775,Walgreens,open,8309 W GLENDALE AVE,Glendale,,Arizona,AZ,85305,US,33.5371,-112.2384,America/Phoenix,,,623-772-5547,04,04013,04013092710,040130927101000,38060,429,ceo,census
6021,,https://www.walgreens.com/locator/walgreens-1620+n+59th+ave-phoenix-az-85035/id=6021,Walgreens,open,1620 N 59TH AVE,Phoenix,,Arizona,AZ,85035,US,33.4667,-112.1871,America/Phoenix,,,623-849-2092,04,04013,04013112502,040131125022013,38060,429,ceo,census
1969,,https://www.walgreens.com/locator/walgreens-6006+n+67th+ave-glendale-az-85301/id=1969,Walgreens,open,6006 N 67TH AVE,Glendale,,Arizona,AZ,85301,US,33.5243,-112.2049,America/Phoenix,,,623-939-7571,04,04013,04013092718,040130927182006,38060,429,ceo,census
5568,,https://www.walgreens.com/locator/walgreens-10707+w+peoria+ave-sun city-az-85351/id=5568,Walgreens,open,10707 W PEORIA AVE,Sun City,,Arizona,AZ,85351,US,33.5795,-112.2906,America/Phoenix,,,623-974-3603,04,04013,04013071702,040130717024000,38060,429,ceo,census
7026,,https://www.walgreens.com/locator/walgreens-12244+w+cactus+rd-el mirage-az-85335/id=7026,Walgreens,open,12244 W CACTUS RD,El Mirage,,Arizona,AZ,85335,US,33.5949,-112.3239,America/Phoenix,,,623-876-1620,04,04013,04013060903,040130609034008,38060,429,ceo,census
1272,,https://www.walgreens.com/locator/walgreens-5101+w+indian+school+rd-phoenix-az-85031/id=1272,Walgreens,open,5101 W INDIAN SCHOOL RD,Phoenix,,Arizona,AZ,85031,US,33.4945,-112.1695,America/Phoenix,,,623-247-1014,04,04013,04013109900,040131099004000,38060,429,ceo,census
9179,,https://www.walgreens.com/locator/walgreens-5115+w+baseline+rd-laveen-az-85339/id=9179,Walgreens,open,5115 W BASELINE RD,Laveen,,Arizona,AZ,85339,US,33.3769,-112.1691,America/Phoenix,,,602-283-1603,04,04013,04013116619,040131166191000,38060,429,ceo,census
5222,,https://www.walgreens.com/locator/walgreens-9040+w+peoria+ave-peoria-az-85345/id=5222,Walgreens,open,9040 W PEORIA AVE,Peoria,,Arizona,AZ,85345,US,33.5814,-112.2543,America/Phoenix,,,623-979-2180,04,04013,04013071912,040130719122002,38060,429,ceo,census
5937,,https://www.walgreens.com/locator/walgreens-4315+w+mcdowell+rd-phoenix-az-85035/id=5937,Walgreens,open,4315 W MCDOWELL RD,Phoenix,,Arizona,AZ,85035,US,33.4655,-112.153,America/Phoenix,,,602-352-0078,04,04013,04013112507,040131125071000,38060,429,ceo,census
9175,,https://www.walgreens.com/locator/walgreens-23477+w+yuma+rd-buckeye-az-85326/id=9175,Walgreens,open,23477 W YUMA RD,Buckeye,,Arizona,AZ,85326,US,33.4352,-112.5557,America/Phoenix,,,623-337-9161,04,04013,04013050614,040130506141000,38060,429,ceo,census
12087,,https://www.walgreens.com/locator/walgreens-13723+n+litchfield+rd-surprise-az-85379/id=12087,Walgreens,open,13723 N LITCHFIELD RD,Surprise,,Arizona,AZ,85379,US,33.6086,-112.3584,America/Phoenix,,,623-255-3208,04,04013,04013061039,040130610393004,38060,429,ceo,census
7933,,https://www.walgreens.com/locator/walgreens-15514+w+waddell+rd-surprise-az-85379/id=7933,Walgreens,open,15514 W WADDELL RD,Surprise,,Arizona,AZ,85379,US,33.6102,-112.3945,America/Phoenix,,,623-215-0544,04,04013,04013061032,040130610324010,38060,429,ceo,census
6065,,https://www.walgreens.com/locator/walgreens-9009+n+67th+ave-glendale-az-85302/id=6065,Walgreens,open,9009 N 67TH AVE,Glendale,,Arizona,AZ,85302,US,33.5677,-112.2023,America/Phoenix,,,623-931-5169,04,04013,04013092305,040130923052022,38060,429,ceo,census
10111,,https://www.walgreens.com/locator/walgreens-3434+w+southern+ave-phoenix-az-85041/id=10111,Walgreens,open,3434 W SOUTHERN AVE,Phoenix,,Arizona,AZ,85041,US,33.3926,-112.133,America/Phoenix,,,602-283-2071,04,04013,04013116607,040131166072014,38060,429,ceo,census
4228,,https://www.walgreens.com/locator/walgreens-5125+w+northern+ave-glendale-az-85301/id=4228,Walgreens,open,5125 W NORTHERN AVE,Glendale,,Arizona,AZ,85301,US,33.5525,-112.1695,America/Phoenix,,,623-842-1289,04,04013,04013092500,040130925001000,38060,429,ceo,census
5504,,https://www.walgreens.com/locator/walgreens-4249+w+glendale+ave-phoenix-az-85051/id=5504,Walgreens,open,4249 W GLENDALE AVE,Phoenix,,Arizona,AZ,85051,US,33.538,-112.1508,America/Phoenix,,,623-937-9231,04,04013,04013107001,040131070012001,38060,429,ceo,census
813,,https://www.walgreens.com/locator/walgreens-15442+n+99th+ave-sun city-az-85351/id=813,Walgreens,open,15442 N 99TH AVE,Sun City,,Arizona,AZ,85351,US,33.623,-112.2712,America/Phoenix,,,623-974-2526,04,04013,04013071504,040130715044000,38060,429,ceo,census
4020,,https://www.walgreens.com/locator/walgreens-5895+w+peoria+ave-glendale-az-85302/id=4020,Walgreens,open,5895 W PEORIA AVE,Glendale,,Arizona,AZ,85302,US,33.5814,-112.1855,America/Phoenix,,,623-934-9152,04,04013,04013092306,040130923063007,38060,429,ceo,census
11470,,https://www.walgreens.com/locator/walgreens-25073+w+southern+ave-buckeye-az-85326/id=11470,Walgreens,open,25073 W SOUTHERN AVE,Buckeye,,Arizona,AZ,85326,US,33.3914,-112.5902,America/Phoenix,,,623-215-1113,04,04013,04013050701,040130507011003,38060,429,ceo,census
3427,,https://www.walgreens.com/locator/walgreens-7448+w+thunderbird+rd-peoria-az-85381/id=3427,Walgreens,open,7448 W THUNDERBIRD RD,Peoria,,Arizona,AZ,85381,US,33.611,-112.2194,America/Phoenix,,,623-979-0558,04,04013,04013071513,040130715132017,38060,429,ceo,census
4620,,https://www.walgreens.com/locator/walgreens-15490+w+bell+rd-surprise-az-85374/id=4620,Walgreens,open,15490 W BELL RD,Surprise,,Arizona,AZ,85374,US,33.6392,-112.3934,America/Phoenix,,,623-546-0032,04,04013,04013040530,040130405302024,38060,429,ceo,census
6806,,https://www.walgreens.com/locator/walgreens-17088+w+bell+rd-surprise-az-85374/id=6806,Walgreens,open,17088 W BELL RD,Surprise,,Arizona,AZ,85374,US,33.6394,-112.4261,America/Phoenix,,,623-544-0667,04,04013,04013040527,040130405273013,38060,429,ceo,census
4791,,https://www.walgreens.com/locator/walgreens-14285+w+grand+ave-surprise-az-85374/id=4791,Walgreens,open,14285 W GRAND AVE,Surprise,,Arizona,AZ,85374,US,33.6533,-112.3702,America/Phoenix,,,623-975-3944,04,04013,04013040531,040130405311000,38060,429,ceo,census
6128,,https://www.walgreens.com/locator/walgreens-19003+n+r+h+johnson+blvd-sun city west-az-85375/id=6128,Walgreens,open,19003 N R H JOHNSON BLVD,Sun City West,,Arizona,AZ,85375,US,33.6577,-112.3504,America/Phoenix,,,623-584-3002,04,04013,04013040506,040130405061019,38060,429,ceo,census
4139,,https://www.walgreens.com/locator/walgreens-3450+w+dunlap+ave-phoenix-az-85051/id=4139,Walgreens,open,3450 W DUNLAP AVE,Phoenix,,Arizona,AZ,85051,US,33.568,-112.1336,America/Phoenix,,,602-973-0971,04,04013,04013104205,040131042054015,38060,429,ceo,census
3385,,https://www.walgreens.com/locator/walgreens-5421+w+thunderbird+rd-glendale-az-85306/id=3385,Walgreens,open,5421 W THUNDERBIRD RD,Glendale,,Arizona,AZ,85306,US,33.6104,-112.1764,America/Phoenix,,,602-547-9645,04,04013,04013104224,040131042243000,38060,429,ceo,census
6063,,https://www.walgreens.com/locator/walgreens-1825+w+bethany+home+rd-phoenix-az-85015/id=6063,Walgreens,open,1825 W BETHANY HOME RD,Phoenix,,Arizona,AZ,85015,US,33.5236,-112.0989,America/Phoenix,,,602-249-1285,04,04013,04013107404,040131074041000,38060,429,ceo,census
6736,,https://www.walgreens.com/locator/walgreens-4410+w+cactus+rd-glendale-az-85304/id=6736,Walgreens,open,4410 W CACTUS RD,Glendale,,Arizona,AZ,85304,US,33.5967,-112.1534,America/Phoenix,,,602-938-5087,04,04013,04013104219,040131042191022,38060,429,ceo,census
21213,,https://www.walgreens.com/locator/walgreens-5149+w+thunderbird+rd-glendale-az-85306/id=21213,Walgreens,open,5149 W THUNDERBIRD RD,Glendale,,Arizona,AZ,85306,US,33.6099,-112.1698,America/Phoenix,,,602-427-0919,04,04013,04013104224,040131042241000,38060,429,ceo,census
3048,,https://www.walgreens.com/locator/walgreens-9050+w+union+hills+dr-peoria-az-85382/id=3048,Walgreens,open,9050 W UNION HILLS DR,Peoria,,Arizona,AZ,85382,US,33.6532,-112.2544,America/Phoenix,,,623-566-1986,04,04013,04013615600,040136156001001,38060,429,ceo,census
16431,,https://www.walgreens.com/locator/walgreens-2302+n+central+ave-phoenix-az-85004/id=16431,Walgreens,open,2302 N CENTRAL AVE,Phoenix,,Arizona,AZ,85004,US,33.4736,-112.0742,America/Phoenix,,,602-313-2042,04,04013,04013111800,040131118003024,38060,429,ceo,census
3464,,https://www.walgreens.com/locator/walgreens-3402+n+central+ave-phoenix-az-85012/id=3464,Walgreens,open,3402 N CENTRAL AVE,Phoenix,,Arizona,AZ,85012,US,33.4879,-112.0745,America/Phoenix,,,602-265-4781,04,04013,04013110501,040131105011007,38060,429,ceo,census
5353,,https://www.walgreens.com/locator/walgreens-20266+n+lake+pleasant+rd-peoria-az-85382/id=5353,Walgreens,open,20266 N LAKE PLEASANT RD,Peoria,,Arizona,AZ,85382,US,33.6678,-112.2808,America/Phoenix,,,623-561-5422,04,04013,04013613500,040136135001000,38060,429,ceo,census
6400,,https://www.walgreens.com/locator/walgreens-8030+n+19th+ave-phoenix-az-85021/id=6400,Walgreens,open,8030 N 19TH AVE,Phoenix,,Arizona,AZ,85021,US,33.5539,-112.1003,America/Phoenix,,,602-995-1231,04,04013,04013105503,040131055032005,38060,429,ceo,census
5893,,https://www.walgreens.com/locator/walgreens-705+e+mcdowell+rd-phoenix-az-85006/id=5893,Walgreens,open,705 E MCDOWELL RD,Phoenix,,Arizona,AZ,85006,US,33.4652,-112.0644,America/Phoenix,,,602-258-4865,04,04013,04013113204,040131132042006,38060,429,ceo,census
6697,,https://www.walgreens.com/locator/walgreens-7606+s+7th+st-phoenix-az-85042/id=6697,Walgreens,open,7606 S 7TH ST,Phoenix,,Arizona,AZ,85042,US,33.3771,-112.0653,America/Phoenix,,,602-243-1525,04,04013,04013116736,040131167361000,38060,429,ceo,census
6527,,https://www.walgreens.com/locator/walgreens-710+e+camelback+rd-phoenix-az-85014/id=6527,Walgreens,open,710 E CAMELBACK RD,Phoenix,,Arizona,AZ,85014,US,33.5097,-112.0644,America/Phoenix,,,602-266-3715,04,04013,04013107601,040131076013023,38060,429,ceo,census
3003,,https://www.walgreens.com/locator/walgreens-6690+w+union+hills+dr-glendale-az-85308/id=3003,Walgreens,open,6690 W UNION HILLS DR,Glendale,,Arizona,AZ,85308,US,33.6538,-112.2025,America/Phoenix,,,623-561-5319,04,04013,04013615900,040136159001015,38060,429,ceo,census
7516,,https://www.walgreens.com/locator/walgreens-2411+w+anthem+way-anthem-az-85086/id=7516,Walgreens,open,2411 W ANTHEM WAY,Anthem,,Arizona,AZ,85086,US,33.8589,-112.1116,America/Phoenix,,,623-551-2465,04,04013,04013610400,040136104001001,38060,429,ceo,census
9472,,https://www.walgreens.com/locator/walgreens-2707+w+carefree+hwy-phoenix-az-85085/id=9472,Walgreens,open,2707 W CAREFREE HWY,Phoenix,,Arizona,AZ,85085,US,33.7977,-112.1188,America/Phoenix,,,623-215-0699,04,04013,04013611300,040136113005000,38060,429,ceo,census
7110,,https://www.walgreens.com/locator/walgreens-6640+w+happy+valley+rd-glendale-az-85310/id=7110,Walgreens,open,6640 W HAPPY VALLEY RD,Glendale,,Arizona,AZ,85310,US,33.7128,-112.2024,America/Phoenix,,,623-561-5947,04,04013,04013611400,040136114002014,38060,429,ceo,census
3912,,https://www.walgreens.com/locator/walgreens-29660+n+tatum+blvd-cave creek-az-85331/id=3912,Walgreens,open,29660 N TATUM BLVD,Cave Creek,,Arizona,AZ,85331,US,33.7548,-111.9904,America/Phoenix,,,480-473-0584,04,04013,04013612800,040136128001001,38060,429,ceo,census
5266,,https://www.walgreens.com/locator/walgreens-21632+n+35th+ave-glendale-az-85308/id=5266,Walgreens,open,21632 N 35TH AVE,Glendale,,Arizona,AZ,85308,US,33.6833,-112.1355,America/Phoenix,,,623-582-9566,04,04013,04013614400,040136144001008,38060,429,ceo,census
3766,,https://www.walgreens.com/locator/walgreens-34402+n+scottsdale+rd-scottsdale-az-85266/id=3766,Walgreens,open,34402 N SCOTTSDALE RD,Scottsdale,,Arizona,AZ,85266,US,33.7974,-111.9287,America/Phoenix,,,480-595-8019,04,04013,04013613100,040136131001000,38060,429,ceo,census
4434,,https://www.walgreens.com/locator/walgreens-22280+n+67th+ave-glendale-az-85310/id=4434,Walgreens,open,22280 N 67TH AVE,Glendale,,Arizona,AZ,85310,US,33.6842,-112.2035,America/Phoenix,,,623-572-8328,04,04013,04013614000,040136140001000,38060,429,ceo,census
10241,,https://www.walgreens.com/locator/walgreens-28516+n+el+mirage+rd-peoria-az-85383/id=10241,Walgreens,open,28516 N EL MIRAGE RD,Peoria,,Arizona,AZ,85383,US,33.7417,-112.3232,America/Phoenix,,,623-215-8104,04,04013,04013040536,040130405362012,38060,429,ceo,census
4742,,https://www.walgreens.com/locator/walgreens-8310+w+deer+valley+rd-peoria-az-85382/id=4742,Walgreens,open,8310 W DEER VALLEY RD,Peoria,,Arizona,AZ,85382,US,33.6821,-112.2385,America/Phoenix,,,623-362-1960,04,04013,04013613800,040136138001039,38060,429,ceo,census
4508,,https://www.walgreens.com/locator/walgreens-3431+w+union+hills+dr-phoenix-az-85027/id=4508,Walgreens,open,3431 W UNION HILLS DR,Phoenix,,Arizona,AZ,85027,US,33.6542,-112.1333,America/Phoenix,,,602-564-6641,04,04013,04013618400,040136184001002,38060,429,ceo,census
5851,,https://www.walgreens.com/locator/walgreens-5011+w+union+hills+dr-glendale-az-85308/id=5851,Walgreens,open,5011 W UNION HILLS DR,Glendale,,Arizona,AZ,85308,US,33.6539,-112.1682,America/Phoenix,,,602-896-0257,04,04013,04013618100,040136181002002,38060,429,ceo,census
9057,,https://www.walgreens.com/locator/walgreens-18433+n+19th+ave-phoenix-az-85023/id=9057,Walgreens,open,18433 N 19TH AVE,Phoenix,,Arizona,AZ,85023,US,33.6539,-112.0992,America/Phoenix,,,623-582-9894,04,04013,04013618700,040136187002005,38060,429,ceo,census
3132,,https://www.walgreens.com/locator/walgreens-2415+e+union+hills+dr-phoenix-az-85050/id=3132,Walgreens,open,2415 E UNION HILLS DR,Phoenix,,Arizona,AZ,85050,US,33.6545,-112.0302,America/Phoenix,,,602-867-0561,04,04013,04013619500,040136195001008,38060,429,ceo,census
3049,,https://www.walgreens.com/locator/walgreens-4965+w+bell+rd-glendale-az-85308/id=3049,Walgreens,open,4965 W BELL RD,Glendale,,Arizona,AZ,85308,US,33.6387,-112.1686,America/Phoenix,,,602-843-2305,04,04013,04013104225,040131042253002,38060,429,ceo,census
9261,,https://www.walgreens.com/locator/walgreens-4710+e+rose+garden+ln-phoenix-az-85050/id=9261,Walgreens,open,4710 E ROSE GARDEN LN,Phoenix,,Arizona,AZ,85050,US,33.6773,-111.9787,America/Phoenix,,,480-214-0969,04,04013,04013615002,040136150023004,38060,429,ceo,census
3477,,https://www.walgreens.com/locator/walgreens-204+e+bell+rd-phoenix-az-85022/id=3477,Walgreens,open,204 E BELL RD,Phoenix,,Arizona,AZ,85022,US,33.6407,-112.0715,America/Phoenix,,,602-375-0093,04,04013,04013618900,040136189001017,38060,429,ceo,census
4951,,https://www.walgreens.com/locator/walgreens-4006+e+bell+rd-phoenix-az-85032/id=4951,Walgreens,open,4006 E BELL RD,Phoenix,,Arizona,AZ,85032,US,33.6412,-111.9955,America/Phoenix,,,602-971-1312,04,04013,04013619800,040136198003016,38060,429,ceo,census
3593,,https://www.walgreens.com/locator/walgreens-2610+w+thunderbird+rd-phoenix-az-85023/id=3593,Walgreens,open,2610 W THUNDERBIRD RD,Phoenix,,Arizona,AZ,85023,US,33.6115,-112.1119,America/Phoenix,,,602-993-9900,04,04013,04013103609,040131036091009,38060,429,ceo,census
6534,,https://www.walgreens.com/locator/walgreens-20631+n+scottsdale+rd-scottsdale-az-85255/id=6534,Walgreens,open,20631 N SCOTTSDALE RD,Scottsdale,,Arizona,AZ,85255,US,33.6743,-111.9244,America/Phoenix,,,480-563-2370,04,04013,04013216842,040132168422017,38060,429,ceo,fcc
3602,,https://www.walgreens.com/locator/walgreens-8816+e+pinnacle+peak+rd-scottsdale-az-85255/id=3602,Walgreens,open,8816 E PINNACLE PEAK RD,Scottsdale,,Arizona,AZ,85255,US,33.6993,-111.8893,America/Phoenix,,,480-473-8965,04,04013,04013216851,040132168514023,38060,429,ceo,census
6599,,https://www.walgreens.com/locator/walgreens-13227+n+7th+st-phoenix-az-85022/id=6599,Walgreens,open,13227 N 7TH ST,Phoenix,,Arizona,AZ,85022,US,33.6064,-112.0644,America/Phoenix,,,602-439-4089,04,04013,04013103702,040131037023000,38060,429,ceo,census
6729,,https://www.walgreens.com/locator/walgreens-10929+e+dynamite+blvd-scottsdale-az-85262/id=6729,Walgreens,open,10929 E DYNAMITE BLVD,Scottsdale,,Arizona,AZ,85262,US,33.7423,-111.845,America/Phoenix,,,480-538-9313,04,04013,04013216829,040132168294007,38060,429,ceo,census
12739,,https://www.walgreens.com/locator/walgreens-15450+n+tatum+blvd-phoenix-az-85032/id=12739,Walgreens,open,15450 N TATUM BLVD,Phoenix,,Arizona,AZ,85032,US,33.6265,-111.9787,America/Phoenix,,,602-996-3707,04,04013,04013103215,040131032152023,38060,429,ceo,census
5453,,https://www.walgreens.com/locator/walgreens-6501+e+greenway+pkwy-scottsdale-az-85254/id=5453,Walgreens,open,6501 E GREENWAY PKWY,Scottsdale,,Arizona,AZ,85254,US,33.6254,-111.9423,America/Phoenix,,,480-368-7893,04,04013,04013103220,040131032201000,38060,429,ceo,census
16082,,https://www.walgreens.com/locator/walgreens-10602+n+32nd+st-phoenix-az-85028/id=16082,Walgreens,open,10602 N 32ND ST,Phoenix,,Arizona,AZ,85028,US,33.5828,-112.0136,America/Phoenix,,,602-996-1152,04,04013,04013104802,040131048025000,38060,429,ceo,census
3191,,https://www.walgreens.com/locator/walgreens-10865+n+tatum+blvd-phoenix-az-85028/id=3191,Walgreens,open,10865 N TATUM BLVD,Phoenix,,Arizona,AZ,85028,US,33.5858,-111.9773,America/Phoenix,,,480-922-2725,04,04013,04013103209,040131032092003,38060,429,ceo,census
4507,,https://www.walgreens.com/locator/walgreens-15025+n+thompson+peak+pkwy-scottsdale-az-85260/id=4507,Walgreens,open,15025 N THOMPSON PEAK PKWY,Scottsdale,,Arizona,AZ,85260,US,33.6217,-111.8746,America/Phoenix,,,480-551-6429,04,04013,04013216853,040132168532000,38060,429,ceo,census
3177,,https://www.walgreens.com/locator/walgreens-7011+e+shea+blvd-scottsdale-az-85254/id=3177,Walgreens,open,7011 E SHEA BLVD,Scottsdale,,Arizona,AZ,85254,US,33.5816,-111.9297,America/Phoenix,,,480-948-7820,04,04013,04013216830,040132168301001,38060,429,ceo,census
12385,,https://www.walgreens.com/locator/walgreens-475+w+finnie+flat+rd-camp verde-az-86322/id=12385,Walgreens,open,475 W FINNIE FLAT RD,Camp Verde,,Arizona,AZ,86322,US,34.5654,-111.8622,America/Phoenix,,,928-239-3187,04,04025,04025001601,040250016013023,39150,,ceo,census
5567,,https://www.walgreens.com/locator/walgreens-550+s+main+st-cottonwood-az-86326/id=5567,Walgreens,open,550 S MAIN ST,Cottonwood,,Arizona,AZ,86326,US,34.7293,-112.0099,America/Phoenix,,,928-649-3850,04,04025,04025002001,040250020014025,39150,,ceo,census
4065,,https://www.walgreens.com/locator/walgreens-1995+w+state+route+89a-sedona-az-86336/id=4065,Walgreens,open,1995 W STATE ROUTE 89A,Sedona,,Arizona,AZ,86336,US,34.8632,-111.795,America/Phoenix,,,928-282-3903,04,04025,04025001801,040250018013003,39150,,ceo,census
6666,,https://www.walgreens.com/locator/walgreens-2880+n+centre+ct-prescott valley-az-86314/id=6666,Walgreens,open,2880 N CENTRE CT,Prescott Valley,,Arizona,AZ,86314,US,34.5843,-112.3398,America/Phoenix,,,928-772-4938,04,04025,04025000615,040250006152027,39150,,ceo,census
2555,,https://www.walgreens.com/locator/walgreens-178+e+sheldon+st-prescott-az-86301/id=2555,Walgreens,open,178 E SHELDON ST,Prescott,,Arizona,AZ,86301,US,34.5464,-112.4679,America/Phoenix,,,928-776-1936,04,04025,04025000901,040250009011029,39150,,ceo,census
9292,,https://www.walgreens.com/locator/walgreens-1310+willow+creek+rd-prescott-az-86301/id=9292,Walgreens,open,1310 WILLOW CREEK RD,Prescott,,Arizona,AZ,86301,US,34.5674,-112.4829,America/Phoenix,,,928-227-9965,04,04025,04025001004,040250010042009,39150,,ceo,census
9571,,https://www.walgreens.com/locator/walgreens-1020+n+state+route+89-chino valley-az-86323/id=9571,Walgreens,open,1020 N STATE ROUTE 89,Chino Valley,,Arizona,AZ,86323,US,34.7607,-112.4546,America/Phoenix,,,928-636-2986,04,04025,04025000211,040250002112026,39150,,ceo,census
6533,,https://www.walgreens.com/locator/walgreens-100+s+beeline+hwy-payson-az-85541/id=6533,Walgreens,open,100 S BEELINE HWY,Payson,,Arizona,AZ,85541,US,34.2401,-111.3238,America/Phoenix,,,928-474-1599,04,04007,04007000301,040070003013000,37740,429,ceo,census
5221,,https://www.walgreens.com/locator/walgreens-1025+s+milton+rd-flagstaff-az-86001/id=5221,Walgreens,open,1025 S MILTON RD,Flagstaff,,Arizona,AZ,86001,US,35.191,-111.6613,America/Phoenix,,,928-779-9588,04,04005,04005001104,040050011042001,22380,,ceo,census
15206,,https://www.walgreens.com/locator/walgreens-2610+e+route+66-flagstaff-az-86004/id=15206,Walgreens,open,2610 E ROUTE 66,Flagstaff,,Arizona,AZ,86004,US,35.207,-111.6125,America/Phoenix,,,928-773-1155,04,04005,04005000400,040050004003016,22380,,ceo,fcc
3913,,https://www.walgreens.com/locator/walgreens-2360+highway+95-bullhead city-az-86442/id=3913,Walgreens,open,2360 HIGHWAY 95,Bullhead City,,Arizona,AZ,86442,US,35.1014,-114.5976,America/Phoenix,,,928-763-5858,04,04015,04015951501,040159515011010,29420,,ceo,census
12880,,https://www.walgreens.com/locator/walgreens-1925+e+andy+devine+ave-kingman-az-86401/id=12880,Walgreens,open,1925 E ANDY DEVINE AVE,Kingman,,Arizona,AZ,86401,US,35.1946,-114.0326,America/Phoenix,,,928-753-7766,04,04015,04015953800,040159538001072,29420,,ceo,census
3245,,https://www.walgreens.com/locator/walgreens-3487+n+stockton+hill+rd-kingman-az-86409/id=3245,Walgreens,open,3487 N STOCKTON HILL RD,Kingman,,Arizona,AZ,86409,US,35.2245,-114.0372,America/Phoenix,,,928-692-1822,04,04015,04015954900,040159549001005,29420,,ceo,census
5208,,https://www.walgreens.com/locator/walgreens-25+lake+havasu+ave+s-lake havasu city-az-86403/id=5208,Walgreens,open,25 LAKE HAVASU AVE S,Lake Havasu City,,Arizona,AZ,86403,US,34.4732,-114.3438,America/Los_Angeles,,,928-453-2808,04,04015,04015953200,040159532001014,29420,,ceo,census
6129,,https://www.walgreens.com/locator/walgreens-2021+n+pinal+ave-casa grande-az-85122/id=6129,Walgreens,open,2021 N PINAL AVE,Casa Grande,,Arizona,AZ,85122,US,32.9093,-111.758,America/Phoenix,,,520-876-0265,04,04021,04021001307,040210013073000,38060,429,ceo,census
10505,,https://www.walgreens.com/locator/walgreens-2785+n+pinal+ave-casa grande-az-85122/id=10505,Walgreens,open,2785 N PINAL AVE,Casa Grande,,Arizona,AZ,85122,US,32.9379,-111.7575,America/Phoenix,,,520-421-0031,04,04021,04021001308,040210013081000,38060,429,ceo,census
4344,,https://www.walgreens.com/locator/walgreens-1514+e+florence+blvd-casa grande-az-85122/id=4344,Walgreens,open,1514 E FLORENCE BLVD,Casa Grande,,Arizona,AZ,85122,US,32.8801,-111.7221,America/Phoenix,,,520-836-2787,04,04021,04021001405,040210014051022,38060,429,ceo,census
10998,,https://www.walgreens.com/locator/walgreens-2483+e+florence+blvd-casa grande-az-85194/id=10998,Walgreens,open,2483 E FLORENCE BLVD,Casa Grande,,Arizona,AZ,85194,US,32.8791,-111.6801,America/Phoenix,,,520-836-1185,04,04021,04021001408,040210014081000,38060,429,ceo,fcc
9652,,https://www.walgreens.com/locator/walgreens-1575+n+arizona+blvd-coolidge-az-85128/id=9652,Walgreens,open,1575 N ARIZONA BLVD,Coolidge,,Arizona,AZ,85128,US,32.9986,-111.5232,America/Phoenix,,,520-723-5480,04,04021,04021001000,040210010002029,38060,429,ceo,fcc
21293,,https://www.walgreens.com/locator/walgreens-41840+w+maricopa+casa+grande+hwy-maricopa-az-85138/id=21293,Walgreens,open,41840 W MARICOPA CASA GRANDE HWY,Maricopa,,Arizona,AZ,85138,US,33.0388,-112.0172,America/Phoenix,,,520-635-2334,04,04021,04021001714,040210017142031,38060,429,ceo,fcc
9264,,https://www.walgreens.com/locator/walgreens-21274+n+john+wayne+pkwy-maricopa-az-85139/id=9264,Walgreens,open,21274 N JOHN WAYNE PKWY,Maricopa,,Arizona,AZ,85139,US,33.073,-112.0448,America/Phoenix,,,520-568-0672,04,04021,04021001715,040210017152021,38060,429,ceo,census
3669,,https://www.walgreens.com/locator/walgreens-10324+e+riggs+rd-sun lakes-az-85248/id=3669,Walgreens,open,10324 E RIGGS RD,Sun Lakes,,Arizona,AZ,85248,US,33.2188,-111.8595,America/Phoenix,,,480-895-0761,04,04013,04013817300,040138173003021,38060,429,ceo,census
3531,,https://www.walgreens.com/locator/walgreens-4949+w+chandler+blvd-chandler-az-85226/id=3531,Walgreens,open,4949 W CHANDLER BLVD,Chandler,,Arizona,AZ,85226,US,33.3048,-111.928,America/Phoenix,,,480-592-9465,04,04013,04013811000,040138110002003,38060,429,ceo,census
11181,,https://www.walgreens.com/locator/walgreens-5975+w+ray+rd-chandler-az-85226/id=11181,Walgreens,open,5975 W RAY RD,Chandler,,Arizona,AZ,85226,US,33.3193,-111.9445,America/Phoenix,,,480-214-9120,04,04013,04013810500,040138105003013,38060,429,ceo,census
4046,,https://www.walgreens.com/locator/walgreens-3960+e+chandler+blvd-phoenix-az-85048/id=4046,Walgreens,open,3960 E CHANDLER BLVD,Phoenix,,Arizona,AZ,85048,US,33.306,-111.998,America/Phoenix,,,480-759-1368,04,04013,04013116721,040131167212021,38060,429,ceo,census
4376,,https://www.walgreens.com/locator/walgreens-1825+e+warner+rd-tempe-az-85284/id=4376,Walgreens,open,1825 E WARNER RD,Tempe,,Arizona,AZ,85284,US,33.3341,-111.9099,America/Phoenix,,,480-820-9984,04,04013,04013810100,040138101004022,38060,429,ceo,census
5569,,https://www.walgreens.com/locator/walgreens-1315+e+chandler+blvd-phoenix-az-85048/id=5569,Walgreens,open,1315 E CHANDLER BLVD,Phoenix,,Arizona,AZ,85048,US,33.3052,-112.0549,America/Phoenix,,,480-460-3945,04,04013,04013116725,040131167253007,38060,429,ceo,census
13870,,https://www.walgreens.com/locator/walgreens-4875+e+elliot+rd-phoenix-az-85044/id=13870,Walgreens,open,4875 E ELLIOT RD,Phoenix,,Arizona,AZ,85044,US,33.3484,-111.9787,America/Phoenix,,,480-496-0019,04,04013,04013116708,040131167082001,38060,429,ceo,census
2398,,https://www.walgreens.com/locator/walgreens-925+w+baseline+rd-tempe-az-85283/id=2398,Walgreens,open,925 W BASELINE RD,Tempe,,Arizona,AZ,85283,US,33.3777,-111.9534,America/Phoenix,,,480-820-1990,04,04013,04013320007,040133200072007,38060,429,ceo,census
11610,,https://www.walgreens.com/locator/walgreens-2000+s+mill+ave-tempe-az-85282/id=11610,Walgreens,open,2000 S MILL AVE,Tempe,,Arizona,AZ,85282,US,33.407,-111.9403,America/Phoenix,,,480-921-8013,04,04013,04013319600,040133196004002,38060,429,ceo,census
4422,,https://www.walgreens.com/locator/walgreens-3945+e+southern+ave-phoenix-az-85040/id=4422,Walgreens,open,3945 E SOUTHERN AVE,Phoenix,,Arizona,AZ,85040,US,33.3921,-111.9961,America/Phoenix,,,602-426-0501,04,04013,04013116203,040131162032000,38060,429,ceo,census
6535,,https://www.walgreens.com/locator/walgreens-2420+e+baseline+rd-phoenix-az-85042/id=6535,Walgreens,open,2420 E BASELINE RD,Phoenix,,Arizona,AZ,85042,US,33.3785,-112.0297,America/Phoenix,,,602-268-7232,04,04013,04013116300,040131163003016,38060,429,ceo,census
3163,,https://www.walgreens.com/locator/walgreens-3420+n+scottsdale+rd-scottsdale-az-85251/id=3163,Walgreens,open,3420 N SCOTTSDALE RD,Scottsdale,,Arizona,AZ,85251,US,33.4881,-111.9267,America/Phoenix,,,480-941-0915,04,04013,04013217201,040132172011027,38060,429,ceo,census
4506,,https://www.walgreens.com/locator/walgreens-8015+e+indian+school+rd-scottsdale-az-85251/id=4506,Walgreens,open,8015 E INDIAN SCHOOL RD,Scottsdale,,Arizona,AZ,85251,US,33.4937,-111.9082,America/Phoenix,,,480-990-0202,04,04013,04013217700,040132177002005,38060,429,ceo,census
2599,,https://www.walgreens.com/locator/walgreens-7337+n+via+paseo+del+sur-scottsdale-az-85258/id=2599,Walgreens,open,7337 N VIA PASEO DEL SUR,Scottsdale,,Arizona,AZ,85258,US,33.5437,-111.9056,America/Phoenix,,,480-951-0732,04,04013,04013216806,040132168062007,38060,429,ceo,census
13758,,https://www.walgreens.com/locator/walgreens-6200+n+scottsdale+rd-scottsdale-az-85253/id=13758,Walgreens,open,6200 N SCOTTSDALE RD,Scottsdale,,Arizona,AZ,85253,US,33.5291,-111.9265,America/Phoenix,,,480-822-6197,04,04013,04013216901,040132169012024,38060,429,ceo,census
2851,,https://www.walgreens.com/locator/walgreens-7000+n+16th+st-phoenix-az-85020/id=2851,Walgreens,open,7000 N 16TH ST,Phoenix,,Arizona,AZ,85020,US,33.5387,-112.048,America/Phoenix,,,602-943-3192,04,04013,04013106300,040131063002005,38060,429,ceo,census
7018,,https://www.walgreens.com/locator/walgreens-6838+n+7th+st-phoenix-az-85014/id=7018,Walgreens,open,6838 N 7TH ST,Phoenix,,Arizona,AZ,85014,US,33.5376,-112.0654,America/Phoenix,,,602-274-6209,04,04013,04013106600,040131066002000,38060,429,ceo,census
9262,,https://www.walgreens.com/locator/walgreens-8469+e+mcdonald+dr-scottsdale-az-85250/id=9262,Walgreens,open,8469 E MCDONALD DR,Scottsdale,,Arizona,AZ,85250,US,33.5234,-111.8982,America/Phoenix,,,480-483-1045,04,04013,04013217002,040132170022000,38060,429,ceo,census
5938,,https://www.walgreens.com/locator/walgreens-4134+n+44th+st-phoenix-az-85018/id=5938,Walgreens,open,4134 N 44TH ST,Phoenix,,Arizona,AZ,85018,US,33.4959,-111.9874,America/Phoenix,,,602-954-9119,04,04013,04013108200,040131082003012,38060,429,ceo,census
3769,,https://www.walgreens.com/locator/walgreens-1616+e+thomas+rd-phoenix-az-85016/id=3769,Walgreens,open,1616 E THOMAS RD,Phoenix,,Arizona,AZ,85016,US,33.4807,-112.047,America/Phoenix,,,602-263-8307,04,04013,04013110701,040131107012015,38060,429,ceo,census
4722,,https://www.walgreens.com/locator/walgreens-4111+n+24th+st-phoenix-az-85016/id=4722,Walgreens,open,4111 N 24TH ST,Phoenix,,Arizona,AZ,85016,US,33.4953,-112.0296,America/Phoenix,,,602-381-0696,04,04013,04013108400,040131084003007,38060,429,ceo,census
3087,,https://www.walgreens.com/locator/walgreens-5625+e+thomas+rd-phoenix-az-85018/id=3087,Walgreens,open,5625 E THOMAS RD,Phoenix,,Arizona,AZ,85018,US,33.4795,-111.9605,America/Phoenix,,,480-949-0302,04,04013,04013217400,040132174002003,38060,429,ceo,fcc
3789,,https://www.walgreens.com/locator/walgreens-3605+e+thomas+rd-phoenix-az-85018/id=3789,Walgreens,open,3605 E THOMAS RD,Phoenix,,Arizona,AZ,85018,US,33.48,-112.0035,America/Phoenix,,,602-275-7507,04,04013,04013111402,040131114021000,38060,429,ceo,census
5312,,https://www.walgreens.com/locator/walgreens-375+w+continental+rd-green valley-az-85622/id=5312,Walgreens,open,375 W CONTINENTAL RD,Green Valley,,Arizona,AZ,85622,US,31.8516,-110.9987,America/Phoenix,,,520-648-2320,04,04019,04019004317,040190043174021,46060,536,ceo,census
2232,,https://www.walgreens.com/locator/walgreens-313+w+esperanza+blvd-green valley-az-85614/id=2232,Walgreens,open,313 W ESPERANZA BLVD,Green Valley,,Arizona,AZ,85614,US,31.8697,-110.996,America/Phoenix,,,520-648-2417,04,04019,04019004330,040190043302000,46060,536,ceo,census
